     2              OBSERVATION DATA    GPS                 RINEX VERSION / TYPE
BJfmt               Jason               2014-11-14 09:21:06 PGM / RUN BY / DATE
JA2_PLTM1_P_20141114_084611_20141114_071231_20141114_085145 MARKER NAME
ESPC/FileManager    NOAA/NESDIS/OSPO                        OBSERVER / AGENCY
RECNUM              RECTYPE             RECVERS             REC # / TYPE / VERS
ANTNUM              ANTTYPE                                 ANT # / TYPE
        0.0000        0.0000        0.0000                  APPROX POSITION XYZ
        0.0000        0.0000        0.0000                  ANTENNA: DELTA H/E/N
     1     1     0                                          WAVELENGTH FACT L1/2
     5    L1    L2    C1    P1    P2                        # / TYPES OF OBSERV
  5950                                                      INTERVAL
  2014    11    14    07    12   40.000000      GPS         TIME OF FIRST OBS
SNR is mapped to signal strength [0,1,2-9]                  COMMENT
 SNR: >500 >100  >50  >10   >5   >3  >1  >0  bad  n/a       COMMENT
 sig:    9    8    7    6    5    4   3   2    1    0       COMMENT
                                                            END OF HEADER
 14 11 14 07 12 40.0000000  0  4 07 09 10 30
 -19821556.06348 -15445364.47748  19791760.56349  19791761.04048  19791760.70248
 -13424896.52649 -10460957.23149  19754943.27649  19754943.77449  19754945.67749
   2336943.54146   1820999.15246  23057705.75748  23057705.26046  23057707.24446
  -8602224.22246  -6703025.65547  22727199.53848  22727199.82246  22727202.59947
 14 11 14 07 12 50.0000000  0  8 05 07 09 10 13 16 23 30
   1212185.61556    944566.10655  23751795.03858  23751795.31956  23751796.56655
 -19682726.51848 -15337185.61448  19818178.82049  19818179.43748  19818179.08548
 -13446304.20549 -10477638.54249  19750869.51449  19750870.03649  19750871.93649
   2602423.49946   2027866.62646  23108224.94048  23108224.29646  23108225.90546
  -9421824.94257  -7341676.07857  21395761.09958  21395761.58357  21395761.26757
 -12737617.94758  -9925418.19357  20688845.14358  20688845.32958  20688844.89057
 -10650550.14258  -8299128.27758  21283998.35059  21283998.31158  21283996.07758
  -8369690.78546  -6521830.77447  22771448.93848  22771449.29946  22771451.92847
 14 11 14 07 13 00.0000000  0  8 05 07 09 10 13 16 23 30
   1553084.91846   1210201.87345  23816665.69947  23816666.13246  23816666.69645
 -19540868.16248 -15226646.63448  19845173.61949  19845174.10348  19845173.79348
 -13464720.81149 -10491989.14849  19747364.97049  19747365.45249  19747367.44049
   2868905.84346   2235515.18746  23158934.68648  23158934.63646  23158936.24746
  -9156065.20047  -7134590.56147  21446333.63548  21446333.88947  21446333.35647
 -12793092.95748  -9968645.46447  20678288.66748  20678288.65948  20678288.31047
 -10841528.32548  -8447942.45348  21247656.13249  21247656.41548  21247654.25448
  -8135742.06546  -6339533.07047  22815968.04648  22815968.29046  22815971.51247
 14 11 14 07 13 10.0000000  0  8 05 07 09 10 13 16 23 30
   1895050.71346   1476668.84945  23881739.43747  23881740.28346  23881738.69845
 -19395993.43048 -15113757.24548  19872742.40049  19872742.88048  19872742.55548
 -13480137.36149 -10504002.05449  19744431.22049  19744431.80549  19744433.70549
   3136365.81346   2443925.53346  23209830.88248  23209830.33946  23209831.56346
  -8888638.96947  -6926206.49447  21497223.14248  21497223.72847  21497223.45847
 -12844834.70348 -10008963.71447  20668442.71948  20668442.67448  20668442.35147
 -11030637.93548  -8595300.60948  21211669.93849  21211670.05948  21211667.83148
  -7900391.04746  -6156142.68647  22860753.64448  22860754.84246  22860757.22047
 14 11 14 07 13 20.0000000  0  8 05 07 09 10 13 16 23 30
   2238054.41046   1743944.28845  23947011.26647  23947011.36546  23947010.43545
 -19248114.72748 -14998527.09548  19900882.74349  19900883.26048  19900882.94748
 -13492545.09949 -10513670.42149  19742070.08149  19742070.60249  19742072.66449
   3404778.93746   2653078.60646  23260908.42648  23260908.08346  23260909.27646
  -8619567.50247  -6716540.42346  21548425.83248  21548426.26847  21548425.78546
 -12892831.98748 -10046364.20247  20659309.05448  20659308.94548  20659308.77047
 -11217850.86848  -8741180.82648  21176044.65649  21176044.64148  21176042.50448
  -7663650.48746  -5971669.53847  22905803.98648  22905804.75446  22905807.02347
 14 11 14 07 13 30.0000000  0  7 07 09 10 13 16 23 30
 -19097263.24548 -14880980.49448  19929588.78449  19929589.35248  19929589.05348
 -13501954.13449 -10521002.13349  19740279.62649  19740280.09649  19740282.09149
   3674102.52346   2862941.13946  23312158.85348  23312158.59746  23312160.13146
  -8348890.37147  -6505623.17946  21599933.64348  21599934.04647  21599934.07546
 -12937092.35448 -10080852.81047  20650886.48948  20650886.70648  20650886.27047
 -11403157.56548  -8885575.66048  21140781.82149  21140781.97748  21140779.79348
  -7425551.57546  -5786137.92447  22951112.40148  22951113.15646  22951115.97147
 14 11 14 07 13 40.0000000  0  7 07 09 10 13 16 23 30
 -18943434.75448 -14761114.14348  19958861.41049  19958861.91648  19958861.68748
 -13508339.15449 -10525977.46249  19739064.57749  19739065.16849  19739067.06849
   3944329.96246   3073507.96746  23363581.41348  23363579.85746  23363581.71546
  -8076611.17946  -6293457.58146  21651746.71148  21651747.25246  21651746.71346
 -12977588.50048 -10112408.24147  20643180.37148  20643180.45648  20643180.16147
 -11586512.70148  -9028449.79048  21105890.54849  21105890.55448  21105888.40148
  -7186089.72046  -5599544.26046  22996680.50348  22996681.02346  22996683.66546
 14 11 14 07 13 43.0000000  0  1 27
         0.32558         0.69757  20526762.17558  20526763.55958  20526764.07357
 14 11 14 07 13 43.0000000  0  1 27
         0.32548         0.69747  20526762.17548  20526763.55948  20526764.07347
 14 11 14 07 13 45.0000000  0  1 27
         0.24948         0.91844  20517210.95948  20517211.49648  20517240.59244
 14 11 14 07 13 46.0000000  0  1 27
    -25034.67448    -19507.94842  20512447.02148  20512447.40748  20512492.83942
 14 11 14 07 13 47.0000000  0  1 27
    -50022.69448    -38976.13048  20507691.81349  20507692.09948  20507690.74248
 14 11 14 07 13 48.0000000  0  1 27
    -74975.72848    -58420.24548  20502943.70549  20502943.89048  20502946.04648
 14 11 14 07 13 49.0000000  0  1 27
    -99896.81948    -77839.27048  20498201.17249  20498201.35748  20498203.74748
 14 11 14 07 13 50.0000000  0  8 07 09 10 13 16 23 27 30
 -18786731.03158 -14639007.34658  19988681.05459  19988681.65058  19988681.31558
 -13511781.00759 -10528659.42259  19738409.70659  19738410.15359  19738412.11359
   4215349.19456   3284691.77556  23415154.46658  23415154.43656  23415155.70656
  -7802839.19956  -6080128.76656  21703843.76558  21703844.44656  21703844.11756
 -13014399.44858 -10141092.09857  20636175.43958  20636175.51058  20636175.19057
 -11767976.72358  -9169850.33858  21071358.97159  21071359.19958  21071357.05358
   -124772.97148    -97223.29448  20493467.49349  20493467.98948  20493469.93848
  -6945365.94856  -5411967.26456  23042489.06958  23042489.78856  23042491.87856
 14 11 14 07 13 51.0000000  0  1 27
   -149601.25848   -116570.00148  20488742.62149  20488743.04048  20488745.27048
 14 11 14 07 13 52.0000000  0  1 27
   -174386.72548   -135883.35448  20484026.27449  20484026.63748  20484028.95348
 14 11 14 07 13 53.0000000  0  1 27
   -199131.04648   -155164.64948  20479317.42549  20479318.10348  20479320.22948
 14 11 14 07 13 54.0000000  0  1 27
   -223842.48148   -174420.30548  20474615.37349  20474615.45548  20474617.73948
 14 11 14 07 13 55.0000000  0  1 27
   -248522.87048   -193651.77848  20469918.52349  20469918.68148  20469921.01448
 14 11 14 07 13 56.0000000  0  1 27
   -273157.38248   -212847.50648  20465230.69249  20465230.82848  20465233.33048
 14 11 14 07 13 57.0000000  0  1 27
   -297742.67048   -232004.87648  20460552.11649  20460552.47748  20460554.91548
 14 11 14 07 13 58.0000000  0  1 27
   -322283.71448   -251127.76248  20455881.98149  20455883.05148  20455885.05548
 14 11 14 07 13 59.0000000  0  1 27
   -346783.06848   -270218.17348  20451220.46849  20451220.84148  20451222.79848
 14 11 14 07 14 00.0000000  0  8 07 09 10 13 16 23 27 30
 -18627083.41758 -14514606.60458  20019060.92859  20019061.53658  20019061.27158
 -13512190.21859 -10528978.28659  19738331.83959  19738332.35659  19738334.17459
   4487218.86756   3496538.29356  23466889.55858  23466889.31656  23466890.64656
  -7527513.25156  -5865589.07156  21756236.53958  21756237.07156  21756236.43956
 -13047434.33558 -10166833.56757  20629889.22258  20629889.22858  20629888.73057
 -11947439.42558  -9309691.41358  21037208.43259  21037208.55958  21037206.38458
   -371249.61248   -289283.00348  20446564.57749  20446564.97248  20446567.09148
  -6703310.56056  -5223352.69256  23088550.46558  23088549.78756  23088554.03556
 14 11 14 07 14 01.0000000  0  1 27
   -395684.88748   -308323.47448  20441914.56349  20441914.90048  20441917.27648
 14 11 14 07 14 02.0000000  0  1 27
   -420075.08348   -327328.83448  20437273.07249  20437273.64648  20437275.70248
 14 11 14 07 14 03.0000000  0  1 27
   -444415.87848   -346295.69248  20432641.28349  20432641.54448  20432644.22348
 14 11 14 07 14 04.0000000  0  1 27
   -468721.43548   -365235.07248  20428016.33549  20428016.60048  20428018.95048
 14 11 14 07 14 05.0000000  0  1 27
   -492994.52748   -384149.17248  20423397.29849  20423397.56948  20423399.58648
 14 11 14 07 14 06.0000000  0  1 27
   -517221.50048   -403027.33848  20418786.91949  20418787.02748  20418789.62048
 14 11 14 07 14 07.0000000  0  1 27
   -541400.53148   -421868.14148  20414185.47049  20414186.00448  20414188.32348
 14 11 14 07 14 08.0000000  0  1 27
   -565535.14448   -440674.33148  20409593.11249  20409593.31548  20409595.73948
 14 11 14 07 14 09.0000000  0  1 27
   -589627.29948   -459447.44748  20405008.68949  20405008.97248  20405011.12548
 14 11 14 07 14 10.0000000  0  8 07 09 10 13 16 23 27 30
 -18464563.25258 -14387967.51258  20049987.61359  20049988.18258  20049987.82658
 -13509617.38959 -10526973.48259  19738821.39959  19738821.93259  19738823.84259
   4759858.27056   3708984.56056  23518771.20758  23518771.44056  23518772.64256
  -7250711.45356  -5649899.34156  21808910.31058  21808910.71256  21808910.62356
 -13076742.62858 -10189671.19257  20624311.82058  20624311.88858  20624311.73657
 -12124930.37158  -9447996.06158  21003433.01059  21003433.10158  21003431.00958
   -613686.38348   -478194.77548  20400430.32549  20400430.83748  20400432.93548
  -6459993.67256  -5033755.10556  23134852.09158  23134851.87256  23134855.33656
 14 11 14 07 14 11.0000000  0  1 27
   -637711.84448   -496915.91448  20395858.68849  20395858.59948  20395860.85248
 14 11 14 07 14 12.0000000  0  1 27
   -661692.21948   -515601.92648  20391295.22749  20391295.30848  20391297.56448
 14 11 14 07 14 13.0000000  0  1 27
   -685623.55048   -534249.71948  20386741.27949  20386741.59148  20386743.46748
 14 11 14 07 14 14.0000000  0  1 27
   -709519.11948   -552869.63648  20382194.14649  20382194.30048  20382196.60448
 14 11 14 07 14 15.0000000  0  1 27
   -733380.26348   -571462.73348  20377653.31349  20377653.66348  20377655.79248
 14 11 14 07 14 16.0000000  0  1 27
   -757195.32048   -590019.92948  20373121.36149  20373121.76348  20373123.96348
 14 11 14 07 14 17.0000000  0  1 27
   -780961.47348   -608539.00548  20368598.87749  20368599.24948  20368601.56648
 14 11 14 07 14 18.0000000  0  1 27
   -804682.92548   -627023.25248  20364084.98349  20364085.21048  20364087.63248
 14 11 14 07 14 19.0000000  0  1 27
   -828361.27748   -645473.92248  20359578.94649  20359579.28948  20359581.54448
 14 11 14 07 14 20.0000000  0  8 07 09 10 13 16 23 27 30
 -18299179.14158 -14259096.77558  20081459.16859  20081459.77258  20081459.36358
 -13504050.33859 -10522635.52059  19739880.76859  19739881.28959  19739883.20259
   5033250.11756   3922017.16356  23570795.86558  23570795.44556  23570797.17056
  -6972448.48156  -5433071.06556  21861861.61358  21861861.96756  21861862.38956
 -13102311.36558 -10209594.88357  20619446.38658  20619446.51058  20619446.15757
 -12300415.98758  -9584738.11058  20970039.19959  20970039.35958  20970037.26658
   -852005.81448   -663898.22548  20355079.41549  20355080.22948  20355082.16648
  -6215421.94456  -4843179.73456  23181392.60958  23181392.60656  23181396.07456
 14 11 14 07 14 21.0000000  0  1 27
   -875618.79248   -682297.94748  20350586.02549  20350586.45148  20350588.50248
 14 11 14 07 14 22.0000000  0  1 27
   -899184.47948   -700660.83048  20346101.66349  20346102.13648  20346104.41548
 14 11 14 07 14 23.0000000  0  1 27
   -922700.65348   -718985.12248  20341626.48249  20341627.26248  20341629.60148
 14 11 14 07 14 24.0000000  0  1 27
   -946180.09748   -737280.78548  20337158.49749  20337159.16048  20337161.61348
 14 11 14 07 14 25.0000000  0  1 27
   -969625.14448   -755549.64948  20332697.34949  20332697.48848  20332699.92248
 14 11 14 07 14 26.0000000  0  1 27
   -993022.12648   -773781.07148  20328244.96749  20328245.21648  20328247.60748
 14 11 14 07 14 27.0000000  0  1 27
  -1016370.19948   -791974.37748  20323802.07349  20323801.98748  20323804.84448
 14 11 14 07 14 28.0000000  0  1 27
  -1039682.88748   -810140.10048  20319365.67449  20319366.31948  20319368.37148
 14 11 14 07 14 29.0000000  0  1 27
  -1062962.58448   -828280.12248  20314935.63449  20314936.06748  20314938.36248
 14 11 14 07 14 30.0000000  0  8 07 09 10 13 16 23 27 30
 -18130978.11358 -14128031.03658  20113466.86159  20113467.48658  20113466.93958
 -13495515.65159 -10515985.11759  19741504.88059  19741505.33959  19741507.28859
   5307339.00756   4135592.90056  23622953.57858  23622953.51056  23622954.13056
  -6692777.29756  -5215145.45556  21915081.45758  21915082.06856  21915082.11056
 -13124166.80658 -10226625.09357  20615287.45058  20615287.59758  20615287.29457
 -12473901.09058  -9719921.32658  20937026.08759  20937026.31158  20937024.10158
  -1086194.80148   -846383.15548  20310514.72949  20310515.36248  20310517.49748
  -5969640.55356  -4651661.74256  23228163.25158  23228163.24656  23228166.63356
 14 11 14 07 14 31.0000000  0  1 27
  -1109374.81348   -864445.50148  20306103.86949  20306104.05048  20306106.31648
 14 11 14 07 14 32.0000000  0  1 27
  -1132500.56248   -882465.57248  20301703.46249  20301703.24348  20301705.60248
 14 11 14 07 14 33.0000000  0  1 27
  -1155575.41448   -900445.97948  20297312.26949  20297312.53248  20297314.71048
 14 11 14 07 14 34.0000000  0  1 27
  -1178612.05648   -918396.60048  20292928.44649  20292928.69448  20292931.09648
 14 11 14 07 14 35.0000000  0  1 27
  -1201613.50548   -936319.81248  20288551.38449  20288551.83348  20288554.13248
 14 11 14 07 14 36.0000000  0  1 27
  -1224584.08748   -954218.95948  20284180.34849  20284180.62648  20284182.86148
 14 11 14 07 14 37.0000000  0  1 27
  -1247522.87148   -972093.34348  20279814.90049  20279815.34248  20279817.46248
 14 11 14 07 14 38.0000000  0  1 27
  -1270414.27648   -989930.80348  20275459.08549  20275459.33848  20275461.68548
 14 11 14 07 14 39.0000000  0  1 27
  -1293256.22648  -1007729.72348  20271112.40949  20271112.95148  20271115.22548
 14 11 14 07 14 40.0000000  0  8 07 09 10 13 16 23 27 30
 -17959870.80558 -13994700.66458  20146027.48159  20146028.07358  20146027.55458
 -13483903.66959 -10506936.82259  19743714.55059  19743715.01659  19743717.03759
   5582206.38456   4349775.23056  23675258.79458  23675258.35156  23675259.70156
  -6411614.03956  -4996057.19756  21968584.83158  21968584.80856  21968585.68756
 -13142198.99658 -10240676.14757  20611856.04258  20611856.06258  20611855.84457
 -12645254.00258  -9853443.09358  20904418.59859  20904418.90458  20904416.84358
  -1316060.52248  -1025499.30148  20266773.08649  20266773.31548  20266775.56948
  -5722557.85156  -4459129.76056  23275181.35858  23275181.19656  23275184.48656
 14 11 14 07 14 41.0000000  0  1 27
  -1338828.35848  -1043240.47048  20262440.18049  20262440.63248  20262442.69248
 14 11 14 07 14 42.0000000  0  1 27
  -1361547.76848  -1060943.91548  20258116.71549  20258117.16148  20258119.48748
 14 11 14 07 14 43.0000000  0  1 27
  -1384217.36248  -1078608.53048  20253803.00449  20253803.70748  20253805.52148
 14 11 14 07 14 44.0000000  0  1 27
  -1406849.99048  -1096244.33748  20249495.92449  20249496.69348  20249498.86948
 14 11 14 07 14 45.0000000  0  1 27
  -1429446.99048  -1113852.39248  20245196.08749  20245196.54948  20245198.69748
 14 11 14 07 14 46.0000000  0  1 27
  -1451996.48648  -1131423.43348  20240905.20949  20240905.38748  20240907.51448
 14 11 14 07 14 47.0000000  0  1 27
  -1474496.74148  -1148956.10048  20236623.41249  20236623.52248  20236626.14648
 14 11 14 07 14 48.0000000  0  1 27
  -1496952.13348  -1166453.80848  20232350.04149  20232350.50948  20232352.68748
 14 11 14 07 14 49.0000000  0  1 27
  -1519362.92048  -1183916.75748  20228085.61549  20228086.11248  20228088.39848
 14 11 14 07 14 50.0000000  0  8 07 09 10 13 16 23 27 30
 -17786038.18258 -13859246.66558  20179106.71459  20179107.23758  20179106.75758
 -13469375.05059 -10495615.81759  19746479.21059  19746479.70959  19746481.79559
   5857663.99556   4564417.53756  23727676.66558  23727677.19656  23727677.57956
  -6129144.86956  -4775951.34556  22022337.09358  22022337.34656  22022337.28556
 -13156568.68758 -10251873.29857  20609121.68658  20609121.79358  20609121.36557
 -12814613.09558  -9985411.22458  20872190.80759  20872190.84458  20872188.75658
  -1541737.84948  -1201351.76148  20223828.12649  20223828.55048  20223830.42848
  -5474352.10056  -4265722.68356  23322413.65158  23322413.33456  23322417.12356
 14 11 14 07 14 51.0000000  0  1 27
  -1564079.20248  -1218760.60548  20219576.42349  20219576.94248  20219578.98748
 14 11 14 07 14 52.0000000  0  1 27
  -1586372.54348  -1236132.04848  20215334.19749  20215334.38148  20215336.90748
 14 11 14 07 14 53.0000000  0  1 27
  -1608615.55748  -1253464.26448  20211101.50749  20211102.06748  20211103.91048
 14 11 14 07 14 54.0000000  0  1 27
  -1630803.68948  -1270753.72848  20206879.23849  20206879.51948  20206881.82548
 14 11 14 07 14 55.0000000  0  1 27
  -1652937.99948  -1288001.24048  20202666.97049  20202667.53248  20202669.94948
 14 11 14 07 14 56.0000000  0  1 27
  -1675031.96248  -1305217.30848  20198462.88749  20198463.27548  20198465.45648
 14 11 14 07 14 57.0000000  0  1 27
  -1697089.95348  -1322405.36148  20194265.46449  20194265.97948  20194267.82348
 14 11 14 07 14 58.0000000  0  1 27
  -1719114.21448  -1339567.12148  20190074.71349  20190074.42048  20190076.93448
 14 11 14 07 14 59.0000000  0  1 27
  -1741104.77548  -1356702.62148  20185889.83849  20185889.82948  20185892.25748
 14 11 14 07 15 00.0000000  0  8 07 09 10 13 16 23 27 30
 -17609366.80058 -13721580.65358  20212726.19159  20212726.74458  20212726.21358
 -13451796.27459 -10481918.07959  19749824.32259  19749824.87759  19749826.89859
   6133818.38256   4779602.75956  23780226.89858  23780226.09156  23780228.46656
  -5845261.21256  -4554743.29956  22076358.18358  22076358.62856  22076358.82756
 -13167142.68758 -10260112.78757  20607109.51758  20607109.30558  20607109.07957
 -12981822.18958 -10115704.04758  20840371.92959  20840372.04758  20840370.01758
  -1763047.01648  -1373800.47248  20181714.17849  20181714.57048  20181716.82848
  -5224907.00956  -4071349.87356  23369881.74358  23369881.64756  23369884.76756
 14 11 14 07 15 01.0000000  0  1 27
  -1784938.41648  -1390858.71248  20177548.42149  20177548.71248  20177550.82948
 14 11 14 07 15 02.0000000  0  1 27
  -1806792.07048  -1407887.52248  20173389.64049  20173390.01848  20173392.51848
 14 11 14 07 15 03.0000000  0  1 27
  -1828608.50148  -1424887.33848  20169238.20849  20169238.73348  20169240.64548
 14 11 14 07 15 04.0000000  0  1 27
  -1850375.39448  -1441848.56448  20165096.28849  20165096.21748  20165098.68948
 14 11 14 07 15 05.0000000  0  1 27
  -1872090.67448  -1458769.56248  20160963.58449  20160964.12948  20160966.54348
 14 11 14 07 15 06.0000000  0  1 27
  -1893768.51048  -1475661.37248  20156838.66049  20156839.17748  20156841.27148
 14 11 14 07 15 07.0000000  0  1 27
  -1915409.23248  -1492524.27848  20152720.59449  20152721.05848  20152723.08448
 14 11 14 07 15 08.0000000  0  1 27
  -1937000.35848  -1509348.54248  20148611.71649  20148612.10748  20148614.49048
 14 11 14 07 15 09.0000000  0  1 27
  -1958539.91948  -1526132.61348  20144513.00649  20144513.39448  20144515.70948
 14 11 14 07 15 10.0000000  0  8 07 09 10 13 16 23 27 30
 -17430016.41458 -13581827.10658  20246855.45959  20246856.01558  20246855.37958
 -13431307.13359 -10465952.52159  19753723.33359  19753723.88659  19753725.89459
   6410503.48556   4995201.50356  23832878.42958  23832878.47056  23832880.00156
  -5560127.10256  -4332560.88256  22130617.50858  22130618.08756  22130617.95856
 -13174061.40958 -10265503.99057  20605792.81758  20605792.73458  20605792.46757
 -13146998.13258 -10244412.59558  20808940.02759  20808940.22758  20808938.11758
  -1980041.43748  -1542887.03748  20140421.27249  20140421.87248  20140423.96448
  -4974379.03456  -3876133.30556  23417555.68158  23417555.76356  23417558.78856
 14 11 14 07 15 11.0000000  0  1 27
  -2001505.74548  -1559612.46648  20136337.15749  20136337.30048  20136339.59648
 14 11 14 07 15 20.0000000  0  8 07 09 10 13 16 23 27 30
 -17247927.85558 -13439939.92158  20281505.69359  20281506.27358  20281505.76358
 -13407828.73059 -10447657.67259  19758191.19759  19758191.64159  19758193.65859
   6687772.39756   5211255.16456  23885641.00858  23885640.38356  23885642.21356
  -5273687.35156  -4109361.07156  22185125.51858  22185125.55156  22185125.62456
 -13177247.11358 -10267986.36257  20605186.77658  20605186.83158  20605186.28657
 -13310038.75558 -10371457.25658  20777914.49759  20777914.54958  20777912.58358
  -2192626.35948  -1708537.63848  20099967.90349  20099968.21848  20099970.45948
  -4722705.66956  -3680024.18256  23465447.28058  23465447.11756  23465450.21556
 14 11 14 07 15 30.0000000  0  8 07 09 10 13 16 23 27 30
 -17063142.91848 -13295951.66048  20316669.18549  20316669.70548  20316669.20548
 -13381383.22649 -10427050.79849  19763223.63349  19763224.11349  19763226.08249
   6965577.95846   5427727.02946  23938505.78448  23938505.70046  23938506.99646
  -4985987.30646  -3885179.20646  22239872.32948  22239872.24246  22239873.30846
 -13176723.30648 -10267578.20947  20605286.23948  20605286.29348  20605286.07747
 -13470942.66448 -10496836.94148  20747295.48449  20747295.61448  20747293.58048
  -2400752.78548  -1870714.07948  20060362.81349  20060363.12048  20060365.21548
  -4469924.82046  -3483052.10246  23513549.98348  23513551.07646  23513552.52046
 14 11 14 07 15 40.0000000  0  8 07 09 10 13 16 23 27 30
 -16875677.00848 -13149874.33148  20352342.61249  20352343.26548  20352342.76848
 -13351966.65949 -10404128.80949  19768821.43449  19768821.89149  19768823.90149
   7243899.70046   5644601.08946  23991468.37348  23991468.52046  23991469.71546
  -4697045.99146  -3660030.13946  22294856.19648  22294856.56746  22294856.60246
 -13172487.84848 -10264277.84347  20606092.37848  20606092.44648  20606091.98647
 -13629682.09548 -10620530.02248  20717088.37549  20717088.42548  20717086.44448
  -2604370.41248  -2029377.17048  20021615.59549  20021616.09048  20021618.18848
  -4216048.01746  -3285226.02046  23561861.17748  23561862.38946  23561864.52746
 14 11 14 07 15 50.0000000  0  8 07 09 10 13 16 23 27 30
 -16685561.32048 -13001732.24048  20388520.38849  20388521.08548  20388520.58948
 -13319590.98149 -10378901.02849  19774982.31349  19774982.81249  19774984.77349
   7522701.85146   5861849.48146  24044522.65748  24044521.59946  24044524.30846
  -4406897.34646  -3433940.27546  22350069.84648  22350069.76646  22350070.21746
 -13164554.50648 -10258096.01947  20607601.80148  20607601.90448  20607601.43947
 -13786244.88648 -10742527.02048  20687295.45849  20687295.61148  20687293.57148
  -2803440.28548  -2184496.55748  19983733.92849  19983734.22348  19983736.47848
  -3961102.10546  -3086566.86346  23610375.79848  23610375.11346  23610379.05446
 14 11 14 07 16 00.0000000  0  8 07 09 10 13 16 23 27 30
 -16492818.64848 -12851543.15048  20425198.07449  20425198.70048  20425198.26548
 -13284259.99349 -10351370.40049  19781705.52249  19781706.12649  19781708.03249
   7801957.39746   6079451.18446  24097663.42748  24097661.84646  24097664.63046
  -4115567.11946  -3206929.73246  22405508.34948  22405508.78446  22405508.66646
 -13152929.39748 -10249037.49747  20609814.10448  20609814.17948  20609813.77347
 -13940610.54548 -10862811.96848  20657920.67049  20657920.77848  20657918.81548
  -2997915.69648  -2336035.84748  19946726.44449  19946726.83248  19946729.00348
  -3705105.42646  -2887088.94846  23659090.63848  23659091.00146  23659093.11046
 14 11 14 07 16 10.0000000  0  8 07 09 10 13 16 23 27 30
 -16297491.56948 -12699340.23648  20462367.63649  20462368.15848  20462367.87248
 -13245997.47049 -10321555.45849  19788986.65649  19788987.18249  19788989.21149
   8081620.04346   6297370.09046  24150881.50748  24150881.58146  24150882.92546
  -3823099.96146  -2979033.23546  22461163.04248  22461162.59146  22461163.78246
 -13137638.87848 -10237122.80747  20612723.87848  20612723.71648  20612723.54147
 -14092778.21548 -10981384.19548  20628964.21349  20628964.34048  20628962.18648
  -3187770.31048  -2483974.51648  19910598.31049  19910598.72748  19910600.81648
  -3448095.83046  -2686821.73646  23707997.81848  23707997.85846  23708000.65246
 14 11 14 07 16 20.0000000  0  8 07 09 10 13 16 23 27 30
 -16099596.46148 -12545136.26348  20500025.78749  20500026.33748  20500025.99048
 -13204801.12349 -10289454.43149  19796826.05749  19796826.63149  19796828.66449
   8361670.04446   6515590.83846  24204173.59148  24204174.01446  24204175.69746
  -3529514.28946  -2750265.17946  22517030.46148  22517031.15446  22517030.84646
 -13118683.56648 -10222352.44247  20616330.97348  20616330.93248  20616330.60847
 -14242720.76848 -11098222.57048  20600431.11649  20600431.22048  20600429.12748
  -3372952.16848  -2628272.07648  19875359.37049  19875359.80948  19875361.97048
  -3190084.67546  -2485774.09446  23757095.65348  23757095.90546  23757098.69946
 14 11 14 07 16 30.0000000  0  8 07 09 10 13 16 23 27 30
 -15899150.99948 -12388944.99348  20538169.33249  20538169.91248  20538169.41148
 -13160670.22949 -10255066.73249  19805223.88349  19805224.46649  19805226.48149
   8642086.89046   6734097.43046  24257535.26648  24257535.45446  24257536.61946
  -3234829.42746  -2520640.60346  22573107.16948  22573107.33646  22573107.93646
 -13096066.08148 -10204728.42747  20620634.85548  20620634.78948  20620634.62847
 -14390412.34448 -11213306.92948  20572326.43949  20572326.44948  20572324.35048
  -3553411.24448  -2768889.54648  19841019.03049  19841019.46948  19841021.77048
  -2931084.39446  -2283955.68746  23806381.68148  23806382.30946  23806384.28046
 14 11 14 07 16 40.0000000  0  8 07 09 10 13 16 23 27 30
 -15696182.26548 -12230787.54448  20576793.03349  20576793.55848  20576793.18448
 -13113613.56149 -10218399.22249  19814178.49949  19814179.00149  19814181.11649
   8922841.09846   6952866.91146  24310960.77348  24310961.23546  24310961.52546
  -2939073.74846  -2290181.63346  22629387.57148  22629387.82746  22629388.36846
 -13069798.41648 -10184260.12547  20625633.40248  20625633.32548  20625633.32847
 -14535836.43248 -11326624.42748  20544653.08149  20544653.27248  20544651.08748
  -3729107.59748  -2905795.80848  19807585.24549  19807585.56148  19807587.89248
  -2671116.52846  -2081383.34946  23855851.84048  23855851.69746  23855854.98346
 14 11 14 07 16 50.0000000  0  8 07 09 10 13 16 23 27 30
 -15490725.15448 -12070691.09548  20615890.16349  20615890.69248  20615890.35648
 -13063648.00049 -10179465.03149  19823686.65649  19823687.11949  19823689.25349
   9203895.70546   7171870.44646  24364443.58248  24364442.70346  24364445.01546
  -2642283.06246  -2058916.17646  22685864.90048  22685864.59246  22685865.66446
 -13039901.22348 -10160963.60847  20631322.62248  20631322.47748  20631322.35747
 -14678984.34748 -11438168.27448  20517412.99749  20517413.09248  20517410.93348
  -3900009.89748  -3038966.44248  19775063.56049  19775063.91648  19775066.25848
  -2410210.25346  -1878079.77446  23905500.54048  23905501.00146  23905503.30646
 14 11 14 07 17 00.0000000  0  8 07 09 10 13 16 23 27 30
 -15282792.57148 -11908665.71648  20655458.52849  20655458.90848  20655458.63248
 -13010768.70449 -10138260.40549  19833749.32449  19833749.83549  19833751.84149
   9485236.06046   7391096.68946  24417980.63448  24417981.68446  24417982.21746
  -2344470.82146  -1826854.67246  22742536.70548  22742536.55246  22742536.91646
 -13006373.71648 -10134838.28247  20637702.93548  20637702.78448  20637702.29047
 -14819825.44648 -11547914.60448  20490611.79049  20490611.95448  20490609.79648
  -4066065.62748  -3168360.53448  19743464.21949  19743464.59348  19743466.88548
  -2148372.63646  -1674050.48146  23955326.69648  23955326.77146  23955329.52146
 14 11 14 07 17 10.0000000  0  8 07 09 10 13 16 23 27 30
 -15072418.16948 -11744737.61248  20695491.39649  20695491.73348  20695491.59048
 -12954991.69549 -10094797.81649  19844363.30349  19844363.85749  19844365.94149
   9766827.39546   7610518.46946  24471566.21948  24471565.85646  24471567.12946
  -2045670.92046  -1594023.57446  22799396.38148  22799396.53846  22799396.63846
 -12969236.23648 -10105899.99247  20644769.88748  20644769.90148  20644769.54847
 -14958349.91548 -11655855.76148  20464251.48249  20464251.61648  20464249.50248
  -4227243.71248  -3293953.86348  19712793.04049  19712793.44948  19712795.78248
  -1885631.06346  -1469316.79846  24005324.64248  24005324.54146  24005328.10446
 14 11 14 07 17 20.0000000  0  8 07 09 10 13 16 23 27 30
 -14859630.97048 -11578929.41648  20735983.18648  20735983.80748  20735983.63948
 -12896328.80249 -10049086.49349  19855526.55249  19855527.05549  19855529.10049
  10048639.55246   7830112.29046  24525192.96148  24525191.87346  24525193.51846
  -1745912.95746  -1360445.94846  22856438.56948  22856438.96046  22856439.11746
 -12928505.33348 -10074161.63447  20652520.61048  20652520.64448  20652520.41647
 -15094543.34448 -11761980.53848  20438334.77549  20438334.93148  20438332.75048
  -4383509.51948  -3415719.44848  19683056.63249  19683057.00748  19683059.35248
  -1622008.40046  -1263896.58346  24055490.64448  24055490.42946  24055494.27646
 14 11 14 07 17 30.0000000  0  8 07 09 10 13 16 23 27 30
 -14644448.40248 -11411254.69448  20776931.13548  20776931.65348  20776931.55248
 -12834780.34248 -10001126.66649  19867238.75949  19867239.32048  19867241.38849
  10330654.53746   8049864.22046  24578858.90848  24578858.55646  24578859.45446
  -1445214.16846  -1126135.22346  22913659.94148  22913661.18546  22913659.83946
 -12884186.26748 -10039627.29947  20660954.41048  20660954.13748  20660953.84347
 -15228379.84548 -11866268.72848  20412866.57649  20412866.68148  20412864.53748
  -4534817.56848  -3533621.84148  19654263.79949  19654264.12148  19654266.43148
  -1357515.55746  -1057798.27246  24105821.33548  24105823.85946  24105824.78446
 14 11 14 07 17 40.0000000  0  8 07 09 10 13 16 23 27 30
 -14426911.34448 -11241745.30948  20818327.14348  20818327.75548  20818327.52948
 -12770370.40048  -9950937.12349  19879495.64149  19879496.14148  19879498.23249
  10612831.32946   8269742.17746  24632555.37648  24632555.76946  24632556.74446
  -1143614.96546   -891122.85746  22971052.14448  22971052.77746  22971053.24946
 -12836308.28848 -10002319.79447  20670065.20048  20670065.17148  20670065.03047
 -15359856.90648 -11968718.41248  20387847.34449  20387847.47148  20387845.27948
  -4681146.76248  -3647644.60448  19626418.28249  19626418.61448  19626420.85348
  -1092186.77246   -851048.56946  24156312.69748  24156313.00646  24156315.53446
 14 11 14 07 17 50.0000000  0  8 07 09 10 13 16 23 27 30
 -14206966.69248 -11070359.88248  20860181.24848  20860181.78348  20860181.68348
 -12703029.27348  -9898463.53349  19892310.25249  19892310.76548  19892312.82049
  10895223.16646   8489787.70846  24686292.47348  24686292.10346  24686294.10546
   -841061.23946   -655366.70646  23028626.51948  23028626.67146  23028627.50446
 -12784807.17148  -9962189.06647  20679865.53748  20679865.39748  20679865.09047
 -15488878.17248 -12069254.48948  20363295.44449  20363295.57748  20363293.46348
  -4822383.01748  -3757698.85148  19599542.02749  19599542.30048  19599544.58848
   -825961.99246   -643600.70946  24206972.78748  24206971.74546  24206976.23846
 14 11 14 07 18 00.0000000  0  8 07 09 10 13 16 23 27 30
 -13984711.84048 -10897174.30448  20902475.05148  20902475.58548  20902475.29548
 -12632837.98248  -9843769.03749  19905667.25349  19905667.69048  19905669.80249
  11177733.13946   8709925.34546  24740052.74448  24740052.15146  24740053.56446
   -537649.51746   -418942.01246  23086363.47248  23086363.56746  23086363.38846
 -12729769.59948  -9919302.65647  20690338.95448  20690338.75548  20690338.38747
 -15615497.82848 -12167919.17748  20339200.52049  20339200.63048  20339198.48748
  -4958563.60048  -3863813.61548  19573627.53249  19573627.93548  19573630.34848
   -558931.55946   -435525.10446  24257787.49648  24257787.21946  24257790.01246
 14 11 14 07 18 10.0000000  0  8 07 09 10 13 16 23 27 30
 -13760164.03448 -10722202.00348  20945205.00848  20945205.61648  20945205.31948
 -12559797.53148  -9786854.41749  19919566.31549  19919566.86748  19919568.93649
  11460345.04246   8930142.31946  24793832.22748  24793831.12046  24793832.26946
   -233395.55646   -181860.98546  23144261.02348  23144262.01546  23144261.17246
 -12671202.64348  -9873666.08947  20701483.68948  20701483.62948  20701483.31547
 -15739689.91948 -12264692.26248  20315567.55449  20315567.65948  20315565.66448
  -5089646.60348  -3965956.24348  19548683.33549  19548683.71248  19548686.08948
   -291105.38446   -226829.39846  24308753.09248  24308753.80946  24308755.80046
 14 11 14 07 18 20.0000000  0  8 07 09 10 13 16 23 27 30
 -13787937.77348 -10743843.89548  20980158.26748  20980158.87748  20980158.41648
 -12484017.57448  -9727805.11249  19933986.76349  19933987.33548  19933989.35849
  11742934.53746   9150341.89446  24847607.04548  24847607.07646  24847608.56146
     71576.42746     55779.50246  23202295.52348  23202296.52246  23202295.36846
 -12609222.26248  -9825369.69747  20713278.14948  20713278.12048  20713277.77047
 -15861536.95048 -12359638.01748  20292380.89249  20292380.92648  20292378.96448
  -5215699.55448  -4064179.33448  19524696.21149  19524696.70248  19524699.03048
    -22601.54646    -17605.65046  24359847.14248  24359848.43046  24359850.97346
 14 11 14 07 18 30.0000000  0  8 07 09 10 13 16 23 27 30
 -13612495.25248 -10607135.45148  21031916.08448  21031916.70148  21031916.24048
 -12405412.02948  -9666554.05349  19948944.98349  19948945.47948  19948947.56249
  12025573.72946   9370580.16346  24901391.90848  24901391.26746  24901392.29046
    377338.86646    294035.90846  23260480.22748  23260480.85346  23260479.65246
 -12543748.88048  -9774351.48747  20725737.31848  20725737.23748  20725736.91047
 -15980925.60648 -12452668.17048  20269661.97849  20269662.04748  20269660.01948
  -5336595.05248  -4158383.64348  19501690.67649  19501690.99748  19501693.34748
    246657.91946    192206.93446  24411085.96548  24411085.99546  24411088.65846
 14 11 14 07 18 40.0000000  0  8 07 09 10 13 16 23 27 30
 -13381276.73048 -10426965.18848  21075915.44148  21075916.12748  21075915.69948
 -12323938.46448  -9603068.17249  19964448.86349  19964449.38548  19964451.49849
  12308291.39746   9590879.66946  24955190.82448  24955190.96746  24955190.75546
    683920.80946    532930.92746  23318820.97548  23318820.41546  23318820.29646
 -12474746.87148  -9720583.70347  20738867.84448  20738867.95248  20738867.80047
 -16097786.15748 -12543728.36348  20247424.14649  20247424.27448  20247422.35048
  -5452250.23948  -4248504.58848  19479682.21249  19479682.59148  19479684.94648
    516707.90146    402635.48746  24462475.20948  24462473.02646  24462478.15646
 14 11 14 07 18 50.0000000  0  8 07 09 10 13 16 23 27 30
 -13147885.41648 -10245101.84148  21120328.34848  21120328.93348  21120328.57148
 -12239674.10248  -9537407.64749  19980483.84349  19980484.36148  19980486.52749
  12590997.52746   9811169.03546  25008988.10248  25008985.76646  25008990.12746
    991232.35046    772394.46346  23377300.16048  23377300.34446  23377300.34946
 -12402300.39848  -9664131.92447  20752654.10548  20752654.23148  20752653.92747
 -16212168.31748 -12632857.34848  20225657.92149  20225658.03648  20225656.12948
  -5562702.73648  -4334571.49348  19458663.88749  19458664.24048  19458666.52748
    787463.92146    613615.04746  24513997.95148  24513997.09046  24513999.51946
 14 11 14 07 19 00.0000000  0  8 07 09 10 13 16 23 27 30
 -12912422.18648 -10061624.00948  21165135.54348  21165136.28248  21165135.67548
 -12152705.04948  -9469639.56849  19997033.58849  19997034.01648  19997036.16149
  12873593.58446  10031373.74446  25062764.69948  25062763.85646  25062765.98746
   1299175.22846   1012349.91446  23435900.14848  23435901.02746  23435899.49846
 -12326502.91448  -9605068.95847  20767077.97648  20767077.95948  20767077.59747
 -16324130.65148 -12720100.74748  20204352.21749  20204352.32848  20204350.43748
  -5667999.97648  -4416621.31148  19438626.55849  19438626.82948  19438629.11048
   1058833.07146    825071.62046  24565637.91148  24565636.95846  24565640.43846
 14 11 14 07 19 10.0000000  0  8 07 09 10 13 16 23 27 30
 -12674778.16848  -9876446.86348  21210357.79848  21210358.32148  21210357.90848
 -12062907.81448  -9399667.71449  20014121.40849  20014121.95548  20014124.07049
  13156191.28746  10251579.71745  25116541.33748  25116541.77546  25116542.41445
   1607860.80646   1252884.14246  23494640.72548  23494641.49746  23494641.89146
 -12247238.35048  -9543304.37847  20782161.28248  20782161.68848  20782161.22047
 -16433522.05648 -12805340.82848  20183535.68149  20183535.90348  20183534.00548
  -5767980.72048  -4494528.40748  19419600.83949  19419601.13548  19419603.46748
   1330932.36946   1037097.01446  24617416.91048  24617416.62046  24617418.98046
 14 11 14 07 19 20.0000000  0  8 07 09 10 13 16 23 27 30
 -12435025.66248  -9689626.74448  21255981.27748  21255981.84048  21255981.34048
 -11970340.38148  -9327537.27249  20031736.47849  20031736.96748  20031739.06849
  13438721.43546  10471733.00745  25170304.76248  25170303.67146  25170307.34445
   1917219.88646   1493943.12046  23553509.97848  23553510.74046  23553509.58146
 -12164572.52048  -9478889.47047  20797892.17348  20797892.31648  20797891.96947
 -16540372.76248 -12888601.14748  20163202.76649  20163202.82148  20163201.00048
  -5862666.22948  -4568309.35148  19401582.75849  19401583.15548  19401585.39148
   1603697.80746   1249641.51346  24669321.96448  24669323.31546  24669324.65746
 14 11 14 07 19 30.0000000  0  8 07 09 10 13 16 23 27 30
 -12193165.81748  -9501164.53948  21302005.59548  21302006.33048  21302005.78248
 -11874989.99848  -9253238.28949  20049881.00049  20049881.51248  20049883.63049
  13721186.02146  10691835.22345  25224055.78148  25224055.69946  25224058.35545
   2227254.29646   1735528.27646  23612507.42648  23612506.60646  23612507.34246
 -12078500.67148  -9411820.51047  20814271.32948  20814271.26748  20814271.07647
 -16644642.30848 -12969850.16348  20143360.88349  20143361.04348  20143359.17748
  -5952007.91048  -4637926.25448  19384581.66949  19384582.04648  19384584.29348
   1877136.51846   1462710.98045  24721356.03648  24721357.03046  24721358.47045
 14 11 14 07 19 40.0000000  0  8 07 09 10 13 16 23 27 30
 -11949340.31648  -9311170.65848  21348404.01448  21348404.72848  21348404.40048
 -11776984.50448  -9176870.39449  20068530.91049  20068531.33948  20068533.53849
  14003447.05346  10911778.87945  25277768.73648  25277769.69046  25277769.83245
   2537825.94846   1977531.20246  23671607.89048  23671608.15346  23671607.30646
 -11989158.86648  -9342203.53547  20831272.36448  20831272.27648  20831272.09547
 -16746430.54248 -13049165.69448  20123991.22549  20123991.37248  20123989.64448
  -6036098.83748  -4703451.66848  19368579.74649  19368580.05148  19368582.34848
   2151115.40546   1676202.44646  24773492.27448  24773493.70146  24773495.78046
 14 11 14 07 19 50.0000000  0  8 07 09 10 13 16 23 27 30
 -11703572.28048  -9119663.10848  21395172.28348  21395172.58548  21395172.35548
 -11676333.63548  -9098441.16249  20087684.11349  20087684.62848  20087686.72749
  14285485.22946  11131548.86945  25331438.20148  25331437.99646  25331439.28045
   2848915.34946   2219938.55146  23730805.67848  23730805.42146  23730806.34746
 -11896565.17448  -9270052.63447  20848892.34348  20848892.52448  20848892.43547
 -16845719.42448 -13126533.68348  20105097.16949  20105097.35948  20105095.48148
  -6114915.00148  -4764866.87448  19353581.41849  19353581.79748  19353584.17448
   2425619.79746   1890102.08746  24825728.71848  24825727.95846  24825732.51546
 14 11 14 07 20 00.0000000  0  8 07 09 10 13 16 23 27 30
 -11455814.74048  -8926605.31048  21442318.83048  21442319.43248  21442318.91848
 -11572977.14648  -9017903.65749  20107352.21349  20107352.64748  20107354.80549
  14567351.73246  11351183.95345  25385075.80948  25385074.88346  25385077.61945
   3160572.92746   2462788.54946  23790112.26248  23790112.19546  23790112.47646
 -11800667.98848  -9195327.56247  20867141.00948  20867141.26648  20867140.97047
 -16942420.77848 -13201885.41348  20086695.51649  20086695.66848  20086693.92748
  -6188363.43448  -4822099.43848  19339604.65849  19339605.03048  19339607.41748
   2700705.49546   2104454.40946  24878076.31048  24878076.15446  24878078.27846
 14 11 14 07 20 10.0000000  0  8 07 09 10 13 16 23 27 30
 -11206096.94548  -8732020.03148  21489838.42548  21489839.24248  21489838.72848
 -11466931.23148  -8935270.50149  20127531.99749  20127532.60648  20127534.76549
  14849021.81246  11570667.11045  25438676.39948  25438676.62646  25438677.54445
   3472773.37946   2706061.56845  23849522.37448  23849521.83046  23849523.55045
 -11701492.35647  -9118047.86847  20886013.64248  20886013.75347  20886013.33747
 -17036522.92548 -13275211.79248  20068788.62249  20068788.66248  20068786.90548
  -6256428.72148  -4875137.34348  19326652.22449  19326652.65648  19326655.03448
   2976352.14946   2319243.07046  24930529.85648  24930529.02046  24930532.96046
 14 11 14 07 20 20.0000000  0  8 07 09 10 13 16 23 27 30
 -10954385.40948  -8535881.18448  21537737.54948  21537738.29848  21537737.87648
 -11358149.74448  -8850505.72249  20148232.44149  20148233.02348  20148235.23049
  15130533.66046  11790025.09445  25492246.36948  25492247.70346  25492246.79545
   3785554.46546   2949789.24746  23909041.87948  23909043.52446  23909041.79546
 -11599001.15747  -9038184.60747  20905516.94148  20905517.00347  20905516.66347
 -17127951.75848 -13346455.06248  20051390.19649  20051390.31948  20051388.52348
  -6319034.15948  -4923920.81248  19314738.91549  19314739.26348  19314741.62748
   3252602.02846   2534502.82546  24983098.53448  24983097.58546  24983102.14746
 14 11 14 07 20 30.0000000  0  8 07 09 10 13 16 23 27 30
 -10700816.92848  -8338295.36848  21585989.99248  21585990.67048  21585990.29548
 -11246757.20148  -8763706.36049  20169429.80749  20169430.31248  20169432.58849
  15411755.21046  12009159.49145  25545761.37348  25545759.68446  25545761.99945
   4098783.59846   3193862.93945  23968647.51948  23968649.68646  23968645.26845
 -11493328.25548  -8955842.10347  20925625.99348  20925626.05748  20925625.54447
 -17216803.79348 -13415690.43648  20034482.22149  20034482.39548  20034480.55148
  -6376274.84548  -4968523.95948  19303846.36949  19303846.76948  19303849.12048
   3529327.45246   2750131.90646  25035758.00548  25035758.35546  25035760.40346
 14 11 14 07 20 40.0000000  0  8 07 09 10 13 16 23 27 30
 -10445416.72948  -8139282.25148  21634591.01148  21634591.77448  21634591.53448
 -11132766.66248  -8674882.59149  20191121.53849  20191122.02848  20191124.26049
  15692666.45746  12228051.36745  25599216.82348  25599217.39746  25599217.49945
   4412440.02346   3438261.08545  24028334.20147  24028334.59646  24028333.92145
 -11384496.05447  -8871037.80747  20946336.06648  20946335.95447  20946335.77447
 -17303064.16348 -13482906.33848  20018067.45549  20018067.67348  20018065.83648
  -6428135.52248  -5008934.89348  19293977.55949  19293977.96748  19293980.37948
   3806512.15246   2966119.95946  25088504.18348  25088505.49046  25088506.26646
 14 11 14 07 20 50.0000000  0  8 07 09 10 13 16 23 27 30
 -10188155.66648  -7938819.10048  21683546.34948  21683546.82948  21683546.59848
 -11016137.04248  -8584002.39849  20213315.42049  20213315.89348  20213318.15249
  15973301.94446  12446727.38445  25652619.70148  25652621.03046  25652621.01645
   4726557.68046   3683031.77344  24088108.75847  24088109.14146  24088111.11144
 -11272473.13447  -8783747.23547  20967653.14848  20967653.35347  20967653.13347
 -17386663.98148 -13548049.07548  20002159.02649  20002159.15248  20002157.38048
  -6474547.98548  -5045100.46448  19285145.57949  19285146.03548  19285148.44748
   4084194.48446   3182495.78946  25141345.00248  25141345.63046  25141348.78046
 14 11 14 07 21 00.0000000  0  8 07 09 10 13 16 23 27 30
  -9929062.71748  -7736928.50648  21732850.05948  21732850.57448  21732850.28448
 -10896885.77348  -8491079.36049  20236008.19449  20236008.70148  20236011.01449
  16253638.21146  12665171.26445  25705965.99948  25705966.21246  25705966.52845
   5041112.67146   3928124.64745  24147969.17947  24147969.65446  24147970.86845
 -11157286.77047  -8693991.64346  20989572.39148  20989572.42547  20989572.42746
 -17467592.87248 -13611110.56848  19986758.81249  19986758.89348  19986757.08948
  -6515503.64448  -5077013.97748  19277351.89849  19277352.45048  19277354.80748
   4362354.79946   3399244.00246  25194277.82048  25194277.79146  25194280.92446
 14 11 14 07 21 10.0000000  0  8 07 09 10 13 16 23 27 30
  -9668208.34347  -7533665.37648  21782488.89648  21782489.48147  21782489.37148
 -10775071.95848  -8396159.53249  20259188.65849  20259189.17348  20259191.38249
  16533610.71246  12883333.87344  25759242.15947  25759241.54046  25759243.29744
   5356039.01646   4173533.33245  24207895.37247  24207897.55446  24207895.07745
 -11039006.24047  -8601825.01146  21012080.56948  21012080.81947  21012080.69346
 -17545882.07348 -13672115.16248  19971860.81949  19971860.98848  19971859.21748
  -6551036.81648  -5104702.17548  19270590.22449  19270590.70648  19270593.07148
   4640931.82646   3616316.92246  25247288.96748  25247289.05546  25247292.36546
 14 11 14 07 21 20.0000000  0  8 07 09 10 13 16 23 27 30
  -9405708.60347  -7329120.14148  21832441.03748  21832441.45347  21832441.50748
 -10650800.52648  -8299324.68249  20282836.71149  20282837.18148  20282839.49549
  16813109.45746  13101125.96945  25812429.06747  25812429.62046  25812431.29845
   5671226.10645   4419148.09745  24267871.86447  24267871.81845  24267871.11745
 -10917746.32447  -8507336.78646  21035155.68348  21035155.50247  21035155.49446
 -17621608.76448 -13731122.99548  19957450.51449  19957450.66848  19957448.94948
  -6581228.78648  -5128228.40248  19264844.99449  19264845.28548  19264847.73148
   4919819.03746   3833630.65446  25300359.81548  25300360.57746  25300361.33746
 14 11 14 07 21 30.0000000  0  8 07 09 10 13 16 23 27 30
  -9141480.83047  -7123228.39648  21882721.79248  21882722.45547  21882722.31748
 -10523978.00248  -8200501.96749  20306970.17149  20306970.77048  20306973.04449
  17092223.22946  13318613.10345  25865543.42347  25865542.45746  25865545.76145
   5986762.28146   4665016.44245  24327917.59547  24327919.65346  24327917.88945
 -10793423.85047  -8410462.14346  21058813.46748  21058813.53047  21058813.24046
 -17694651.64948 -13788039.55148  19943550.97149  19943551.12048  19943549.37048
  -6605963.67648  -5147502.35748  19260138.03049  19260138.39948  19260140.87648
   5199108.57546   4051259.85246  25353506.34748  25353506.14946  25353508.75246
 14 11 14 07 21 40.0000000  0  8 07 09 10 13 16 23 27 30
  -8875536.81547  -6915999.30947  21933329.44448  21933329.89647  21933329.73247
 -10394605.59248  -8099692.32249  20331589.01649  20331589.60348  20331591.79149
  17370946.92346  13535832.88145  25918580.72447  25918578.65446  25918576.83345
   6302640.24445   4911156.20645  24388028.66447  24388026.28445  24388028.13845
 -10666050.51147  -8311210.21046  21083051.78848  21083051.77147  21083051.55146
 -17764984.34148 -13842844.26248  19930167.10849  19930167.27648  19930165.53048
  -6625221.46848  -5162508.44048  19256473.34849  19256473.86048  19256476.24948
   5478798.19246   4269200.56046  25406730.24948  25406731.11946  25406733.04046
 14 11 14 07 21 50.0000000  0  7 07 09 10 16 23 27 30
  -8607889.55147  -6707443.01647  21984260.87248  21984261.70847  21984261.31447
 -10262686.03048  -7996897.88349  20356692.42849  20356693.06148  20356695.27449
  17649274.24346  13752731.46744  25971545.87147  25971546.55646  25971552.68744
 -10535639.70547  -8209591.42546  21107868.08248  21107867.94847  21107867.78746
 -17832582.06949 -13895517.82948  19917303.62849  19917303.84049  19917302.16548
  -6638984.91948  -5173233.21848  19253854.35949  19253854.76448  19253857.20248
   5758884.47846   4487447.56346  25460028.57448  25460028.32546  25460031.49946
 14 11 14 07 22 00.0000000  0  7 07 09 10 16 23 27 30
  -8338638.01147  -6497636.64247  22035497.96748  22035498.40347  22035498.23947
 -10128308.46948  -7892188.12648  20382263.73149  20382264.12748  20382266.51148
  17927112.65646  13969230.51445  26024418.76947  26024416.30046  26024419.77645
 -10402291.29347  -8105683.60046  21133243.46348  21133243.52347  21133243.53946
 -17897506.49149 -13946108.30748  19904949.01649  19904949.11249  19904947.44648
  -6647324.38548  -5179731.51848  19252267.39849  19252267.75048  19252270.16148
   6039277.77446   4705936.76746  25513385.49848  25513386.88546  25513389.31146
 14 11 14 07 22 01.0000000  0  1 11
         0.82256         0.19652  24565605.30057  24565617.61456  24565619.25452
 14 11 14 07 22 01.0000000  0  1 11
         0.82246         0.19642  24565605.30047  24565617.61446  24565619.25442
 14 11 14 07 22 01.0000000  0  1 11
         0.82246         0.19642  24565605.30047  24565617.61446  24565619.25442
 14 11 14 07 22 01.0000000  0  1 11
         0.82246         0.19642  24565605.30047  24565617.61446  24565619.25442
 14 11 14 07 22 05.0000000  0  1 11
    -73675.49546    -57406.71643  24537562.47947  24537563.53746  24537572.64843
 14 11 14 07 22 06.0000000  0  1 11
   -110503.41546    -86102.93942  24530554.57147  24530553.53046  24530568.28642
 14 11 14 07 22 07.0000000  0  1 11
   -147317.94646   -114791.01743  24523549.22947  24523550.81146  24523561.88343
 14 11 14 07 22 08.0000000  0  1 11
   -184131.48846   -143477.70845  24516544.02047  24516545.29746  24516549.92145
 14 11 14 07 22 10.0000000  0  7 07 09 10 16 23 27 30
  -8067801.25457  -6286595.03557  22087036.48258  22087037.20057  22087036.65257
  -9991482.10158  -7785570.20258  20408300.93159  20408301.37758  20408303.70958
  18204450.55956  14185337.85854  26077192.77157  26077194.63556  26077197.31854
 -10266025.50857  -7999502.47556  21159173.76158  21159174.18857  21159173.71056
 -17959739.50159 -13994601.57858  19893106.42159  19893106.54159  19893104.82458
  -6650231.59558  -5181996.89158  19251714.31659  19251714.56958  19251717.01158
   6319968.90856   4924657.32955  25566799.11358  25566800.06356  25566800.99255
 14 11 14 07 22 19.0000000  0  1 19
         0.38258         0.34658  19237294.40759  19237294.60258  19237294.46058
 14 11 14 07 22 20.0000000  0  8 07 09 10 16 19 23 27 30
  -7795348.22357  -6074293.99057  22138882.65758  22138883.22457  22138883.01657
  -9852166.41158  -7677012.54958  20434811.84659  20434812.39558  20434814.63258
  18481325.98456  14401095.80855  26129880.11357  26129879.10356  26129883.33655
 -10126812.92457  -7891025.15656  21185665.19058  21185665.34157  21185665.15556
         0.09148         0.85948  19234035.84249  19234035.34748  19234050.33548
 -18019213.32259 -14040944.83658  19881788.96259  19881789.09959  19881787.44858
  -6647649.73158  -5179985.06558  19252205.53159  19252205.95758  19252208.33958
   6600998.60456   5143640.46955  25620276.88257  25620276.78556  25620279.30355
 14 11 14 07 22 21.0000000  0  1 19
         0.86548         0.61342  19230787.87049  19230787.52448  19230815.63642
 14 11 14 07 22 22.0000000  0  1 19
    -17021.81448    -13264.98242  19227548.37849  19227548.25548  19227592.69642
 14 11 14 07 22 23.0000000  0  1 19
    -34001.54048    -26492.82248  19224317.53049  19224316.93548  19224312.42848
 14 11 14 07 22 24.0000000  0  1 19
    -50924.94448    -39680.10848  19221096.95149  19221096.68648  19221095.82748
 14 11 14 07 22 25.0000000  0  1 19
    -67790.04848    -52821.74848  19217887.97849  19217887.37048  19217886.64448
 14 11 14 07 22 26.0000000  0  1 19
    -84608.46148    -65927.00248  19214687.28949  19214686.78648  19214686.08248
 14 11 14 07 22 27.0000000  0  1 19
   -101382.96448    -78998.04548  19211495.38049  19211494.79748  19211494.14048
 14 11 14 07 22 28.0000000  0  1 19
   -118099.62648    -92024.01848  19208314.13849  19208313.68448  19208312.86048
 14 11 14 07 22 29.0000000  0  1 19
   -134758.71448   -105005.12948  19205144.04349  19205143.53748  19205142.91548
 14 11 14 07 22 30.0000000  0  8 07 09 10 16 19 23 27 30
  -7521374.81357  -5860808.24157  22191018.00558  22191018.49257  22191018.22557
  -9710448.03358  -7566582.67458  20461779.96359  20461780.47058  20461782.74858
  18757650.78156  14616392.55355  26182464.21557  26182460.97956  26182470.90955
  -9984751.03557  -7780327.61056  21212698.74858  21212698.81957  21212698.83556
   -151371.86548   -117950.43748  19201982.65449  19201982.24248  19201981.75648
 -18075987.53659 -14085184.50958  19870985.16859  19870985.30759  19870983.67258
  -6639650.39958  -5173751.83858  19253727.74059  19253728.10558  19253730.56058
   6882280.68356   5362821.75855  25673804.31657  25673805.01556  25673807.81155
 14 11 14 07 22 31.0000000  0  1 19
   -167941.02748   -130861.47348  19198829.74149  19198829.28248  19198828.57448
 14 11 14 07 22 32.0000000  0  1 19
   -184454.13348   -143728.83548  19195687.35449  19195686.83348  19195685.85548
 14 11 14 07 22 33.0000000  0  1 19
   -200908.58648   -156550.48648  19192556.16249  19192555.73848  19192555.12048
 14 11 14 07 22 34.0000000  0  1 19
   -217316.44048   -169335.82648  19189433.68849  19189433.27148  19189432.73748
 14 11 14 07 22 35.0000000  0  1 19
   -233680.79248   -182087.26948  19186319.58849  19186319.18548  19186318.77448
 14 11 14 07 22 36.0000000  0  1 19
   -249988.16048   -194794.31448  19183216.58749  19183216.19548  19183215.45548
 14 11 14 07 22 37.0000000  0  1 19
   -266235.99848   -207454.96748  19180124.84049  19180124.17548  19180123.63948
 14 11 14 07 22 38.0000000  0  1 19
   -282437.27248   -220079.33548  19177041.63149  19177041.33948  19177040.72448
 14 11 14 07 22 39.0000000  0  1 19
   -298594.47548   -232669.36248  19173967.04549  19173966.82348  19173965.92048
 14 11 14 07 22 40.0000000  0  8 07 09 10 16 19 23 27 30
  -7245875.57357  -5646133.53157  22243443.73258  22243444.16257  22243444.15357
  -9566312.53858  -7454269.32958  20489208.09559  20489208.56058  20489210.86758
  19033437.19156  14831265.22254  26234945.41457  26234942.93056  26234948.86454
  -9839836.78457  -7667407.43156  21240275.10258  21240275.01657  21240275.01356
   -314694.40748   -245214.76848  19170903.53649  19170903.14448  19170902.30848
 -18130020.69559 -14127288.28358  19860702.99759  19860703.13459  19860701.50058
  -6626205.40658  -5163275.23558  19256286.30659  19256286.67558  19256289.01458
   7163830.35756   5582215.69155  25727380.81457  25727380.89456  25727383.04455
 14 11 14 07 22 41.0000000  0  1 19
   -330735.22948   -257714.11448  19167851.23849  19167850.59348  19167849.80748
 14 11 14 07 22 42.0000000  0  1 19
   -346729.57548   -270177.23648  19164807.48349  19164806.93948  19164806.31748
 14 11 14 07 22 43.0000000  0  1 19
   -362678.40948   -282604.89748  19161772.44949  19161772.08448  19161771.40948
 14 11 14 07 22 44.0000000  0  1 19
   -378569.47348   -294987.55248  19158748.54549  19158748.01448  19158747.19748
 14 11 14 07 22 45.0000000  0  1 19
   -394401.44048   -307324.15348  19155735.95149  19155735.23448  19155734.53448
 14 11 14 07 22 46.0000000  0  1 19
   -410186.76848   -319624.40248  19152731.86549  19152731.38448  19152730.77348
 14 11 14 07 22 47.0000000  0  1 19
   -425927.85948   -331890.18948  19149736.46949  19149736.03948  19149735.01948
 14 11 14 07 22 48.0000000  0  1 19
   -441611.03848   -344110.85348  19146752.02849  19146751.52248  19146750.66248
 14 11 14 07 22 49.0000000  0  1 19
   -457236.08348   -356286.21348  19143778.63949  19143778.15448  19143777.34848
 14 11 14 07 22 50.0000000  0  8 07 09 10 16 19 23 27 30
  -6968873.94457  -5430288.13057  22296155.48858  22296155.80257  22296155.71257
  -9419774.68358  -7340084.01958  20517093.39359  20517093.90158  20517096.18458
  19308670.19156  15045734.48954  26287321.16857  26287322.08456  26287322.91554
  -9692096.29857  -7552284.98456  21268389.14658  21268388.87057  21268389.14556
   -472814.56148   -368425.28348  19140814.15049  19140813.91048  19140813.01848
 -18181300.70359 -14167246.75458  19850944.81259  19850944.93159  19850943.31058
  -6607316.99758  -5148557.01258  19259880.68259  19259881.11358  19259883.39058
   7445634.12656   5801797.79255  25781006.34757  25781005.82456  25781010.52255
 14 11 14 07 22 51.0000000  0  1 19
   -488348.72448   -380529.82648  19137858.41749  19137857.89748  19137856.98648
 14 11 14 07 22 52.0000000  0  1 19
   -503823.82948   -392588.35148  19134913.34549  19134912.89848  19134912.19648
 14 11 14 07 22 53.0000000  0  1 19
   -519239.84448   -404600.83348  19131979.88649  19131979.44048  19131978.67748
 14 11 14 07 22 54.0000000  0  1 19
   -534608.85248   -416576.68148  19129055.32649  19129054.58048  19129054.09048
 14 11 14 07 22 55.0000000  0  1 19
   -549932.75948   -428517.39248  19126139.15649  19126138.41648  19126137.91648
 14 11 14 07 22 56.0000000  0  1 19
   -565199.04048   -440413.19748  19123234.12249  19123233.38948  19123232.78748
 14 11 14 07 22 57.0000000  0  1 19
   -580404.86548   -452261.89248  19120340.44849  19120339.95748  19120339.31848
 14 11 14 07 22 58.0000000  0  1 19
   -595562.98548   -464073.41248  19117455.98849  19117455.67048  19117454.78948
 14 11 14 07 22 59.0000000  0  1 19
   -610676.71848   -475850.34748  19114580.02149  19114579.57848  19114578.66448
 14 11 14 07 23 00.0000000  0  8 07 09 10 16 19 23 27 30
  -6690403.66257  -5213298.32557  22349146.48058  22349147.12857  22349146.87157
  -9270859.65758  -7224046.36358  20545430.97559  20545431.50658  20545433.84458
  19583323.82655  15259739.91154  26339586.82957  26339585.36655  26339589.27054
  -9541566.26257  -7434988.87156  21297034.09358  21297034.05557  21297034.00856
   -625732.36848   -487582.02848  19111715.01249  19111714.27148  19111713.63748
 -18229826.08359 -14205058.75558  19841710.73659  19841710.87359  19841709.30858
  -6582999.08858  -5129608.00558  19264508.20759  19264508.57058  19264510.93258
   7727667.45756   6021562.99055  25834673.27657  25834674.52956  25834674.33955
 14 11 14 07 23 01.0000000  0  1 19
   -640728.25648   -499267.13448  19108861.20649  19108860.80048  19108860.28948
 14 11 14 07 23 02.0000000  0  1 19
   -655676.88848   -510915.41448  19106016.50449  19106016.32448  19106015.43148
 14 11 14 07 23 03.0000000  0  1 19
   -670580.28848   -522528.45548  19103180.99149  19103180.36048  19103179.36148
 14 11 14 07 23 04.0000000  0  1 19
   -685425.55248   -534096.19848  19100355.95949  19100355.14248  19100354.47448
 14 11 14 07 23 05.0000000  0  1 19
   -700210.84548   -545617.20948  19097542.17049  19097541.69848  19097540.99848
 14 11 14 07 23 06.0000000  0  1 19
   -714948.02448   -557100.72148  19094737.85549  19094737.38948  19094736.55448
 14 11 14 07 23 07.0000000  0  1 19
   -729640.07548   -568549.07248  19091942.18049  19091941.53048  19091940.61248
 14 11 14 07 23 08.0000000  0  1 19
   -744273.38049   -579951.65148  19089157.38049  19089156.90349  19089156.20048
 14 11 14 07 23 09.0000000  0  1 19
   -758845.32749   -591306.41748  19086384.66249  19086383.98349  19086383.30948
 14 11 14 07 23 10.0000000  0  6 07 09 16 19 23 27
  -6410494.96157  -4995187.67957  22402411.38158  22402411.79057  22402411.51957
  -9119589.42658  -7106173.48958  20574216.82059  20574217.31058  20574219.59358
  -9388280.26657  -7315545.25956  21326203.38958  21326203.47257  21326203.58056
   -773369.35248   -602623.84048  19083620.65549  19083620.08048  19083619.41848
 -18275592.25459 -14240720.72858  19833001.79859  19833001.93859  19833000.20358
  -6553263.63858  -5106437.54358  19270166.62859  19270167.12858  19270169.30858
 14 11 14 07 23 11.0000000  0  1 19
   -787849.86848   -613907.36248  19080865.10849  19080864.68148  19080863.68048
 14 11 14 07 23 12.0000000  0  1 19
   -802283.33349   -625154.21848  19078118.34549  19078118.02349  19078117.24148
 14 11 14 07 23 13.0000000  0  1 19
   -816661.74748   -636358.16848  19075382.43149  19075381.85248  19075381.03848
 14 11 14 07 23 14.0000000  0  1 19
   -830968.98549   -647506.67548  19072659.86849  19072659.19749  19072658.58648
 14 11 14 07 23 15.0000000  0  1 19
   -845206.65749   -658600.96348  19069950.47749  19069949.81649  19069949.20948
 14 11 14 07 23 16.0000000  0  1 19
   -859393.83749   -669655.90648  19067250.68749  19067250.35949  19067249.39048
 14 11 14 07 23 17.0000000  0  2 11 19
         0.60556         0.40052  24036367.92058  24036377.96256  24036380.10652
   -873532.77949   -680673.26848  19064560.26149  19064559.75249  19064558.97448
 14 11 14 07 23 18.0000000  0  2 11 19
         0.88146         0.45843  24029461.56148  24029469.89546  24029490.84143
   -887629.52648   -691657.74148  19061877.92349  19061876.99348  19061876.50448
 14 11 14 07 23 19.0000000  0  2 11 19
         0.07646         0.20842  24022557.72948  24022561.96546  24022598.94542
   -901681.29748   -702607.17248  19059203.92549  19059203.33848  19059202.34448
 14 11 14 07 23 20.0000000  0  7 07 09 11 16 19 23 27
  -6129119.47557  -4775934.07257  22455955.55658  22455955.70657  22455955.77557
  -8965927.69058  -6986437.10358  20603457.67159  20603458.15158  20603460.48658
    -36269.24946    -28262.74343  24015655.32148  24015657.14346  24015713.22743
  -9232213.70457  -7193934.97156  21355901.98758  21355901.85957  21355902.03756
   -915674.43249   -713510.91648  19056541.16949  19056540.33549  19056539.65248
 -18318536.62059 -14274183.89158  19824829.79059  19824829.93859  19824828.23958
  -6518065.62358  -5079010.53358  19276864.69859  19276865.02158  19276867.41358
 14 11 14 07 23 21.0000000  0  2 11 19
    -72523.61346    -56510.38645  24008756.83948  24008757.46646  24008762.59745
   -929608.44849   -724368.59848  19053889.58149  19053888.88449  19053888.26848
 14 11 14 07 23 22.0000000  0  2 11 19
   -108774.82046    -84758.32045  24001858.04848  24001859.99946  24001860.95945
   -943495.21749   -735189.45448  19051246.77449  19051246.19449  19051245.65148
 14 11 14 07 23 23.0000000  0  2 11 19
   -145023.71146   -113005.13746  23994961.25148  23994961.22946  23994962.06846
   -957335.44949   -745974.04648  19048613.07949  19048612.68149  19048611.67048
 14 11 14 07 23 24.0000000  0  2 11 19
   -181257.93246   -141239.55846  23988065.45048  23988066.71146  23988065.94346
   -971116.95649   -756712.88848  19045990.34849  19045989.90249  19045989.21448
 14 11 14 07 23 25.0000000  0  1 19
   -984837.45349   -767404.18848  19043379.77649  19043378.97349  19043378.36248
 14 11 14 07 23 26.0000000  0  1 19
   -998509.58949   -778057.80148  19040777.76649  19040777.54449  19040776.64448
 14 11 14 07 23 27.0000000  0  1 19
  -1012136.99949   -788676.56248  19038184.82949  19038184.26549  19038183.46248
 14 11 14 07 23 28.0000000  0  1 19
  -1025714.97449   -799256.80448  19035600.99749  19035600.45149  19035599.57048
 14 11 14 07 23 29.0000000  0  1 19
  -1039238.49249   -809794.60748  19033027.48749  19033027.04949  19033026.12648
 14 11 14 07 23 30.0000000  0  6 07 09 16 19 23 27
  -5846433.68857  -4555659.46157  22509748.69558  22509749.43857  22509749.08757
  -8810023.25358  -6864953.15558  20633125.32659  20633125.74758  20633128.18958
  -9073527.19357  -7070283.16256  21386098.99358  21386098.80157  21386098.96856
  -1052700.57849   -820284.54948  19030465.57149  19030465.30749  19030464.57948
 -18358781.76559 -14305543.75758  19817171.39759  19817171.56859  19817169.80358
  -6477546.35258  -5047437.09158  19284575.19259  19284575.61058  19284577.92758
 14 11 14 07 23 31.0000000  0  1 19
  -1066101.42549   -830726.77048  19027915.78749  19027915.26749  19027914.48148
 14 11 14 07 23 32.0000000  0  1 19
  -1079454.03649   -841131.39748  19025374.52849  19025374.34649  19025373.45948
 14 11 14 07 23 33.0000000  0  1 19
  -1092759.74349   -851499.47948  19022842.68849  19022842.36749  19022841.25648
 14 11 14 07 23 34.0000000  0  1 19
  -1106003.93749   -861819.63848  19020322.60149  19020321.74549  19020321.07148
 14 11 14 07 23 35.0000000  0  1 19
  -1119187.39149   -872092.46148  19017813.80549  19017813.03049  19017812.29148
 14 11 14 07 23 36.0000000  0  1 19
  -1132322.59249   -882327.67848  19015314.11449  19015313.55049  19015312.88448
 14 11 14 07 23 37.0000000  0  1 19
  -1145409.54149   -892525.30148  19012823.80749  19012823.17549  19012822.54348
 14 11 14 07 23 38.0000000  0  1 19
  -1158437.83049   -902677.21748  19010344.76449  19010344.07249  19010343.37548
 14 11 14 07 23 39.0000000  0  1 19
  -1171405.48649   -912781.88648  19007876.93549  19007876.37049  19007875.78348
 14 11 14 07 23 40.0000000  0  6 07 09 16 19 23 27
  -5562373.55257  -4334313.92557  22563803.64558  22563804.18657  22563803.95657
  -8651804.52158  -6741665.86358  20663233.34059  20663233.90158  20663236.27458
  -8912160.95857  -6944543.27356  21416806.03858  21416805.99157  21416805.84056
  -1184324.89949   -922848.95948  19005418.45849  19005418.05249  19005417.11248
 -18396230.13459 -14334724.32558  19810045.26459  19810045.40159  19810043.64158
  -6431627.95658  -5011656.54658  19293313.21859  19293313.63358  19293315.98458
 14 11 14 07 23 41.0000000  0  1 19
  -1197197.66849   -932879.68848  19002968.69949  19002968.38949  19002967.40548
 14 11 14 07 23 42.0000000  0  1 19
  -1210010.65849   -942863.83848  19000530.83449  19000530.03949  19000529.24948
 14 11 14 07 23 43.0000000  0  1 19
  -1222762.05649   -952799.99648  18998103.99549  18998103.48049  18998102.89348
 14 11 14 07 23 44.0000000  0  1 19
  -1235465.70949   -962698.94448  18995686.62249  18995686.12749  18995685.38348
 14 11 14 07 23 45.0000000  0  1 19
  -1248123.19549   -972561.92048  18993277.90549  18993277.56549  18993276.68548
 14 11 14 07 23 46.0000000  0  1 19
  -1260719.10249   -982376.91748  18990881.25049  18990880.61449  18990879.83648
 14 11 14 07 23 47.0000000  0  1 19
  -1273253.46349   -992143.95448  18988495.86449  18988495.24449  18988494.76748
 14 11 14 07 23 50.0000000  0  5 07 09 16 23 27
  -5276990.69157  -4111937.69457  22618110.19858  22618110.48357  22618110.55757
  -8491315.87658  -6616609.80858  20693773.37759  20693773.89858  20693776.24058
  -8748171.42457  -6816759.24356  21448012.17158  21448012.02457  21448012.16556
 -18430900.36659 -14361740.10958  19803447.76959  19803447.81359  19803446.16758
  -6380349.82958  -4971699.58558  19303071.11359  19303071.55558  19303073.88558
 14 11 14 07 23 58.0000000  0  1 11
         0.92555         0.62352  23754768.02058  23754792.29455  23754792.47752
 14 11 14 07 23 59.0000000  0  1 11
         0.53345         0.87842  23747939.71548  23747968.00345  23747982.53842
 14 11 14 07 24 00.0000000  0  7 07 09 11 16 19 23 27
  -4990256.64156  -3888508.59357  22672673.78358  22672674.47756  22672674.60357
  -8328521.80358  -6489757.31158  20724752.13059  20724752.58658  20724754.94058
         0.17644         0.24442  23741115.61948  23741142.92744  23741170.77642
  -8581534.99357  -6686912.69156  21479722.32958  21479721.80357  21479721.98256
  -1431280.05459  -1115281.56958  18958424.47459  18958423.98659  18958423.17858
 -18462731.33759 -14386543.47658  19797390.51659  19797390.63459  19797388.99358
  -6323672.66558  -4927535.58158  19313856.41159  19313856.87358  19313859.20058
 14 11 14 07 24 01.0000000  0  1 11
    -35859.87646    -27943.80142  23734290.89048  23734317.82846  23734362.96942
 14 11 14 07 24 02.0000000  0  1 11
    -71703.11645    -55873.94143  23727469.90548  23727496.41345  23727501.13743
 14 11 14 07 24 03.0000000  0  1 11
   -107526.95845    -83788.20245  23720654.01848  23720676.33245  23720688.53045
 14 11 14 07 24 04.0000000  0  1 11
   -143345.10745   -111697.64645  23713836.43748  23713859.16245  23713872.49145
 14 11 14 07 24 05.0000000  0  1 11
   -179159.16246   -139603.85443  23707023.10948  23707038.96846  23707058.81843
 14 11 14 07 24 10.0000000  0  6 07 09 16 19 23 27
  -4702268.17056  -3664102.01657  22727476.34758  22727476.89256  22727476.75557
  -8163512.30158  -6361178.50958  20756152.28759  20756152.90858  20756155.26358
  -8412353.76057  -6555083.19856  21511916.41658  21511916.17757  21511915.79756
  -1546543.22359  -1205097.04059  18936490.72859  18936490.15059  18936489.38959
 -18491787.64159 -14409184.77258  19791861.27359  19791861.41059  19791859.78758
  -6261683.93558  -4879232.69858  19325652.47459  19325652.91958  19325655.32258
 14 11 14 07 24 20.0000000  0  6 07 09 16 19 23 27
  -4413029.38946  -3438721.18047  22782516.65148  22782517.19046  22782517.04247
  -7996284.93248  -6230871.49848  20787974.54449  20787975.13448  20787977.60548
  -8240637.47147  -6421278.32846  21544592.74248  21544592.56047  21544592.32946
  -1656287.84449  -1290612.34449  18915606.98249  18915606.44149  18915605.68649
 -18518041.85849 -14429642.62148  19786865.22349  19786865.35149  19786863.83048
  -6194379.88248  -4826788.00348  19338460.07249  19338460.40248  19338462.89348
 14 11 14 07 24 28.0000000  0  1 11
         0.63356         0.68256  23550941.32758  23550945.85256  23550944.97656
 14 11 14 07 24 29.0000000  0  1 11
         0.46546         0.55742  23544183.73248  23544185.35946  23544200.12142
 14 11 14 07 24 30.0000000  0  7 07 09 11 16 19 23 27
  -4122577.24056  -3212394.85757  22837787.93258  22837788.60856  22837788.38757
  -7826870.32358  -6098860.14658  20820213.19859  20820213.66658  20820216.12758
         0.03846         0.67142  23537425.49948  23537426.20646  23537456.47942
  -8066428.98457  -6285531.48256  21577743.75658  21577743.74257  21577743.40756
  -1760492.71159  -1371810.95359  18895777.41859  18895776.94059  18895776.19659
 -18541499.70359 -14447921.47558  19782401.39759  19782401.54959  19782399.91058
  -6121791.04258  -4770225.28658  19352273.20859  19352273.65758  19352276.14158
 14 11 14 07 24 31.0000000  0  1 11
    -35484.06146    -27650.53442  23530673.92348  23530676.13046  23530720.35942
 14 11 14 07 24 32.0000000  0  1 11
    -70961.09746    -55291.24646  23523923.76248  23523924.87846  23523922.91246
 14 11 14 07 24 33.0000000  0  1 11
   -106432.52546    -82931.54846  23517172.18248  23517173.36146  23517173.79646
 14 11 14 07 24 34.0000000  0  1 11
   -141885.71146   -110557.45446  23510426.00448  23510426.26846  23510426.59846
 14 11 14 07 24 35.0000000  0  1 11
   -177318.99646   -138167.80046  23503684.14648  23503686.06446  23503683.19646
 14 11 14 07 24 36.0000000  0  1 11
   -212744.53646   -165772.06346  23496942.71248  23496944.24946  23496943.50846
 14 11 14 07 24 37.0000000  0  1 11
   -248163.81446   -193371.52146  23490203.32048  23490203.39146  23490202.18446
 14 11 14 07 24 38.0000000  0  1 11
   -283564.59646   -220956.53246  23483466.20248  23483466.36346  23483467.39646
 14 11 14 07 24 39.0000000  0  1 11
   -318946.03646   -248526.52746  23476733.59748  23476732.70646  23476733.60046
 14 11 14 07 24 40.0000000  0  7 07 09 11 16 19 23 27
  -3830943.01756  -2985147.44657  22893284.12058  22893285.00956  22893284.37957
  -7655293.71558  -5965164.12058  20852863.19159  20852863.65758  20852866.09158
   -354320.10346   -276090.72946  23470000.37848  23470000.78546  23470001.92546
  -7889765.73057  -6147871.81756  21611361.44358  21611361.31857  21611361.67656
  -1859132.42659  -1448673.07959  18877006.96459  18877006.44659  18877005.66059
 -18562161.72659 -14464021.76758  19778469.56159  19778469.67559  19778468.08558
  -6043943.72758  -4709565.05658  19367087.15159  19367087.52358  19367089.96958
 14 11 14 07 24 41.0000000  0  1 11
   -389688.63146   -303650.60946  23463270.97348  23463272.23746  23463270.96646
 14 11 14 07 24 42.0000000  0  1 11
   -425037.44946   -331195.13746  23456544.55748  23456546.55046  23456543.12746
 14 11 14 07 24 43.0000000  0  1 11
   -460365.24046   -358723.28146  23449822.33248  23449822.61446  23449822.27446
 14 11 14 07 24 44.0000000  0  1 11
   -495684.88246   -386245.04346  23443100.29848  23443104.53446  23443101.27346
 14 11 14 07 24 45.0000000  0  1 11
   -531000.92246   -413764.06646  23436379.33848  23436383.73646  23436379.02546
 14 11 14 07 24 46.0000000  0  1 11
   -566297.96746   -441268.23546  23429661.93548  23429664.26846  23429664.16246
 14 11 14 07 24 47.0000000  0  1 11
   -601574.94246   -468756.82046  23422950.46348  23422950.29546  23422952.51946
 14 11 14 07 24 48.0000000  0  1 11
   -636844.20546   -496239.32046  23416238.93348  23416238.11246  23416240.93646
 14 11 14 07 24 49.0000000  0  1 11
   -672106.67846   -523716.60046  23409527.80148  23409527.77246  23409530.40946
 14 11 14 07 24 50.0000000  0  7 07 09 11 16 19 23 27
  -3538155.42556  -2757001.29357  22948999.80258  22949000.23256  22948999.76557
  -7481577.83058  -5829801.12258  20885920.24159  20885920.73258  20885923.12758
   -707348.23846   -551177.53046  23402822.79448  23402822.02846  23402822.46446
  -7710682.83557  -6008326.72456  21645439.72758  21645439.82257  21645439.77756
  -1952180.33459  -1521177.95059  18859300.56459  18859300.04659  18859299.24859
 -18580026.20559 -14477942.15158  19775069.96059  19775070.17459  19775068.57258
  -5960862.96358  -4644826.81358  19382896.90159  19382897.35658  19382899.77158
 14 11 14 07 24 51.0000000  0  1 11
   -742568.27846   -578621.74546  23396121.45248  23396119.81946  23396119.83646
 14 11 14 07 24 52.0000000  0  1 11
   -777779.96646   -606059.40746  23389418.95148  23389418.54146  23389419.93046
 14 11 14 07 24 53.0000000  0  1 11
   -812987.48146   -633493.80346  23382719.71548  23382719.87646  23382721.46246
 14 11 14 07 24 54.0000000  0  1 11
   -848173.76346   -660911.72146  23376024.22348  23376024.22746  23376025.94946
 14 11 14 07 24 55.0000000  0  1 11
   -883337.41246   -688311.96746  23369332.73748  23369334.11646  23369334.93546
 14 11 14 07 24 56.0000000  0  1 11
   -918493.03746   -715705.98146  23362642.91548  23362643.49746  23362642.90746
 14 11 14 07 24 57.0000000  0  1 11
   -953643.32846   -743095.76746  23355954.59348  23355953.42646  23355954.19946
 14 11 14 07 24 58.0000000  0  1 11
   -988774.58046   -770470.78046  23349268.95148  23349266.06246  23349270.43046
 14 11 14 07 24 59.0000000  0  1 11
  -1023885.59246   -797830.01646  23342587.48448  23342587.02746  23342587.80846
 14 11 14 07 25 00.0000000  0  7 07 09 11 16 19 23 27
  -3244207.70756  -2527951.15256  23004936.25058  23004936.65556  23004936.76156
  -7305710.28558  -5692761.51058  20919386.68459  20919387.20258  20919389.68058
  -1058970.02346   -825168.55846  23335910.79848  23335913.52046  23335910.54546
  -7529180.07956  -5866896.03056  21679978.72258  21679978.76356  21679978.87856
  -2039576.15459  -1589278.60259  18842669.64159  18842669.16859  18842668.37159
 -18595056.63259 -14489654.19158  19772209.90759  19772210.05259  19772208.44358
  -5872539.79658  -4576003.58858  19399704.26059  19399704.59658  19399707.13358
 14 11 14 07 25 01.0000000  0  1 11
  -1094030.58546   -852488.43446  23329239.68948  23329240.53446  23329241.82946
 14 11 14 07 25 02.0000000  0  1 11
  -1129081.68646   -879800.99246  23322568.96448  23322570.56346  23322568.82446
 14 11 14 07 25 03.0000000  0  1 11
  -1164124.62046   -907107.17946  23315900.43548  23315901.39446  23315901.58946
 14 11 14 07 25 04.0000000  0  1 11
  -1199162.61746   -934409.52046  23309233.75648  23309233.65746  23309231.99846
 14 11 14 07 25 05.0000000  0  1 11
  -1234196.27046   -961708.40346  23302566.57848  23302567.08246  23302567.77446
 14 11 14 07 25 06.0000000  0  1 11
  -1269210.81346   -988992.47446  23295903.18648  23295902.57346  23295902.42746
 14 11 14 07 25 07.0000000  0  1 11
  -1304203.82246  -1016259.78646  23289246.43648  23289244.13646  23289245.12946
 14 11 14 07 25 08.0000000  0  2 04 11
         0.58556         0.43656  23754204.26957  23754205.72756  23754208.92356
  -1339185.47946  -1043518.18846  23282588.05448  23282584.92146  23282587.51346
 14 11 14 07 25 09.0000000  0  2 04 11
         0.89346         0.96943  23746854.55447  23746857.26846  23746875.23443
  -1374160.84046  -1070771.69346  23275932.03448  23275931.16646  23275933.41746
 14 11 14 07 25 10.0000000  0  8 04 07 09 11 16 19 23 27
         0.15846         0.75544  23739509.29247  23739509.86646  23739541.24944
  -2949097.86956  -2297995.46356  23061093.75858  23061094.57556  23061093.83056
  -7127683.60658  -5554039.44958  20953264.13359  20953264.59858  20953267.08458
  -1409116.96246  -1098010.29546  23269279.74448  23269280.94146  23269282.32546
  -7345262.38656  -5723583.54756  21714977.01658  21714977.15056  21714977.13256
  -2121265.70559  -1652932.80659  18827124.66359  18827124.17259  18827123.38159
 -18607221.56359 -14499133.36658  19769894.99159  19769895.13159  19769893.49758
  -5778971.41158  -4503093.17758  19417509.73559  19417510.10158  19417512.63458
 14 11 14 07 25 11.0000000  0  2 04 11
    -38589.00846    -30069.88442  23732166.03247  23732162.85046  23732214.14242
  -1444049.50946  -1125230.50346  23262632.28848  23262635.04946  23262633.92346
 14 11 14 07 25 12.0000000  0  2 04 11
    -77173.54146    -60132.81044  23724822.77047  23724822.92946  23724823.21044
  -1478971.33746  -1152442.25646  23255988.14548  23255988.06746  23255986.77546
 14 11 14 07 25 13.0000000  0  2 04 11
   -115757.52346    -90198.44746  23717481.02247  23717485.30646  23717481.88146
  -1513886.47546  -1179648.82246  23249343.49648  23249344.02546  23249344.17546
 14 11 14 07 25 14.0000000  0  2 04 11
   -154327.85646   -120253.25243  23710141.14147  23710143.95746  23710138.05443
  -1548781.68746  -1206839.92746  23242703.79748  23242703.54346  23242704.35446
 14 11 14 07 25 15.0000000  0  2 04 11
   -192880.47846   -150294.42345  23702803.85547  23702805.86846  23702804.04245
  -1583653.20946  -1234012.53946  23236067.62648  23236067.97146  23236068.40146
 14 11 14 07 25 16.0000000  0  1 11
  -1618514.22946  -1261177.00046  23229433.35748  23229434.64146  23229433.24146
 14 11 14 07 25 17.0000000  0  1 11
  -1653369.31346  -1288336.74646  23222801.03848  23222801.51246  23222801.46746
 14 11 14 07 25 18.0000000  0  1 11
  -1688211.16546  -1315486.28346  23216169.76248  23216172.30146  23216170.39146
 14 11 14 07 25 19.0000000  0  1 11
  -1723040.30646  -1342625.85846  23209541.97048  23209543.21546  23209542.71046
 14 11 14 07 25 20.0000000  0  7 07 09 11 16 19 23 27
  -2652980.64556  -2067254.80656  23117442.80358  23117443.75756  23117443.39456
  -6947647.31258  -5413751.45958  20987523.88859  20987524.31358  20987526.86558
  -1757857.60746  -1369756.21446  23202917.71548  23202918.27746  23202916.74346
  -7159091.79356  -5578515.56856  21750404.17658  21750404.13656  21750404.35156
  -2197353.30959  -1712221.86059  18812645.66959  18812645.17559  18812644.35559
 -18616646.86459 -14506477.77058  19768101.45959  19768101.55859  19768099.92458
  -5680313.08958  -4426216.57858  19436283.82759  19436284.25858  19436286.71558
 14 11 14 07 25 21.0000000  0  1 11
  -1792659.71046  -1396874.74446  23196293.63848  23196293.61646  23196294.76946
 14 11 14 07 25 22.0000000  0  1 11
  -1827437.10246  -1423973.99546  23189676.97248  23189676.28246  23189676.56846
 14 11 14 07 25 23.0000000  0  1 11
  -1862191.76446  -1451055.53146  23183063.12448  23183062.84746  23183063.08646
 14 11 14 07 25 24.0000000  0  1 11
  -1896936.46246  -1478129.37246  23176451.85648  23176451.92446  23176450.95346
 14 11 14 07 25 25.0000000  0  1 11
  -1931672.05246  -1505196.01546  23169840.98448  23169841.75746  23169843.65846
 14 11 14 07 25 26.0000000  0  1 11
  -1966386.72446  -1532246.40546  23163235.28148  23163235.61646  23163237.77846
 14 11 14 07 25 27.0000000  0  1 11
  -2001077.06646  -1559277.85646  23156634.98548  23156633.44946  23156634.60046
 14 11 14 07 25 28.0000000  0  1 11
  -2035755.41846  -1586299.96246  23150035.59848  23150036.18746  23150035.76846
 14 11 14 07 25 29.0000000  0  1 11
  -2070425.24446  -1613315.38946  23143438.46548  23143439.71346  23143438.04746
 14 11 14 07 25 30.0000000  0  7 07 09 11 16 19 23 27
  -2355801.06256  -1835686.32356  23173994.26158  23173995.02756  23173994.35856
  -6765541.35658  -5271850.74458  21022177.48159  21022178.05758  21022180.51858
  -2105073.32246  -1640313.88646  23136844.79648  23136843.32846  23136846.52446
  -6970620.58456  -5431654.94056  21786269.05558  21786268.91356  21786268.89456
  -2267735.14259  -1767064.85659  18799252.50559  18799251.98959  18799251.21059
 -18623249.19259 -14511622.44658  19766845.10359  19766845.21759  19766843.55858
  -5576511.69358  -4345332.38558  19456036.58159  19456036.94858  19456039.41958
 14 11 14 07 25 31.0000000  0  1 11
  -2139698.98246  -1667294.90446  23130255.34848  23130254.11946  23130256.49946
 14 11 14 07 25 32.0000000  0  1 11
  -2174316.82746  -1694269.83546  23123666.68248  23123666.90446  23123669.91046
 14 11 14 07 25 33.0000000  0  1 11
  -2208925.82246  -1721237.88846  23117081.42448  23117081.10546  23117082.64146
 14 11 14 07 25 34.0000000  0  1 11
  -2243513.27546  -1748189.17246  23110499.22448  23110499.35746  23110500.81146
 14 11 14 07 25 35.0000000  0  1 11
  -2278078.55146  -1775123.11846  23103922.20548  23103922.87846  23103922.67046
 14 11 14 07 25 36.0000000  0  1 11
  -2312632.80846  -1802048.50746  23097346.88648  23097347.95046  23097347.95746
 14 11 14 07 25 37.0000000  0  2 04 11
         0.13256         0.49755  23541802.54758  23541800.65056  23541800.91355
  -2347177.77446  -1828966.67446  23090773.95548  23090773.73246  23090773.32846
 14 11 14 07 25 38.0000000  0  2 04 11
         0.54346         0.85143  23534506.09348  23534505.50446  23534519.12943
  -2381701.24446  -1855868.08946  23084204.10248  23084205.21446  23084204.08446
 14 11 14 07 25 39.0000000  0  2 04 11
         0.69646         0.33142  23527212.14448  23527212.07346  23527237.90742
  -2416201.70846  -1882751.54146  23077638.64548  23077639.54746  23077639.10146
 14 11 14 07 25 40.0000000  0  8 04 07 09 11 16 19 23 27
    -38322.60546    -29863.18942  23519917.62148  23519921.32946  23519961.50042
  -2057586.29856  -1603311.20056  23230742.91558  23230743.72356  23230742.96556
  -6581388.16258  -5128354.77458  21057220.68858  21057221.20158  21057223.71958
  -2450689.38746  -1909625.06746  23071075.59048  23071077.16146  23071077.76446
  -6779883.73256  -5283028.83256  21822565.28358  21822565.62256  21822565.03156
  -2332391.21959  -1817446.22659  18786948.79559  18786948.36159  18786947.53059
 -18627027.98959 -14514566.97558  19766125.97559  19766126.12859  19766124.41158
  -5467597.66058  -4260464.31758  19476762.18359  19476762.62758  19476765.17458
 14 11 14 07 25 41.0000000  0  2 04 11
    -76644.39846    -59721.02546  23512625.45448  23512626.85346  23512622.19546
  -2485169.33946  -1936492.57246  23064514.94048  23064514.80746  23064514.41346
 14 11 14 07 25 42.0000000  0  2 04 11
   -114950.88146    -89570.42245  23505336.62748  23505337.44746  23505338.66145
  -2519627.83846  -1963343.34546  23057957.84348  23057957.09846  23057958.06546
 14 11 14 07 25 43.0000000  0  2 04 11
   -153241.09446   -119407.11946  23498050.75648  23498051.13046  23498048.57846
  -2554063.17046  -1990176.04746  23051404.58848  23051405.08446  23051405.08046
 14 11 14 07 25 44.0000000  0  2 04 11
   -191515.04046   -149231.02745  23490766.42348  23490766.63246  23490767.99845
  -2588476.76646  -2016991.85246  23044855.33848  23044856.56046  23044857.13346
 14 11 14 07 25 45.0000000  0  1 11
  -2622872.98546  -2043794.10246  23038310.63848  23038310.64246  23038311.11746
 14 11 14 07 25 46.0000000  0  1 11
  -2657259.16246  -2070588.52546  23031766.29748  23031766.09446  23031768.39846
 14 11 14 07 25 47.0000000  0  1 11
  -2691637.28946  -2097376.68046  23025225.06448  23025223.87246  23025225.88646
 14 11 14 07 25 48.0000000  0  1 11
  -2726004.73046  -2124156.53046  23018685.23248  23018685.23846  23018684.00846
 14 11 14 07 25 49.0000000  0  1 11
  -2760355.79046  -2150923.57246  23012148.94248  23012147.85146  23012146.21946
 14 11 14 07 25 50.0000000  0  7 07 09 11 16 19 23 27
  -1758370.23656  -1370155.87056  23287681.80758  23287682.02256  23287681.87056
  -6395216.92258  -4983286.30658  21092647.96158  21092648.37758  21092650.91358
  -2794690.45646  -2177677.81746  23005614.44948  23005613.84046  23005614.28546
  -6586922.82856  -5132669.70356  21859284.29958  21859284.39756  21859284.01456
  -2391309.86859  -1863356.87259  18775737.03059  18775736.54459  18775735.65659
 -18627989.65759 -14515316.34558  19765943.03959  19765943.17559  19765941.46958
  -5353609.32058  -4171642.24858  19498453.49259  19498453.83358  19498456.39958
 14 11 14 07 25 51.0000000  0  1 11
  -2829009.58146  -2204420.01346  22999083.13148  22999083.00046  22999085.75646
 14 11 14 07 25 52.0000000  0  1 11
  -2863311.91246  -2231149.07846  22992556.03948  22992555.56546  22992557.33946
 14 11 14 07 25 53.0000000  0  1 11
  -2897596.21546  -2257864.12246  22986031.95548  22986032.24246  22986032.76646
 14 11 14 07 25 54.0000000  0  1 11
  -2931863.92846  -2284566.21246  22979512.02448  22979511.21146  22979512.16246
 14 11 14 07 25 55.0000000  0  2 04 11
         0.95056         0.51254  23410746.28358  23410743.49256  23410742.20854
  -2966114.07446  -2311254.65546  22972994.02248  22972993.95946  22972994.64246
 14 11 14 07 25 56.0000000  0  2 04 11
         0.43446         0.67646  23403484.25048  23403483.08946  23403494.37846
  -3000347.26246  -2337929.86946  22966480.13048  22966479.01146  22966480.43046
 14 11 14 07 25 57.0000000  0  1 04
         0.49846         0.09942  23396222.88448  23396222.01746  23396245.87142
 14 11 14 07 25 58.0000000  0  1 04
    -38145.65646    -29725.34842  23388964.20748  23388966.36846  23389003.06842
 14 11 14 07 25 59.0000000  0  1 04
    -76280.55046    -59438.92244  23381704.36848  23381706.68846  23381711.94444
 14 11 14 07 26 00.0000000  0  7 04 07 09 16 19 23 27
   -114396.44046    -89139.76046  23374452.22848  23374453.76946  23374455.24646
  -1458271.97256  -1136313.08956  23344788.28758  23344788.96856  23344788.56156
  -6207142.36858  -4836734.73158  21128437.21958  21128437.83558  21128440.40558
  -6391865.04156  -4980676.64456  21896402.65758  21896402.60756  21896402.71756
  -2444566.39859  -1904855.47459  18765602.56859  18765602.12159  18765601.33459
 -18626226.30459 -14513942.31858  19766278.59959  19766278.69259  19766277.06458
  -5234671.58758  -4078963.51358  19521086.63059  19521086.86558  19521089.52058
 14 11 14 07 26 01.0000000  0  1 04
   -152492.64746   -118825.17545  23367205.44248  23367202.55246  23367205.46145
 14 11 14 07 26 02.0000000  0  1 04
   -190582.13146   -148505.26845  23359956.06148  23359953.76246  23359958.08445
 14 11 14 07 26 10.0000000  0  7 07 09 11 16 19 23 27
  -1157084.06756   -901621.25056  23402102.61658  23402103.74356  23402103.47456
  -6016952.72358  -4688535.03758  21164629.23358  21164629.73158  21164632.33458
  -3477620.59156  -2709831.16056  22875657.22058  22875657.56356  22875658.03656
  -6194511.14156  -4826894.40856  21933957.72358  21933957.76956  21933957.30256
  -2491911.16259  -1941747.50859  18756593.23259  18756592.76459  18756591.92559
 -18621504.00559 -14510262.62358  19767177.18659  19767177.37859  19767175.73658
  -5110583.98458  -3982271.89758  19544699.58359  19544700.02758  19544702.67358
 14 11 14 07 26 20.0000000  0  7 07 09 11 16 19 23 27
   -854990.77746   -666223.91546  23459589.14248  23459589.54746  23459589.72346
  -5824828.19248  -4538827.63948  21201189.33048  21201189.91548  21201192.49048
  -3816373.11246  -2973794.15146  22811194.62648  22811194.92046  22811195.19646
  -5995053.91146  -4671473.19646  21971913.26148  21971913.36046  21971913.16046
  -2533488.02449  -1974145.07249  18748681.43149  18748680.96449  18748680.12849
 -18613981.08949 -14504400.62848  19768608.78249  19768608.89749  19768607.36148
  -4981538.99048  -3881717.36948  19569256.03149  19569256.53948  19569259.12848
 14 11 14 07 26 30.0000000  0  7 07 09 11 16 19 23 27
   -552007.70646   -430133.23246  23517244.94448  23517245.63146  23517245.59546
  -5630780.55248  -4387621.71248  21238115.38848  21238115.91348  21238118.46248
  -4153288.12546  -3236325.30146  22747081.87848  22747082.61546  22747081.95246
  -5793517.37446  -4514431.77346  22010264.35348  22010263.77846  22010264.17646
  -2569274.05949  -2002030.30049  18741871.61749  18741871.10249  18741870.27449
 -18603647.71949 -14496348.66048  19770575.13949  19770575.26249  19770573.63848
  -4847561.74348  -3777319.52848  19594751.11849  19594751.50648  19594754.09348
 14 11 14 07 26 40.0000000  0  7 07 09 11 16 19 23 27
   -248143.96846   -193356.32046  23575068.30548  23575068.36646  23575068.94146
  -5434815.06548  -4234921.35748  21275406.33248  21275406.92448  21275409.50748
  -4488294.62046  -3497369.32746  22683332.41848  22683332.18646  22683332.59346
  -5589919.56446  -4355784.14946  22049007.80048  22049007.67846  22049007.62746
  -2599241.23549  -2025381.35649  18736169.00349  18736168.51149  18736167.68149
 -18590487.95249 -14486094.31148  19773079.37149  19773079.49449  19773077.99448
  -4708671.81248  -3669093.62848  19621180.98949  19621181.39648  19621184.04048
 14 11 14 07 26 43.0000000  0  1 04
         0.78256         0.29955  23064736.03358  23064739.99656  23064740.73855
 14 11 14 07 26 43.0000000  0  1 04
         0.78246         0.29945  23064736.03348  23064739.99646  23064740.73845
 14 11 14 07 26 45.0000000  0  1 04
         0.90446         0.05843  23050438.11148  23050440.71546  23050470.65743
 14 11 14 07 26 46.0000000  0  1 04
    -37548.80646    -29260.66942  23043294.46148  23043295.30146  23043341.24642
 14 11 14 07 26 47.0000000  0  1 04
    -75075.40546    -58498.93146  23036151.94848  23036152.67546  23036152.76046
 14 11 14 07 26 48.0000000  0  1 04
   -112593.19646    -87733.80046  23029013.08148  23029011.83246  23029016.75946
 14 11 14 07 26 49.0000000  0  1 04
   -150107.56046   -116965.83645  23021874.61048  23021872.88546  23021876.37345
 14 11 14 07 26 50.0000000  0  8 04 07 09 11 16 19 23 27
   -187603.48846   -146183.43646  23014739.06648  23014736.98546  23014739.20046
     56570.87056     44083.78356  23633053.39858  23633054.47156  23633054.41956
  -5236958.09558  -4080747.11758  21313057.37358  21313057.74658  21313060.41358
  -4821342.60356  -3756887.22656  22619955.40358  22619955.83956  22619955.42256
  -5384298.89056  -4195560.26756  22088136.25858  22088135.94556  22088136.25856
  -2623384.32759  -2044194.16159  18731574.74259  18731574.26059  18731573.43859
 -18574507.21959 -14473641.79858  19776120.39559  19776120.57159  19776119.06558
  -4564910.93358  -3557072.17858  19648537.81859  19648538.24058  19648540.87758
 14 11 14 07 26 51.0000000  0  1 04
   -225077.17546   -175383.71946  23007607.26448  23007607.22146  23007610.29046
 14 11 14 07 26 52.0000000  0  1 04
   -262542.99846   -204577.86945  23000478.41448  23000478.38146  23000481.55345
 14 11 14 07 26 53.0000000  0  1 04
   -300000.79446   -233765.71746  22993350.94948  22993352.79746  22993351.34846
 14 11 14 07 26 54.0000000  0  1 04
   -337438.35246   -262937.89146  22986227.04748  22986226.50346  22986226.21346
 14 11 14 07 26 55.0000000  0  1 04
   -374855.20046   -292093.85046  22979105.83348  22979106.06546  22979107.44946
 14 11 14 07 26 56.0000000  0  1 04
   -412264.30146   -321243.78146  22971987.39948  22971988.51746  22971991.25746
 14 11 14 07 26 57.0000000  0  1 04
   -449666.72246   -350388.55546  22964871.24748  22964870.93146  22964872.08346
 14 11 14 07 26 58.0000000  0  1 04
   -487049.58146   -379518.06646  22957755.64948  22957757.18646  22957758.45546
 14 11 14 07 26 59.0000000  0  1 04
   -524411.19246   -408630.97746  22950646.92948  22950646.69846  22950648.22946
 14 11 14 07 27 00.0000000  0  8 04 07 09 11 16 19 23 27
   -561762.26946   -437735.70646  22943538.36748  22943540.90346  22943542.40146
    362093.53756    282153.34256  23691192.75858  23691192.80256  23691193.29956
  -5037249.63258  -3925130.15658  21351060.58058  21351061.14358  21351063.73958
  -5152395.13456  -4014850.21156  22556958.20558  22556957.98756  22556958.38856
  -5176707.83056  -4033801.01556  22127639.48058  22127639.49856  22127639.49856
  -2641713.27259  -2058476.46259  18728086.82759  18728086.34659  18728085.56959
 -18555724.76459 -14459006.13358  19779694.65859  19779694.78259  19779693.21358
  -4416335.30958  -3441298.98658  19676810.68959  19676811.18958  19676813.86958
 14 11 14 07 27 01.0000000  0  1 04
   -599106.36246   -466835.05546  22936433.51448  22936433.98446  22936433.47746
 14 11 14 07 27 02.0000000  0  1 04
   -636430.44246   -495918.69346  22929330.61848  22929331.29946  22929332.43646
 14 11 14 07 27 03.0000000  0  1 04
   -673732.76746   -524985.44946  22922231.91548  22922232.76346  22922232.96646
 14 11 14 07 27 04.0000000  0  1 04
   -711026.60446   -554045.60446  22915135.88648  22915136.24146  22915136.94546
 14 11 14 07 27 05.0000000  0  1 04
   -748314.81246   -583101.28146  22908039.16948  22908040.40046  22908041.16146
 14 11 14 07 27 06.0000000  0  1 04
   -785584.17746   -612142.43046  22900947.93448  22900949.16846  22900946.88046
 14 11 14 07 27 07.0000000  0  1 04
   -822831.29746   -641166.11846  22893859.98048  22893862.25046  22893861.44746
 14 11 14 07 27 08.0000000  0  1 04
   -860068.76246   -670182.34046  22886772.87948  22886774.98246  22886772.73746
 14 11 14 07 27 09.0000000  0  1 04
   -897299.32146   -699193.14946  22879688.17848  22879689.80146  22879691.90646
 14 11 14 07 27 10.0000000  0  8 04 07 09 11 16 19 23 27
   -934510.03246   -728188.50646  22872608.20048  22872609.31646  22872607.84046
    668417.71156    520847.49256  23749484.41758  23749484.55856  23749484.95956
  -4835692.65558  -3768072.79358  21389415.69158  21389416.09858  21389418.83758
  -5481378.21656  -4271200.64256  22494354.72458  22494354.60756  22494355.43456
  -4967161.87456  -3870518.47156  22167514.98658  22167514.77056  22167514.24656
  -2654202.57059  -2068208.38559  18725710.20759  18725709.71159  18725708.94059
 -18534123.40859 -14442173.91558  19783805.20159  19783805.40359  19783803.81358
  -4262965.17958  -3321789.81658  19705996.11259  19705996.60458  19705999.24358
 14 11 14 07 27 11.0000000  0  1 04
   -971697.81446   -757165.94646  22865530.93448  22865531.59746  22865532.67546
 14 11 14 07 27 12.0000000  0  1 04
  -1008875.76046   -786135.78846  22858456.77548  22858459.74546  22858458.01546
 14 11 14 07 27 13.0000000  0  1 04
  -1046046.57946   -815100.07146  22851383.03848  22851383.94046  22851386.64146
 14 11 14 07 27 14.0000000  0  1 04
  -1083196.58146   -844048.14346  22844313.72848  22844313.20546  22844317.08046
 14 11 14 07 27 15.0000000  0  1 04
  -1120323.62346   -872978.27946  22837248.54248  22837248.14246  22837250.75246
 14 11 14 07 27 16.0000000  0  1 04
  -1157440.18946   -901900.29746  22830185.61748  22830185.46946  22830187.32146
 14 11 14 07 27 17.0000000  0  1 04
  -1194548.59246   -930815.92746  22823124.18548  22823122.35546  22823125.64546
 14 11 14 07 27 18.0000000  0  1 04
  -1231636.44446   -959715.54746  22816066.05948  22816067.36746  22816067.93346
 14 11 14 07 27 19.0000000  0  1 04
  -1268703.46546   -988598.93646  22809013.28148  22809012.96546  22809014.41246
 14 11 14 07 27 20.0000000  0  8 04 07 09 11 16 19 23 27
  -1305761.68946  -1017475.45446  22801961.18248  22801958.93346  22801961.18446
    975511.82956    760141.56256  23807922.26058  23807923.01356  23807923.33056
  -4632315.90558  -3609597.43658  21428117.05058  21428117.42558  21428120.12558
  -5808243.19956  -4525900.61856  22432154.39158  22432154.69656  22432154.52456
  -4755702.14756  -3705744.66856  22207754.21558  22207753.60456  22207753.52756
  -2660854.17959  -2073391.46359  18724444.44859  18724443.96559  18724443.19159
 -18509711.91059 -14423151.98058  19788450.56159  19788450.73659  19788449.22358
  -4104847.38258  -3198581.16558  19736085.02959  19736085.53058  19736088.10058
 14 11 14 07 27 21.0000000  0  1 04
  -1342812.12346  -1046345.92646  22794910.97748  22794907.30146  22794912.81046
 14 11 14 07 27 22.0000000  0  1 04
  -1379842.39146  -1075200.67246  22787864.00748  22787863.84446  22787865.88046
 14 11 14 07 27 23.0000000  0  1 04
  -1416848.59746  -1104036.68846  22780822.03048  22780822.55146  22780823.53246
 14 11 14 07 27 24.0000000  0  1 04
  -1453844.96046  -1132865.00546  22773780.39548  22773781.27646  22773783.41346
 14 11 14 07 27 25.0000000  0  1 04
  -1490833.21246  -1161687.02446  22766742.64448  22766742.53746  22766744.71046
 14 11 14 07 27 26.0000000  0  1 04
  -1527799.85746  -1190492.19146  22759707.82648  22759708.72746  22759708.95946
 14 11 14 07 27 27.0000000  0  1 04
  -1564742.16346  -1219278.42246  22752679.51248  22752678.51346  22752679.84446
 14 11 14 07 27 28.0000000  0  1 04
  -1601674.70446  -1248057.01046  22745651.45648  22745650.25546  22745652.47746
 14 11 14 07 27 29.0000000  0  1 04
  -1638598.87446  -1276829.06646  22738623.77048  22738622.98446  22738626.68146
 14 11 14 07 27 30.0000000  0  8 04 07 09 11 16 19 23 27
  -1675503.27246  -1305585.74646  22731601.59848  22731601.25446  22731604.88746
   1283348.77656   1000014.49056  23866501.74658  23866501.61656  23866502.78856
  -4427143.57658  -3449722.91758  21467160.12358  21467160.57058  21467163.22158
  -6132936.84257  -4778908.61756  22370367.26858  22370367.18557  22370367.70556
  -4542365.22756  -3539508.13056  22248351.04958  22248350.66056  22248351.07556
  -2661667.18459  -2074024.97859  18724289.74659  18724289.24659  18724288.42959
 -18482494.82759 -14401943.86758  19793629.76159  19793629.95359  19793628.42258
  -3942025.13858  -3071706.70358  19767069.08059  19767069.44958  19767072.14758
 14 11 14 07 27 31.0000000  0  1 04
  -1712385.48346  -1334325.12846  22724582.36148  22724582.70846  22724584.53346
 14 11 14 07 27 32.0000000  0  1 04
  -1749256.79646  -1363056.03546  22717565.72548  22717564.84746  22717570.08646
 14 11 14 07 27 33.0000000  0  1 04
  -1786120.08546  -1391780.65446  22710551.94448  22710549.98646  22710553.54246
 14 11 14 07 27 34.0000000  0  1 04
  -1822962.26046  -1420488.87546  22703540.54748  22703539.40346  22703542.80146
 14 11 14 07 27 35.0000000  0  1 04
  -1859780.82946  -1449178.67246  22696532.45648  22696531.58746  22696535.51846
 14 11 14 07 27 36.0000000  0  1 04
  -1896589.41246  -1477860.65346  22689529.64748  22689528.72346  22689532.97646
 14 11 14 07 27 37.0000000  0  1 04
  -1933388.39346  -1506535.18446  22682527.12648  22682526.57646  22682530.04746
 14 11 14 07 27 38.0000000  0  1 04
  -1970164.42146  -1535191.86446  22675528.55148  22675529.56946  22675533.04046
 14 11 14 07 27 39.0000000  0  1 04
  -2006917.40846  -1563830.57746  22668535.05148  22668536.46146  22668537.33646
 14 11 14 07 27 40.0000000  0  8 04 07 09 11 16 19 23 27
  -2043659.58446  -1592460.78746  22661542.81548  22661544.34246  22661545.49646
   1591888.03856   1240434.65856  23925214.88258  23925215.59856  23925215.72256
  -4220213.61258  -3288478.81758  21506537.54658  21506538.05758  21506540.67258
  -6455419.23357  -5030193.57857  22309000.74458  22309000.55257  22309001.10557
  -4327201.38256  -3371848.03156  22289295.00858  22289295.37656  22289295.44056
  -2656656.02659  -2070120.18659  18725243.25959  18725242.85559  18725242.07059
 -18452490.75459 -14378564.08558  19799339.39759  19799339.56059  19799338.02658
  -3774556.27758  -2941211.50958  19798937.45159  19798937.77258  19798940.48658
 14 11 14 07 27 41.0000000  0  1 04
  -2080391.89546  -1621083.34646  22654552.87348  22654553.18846  22654556.03646
 14 11 14 07 27 42.0000000  0  1 04
  -2117104.49446  -1649690.59846  22647567.16748  22647566.02446  22647569.03846
 14 11 14 07 27 43.0000000  0  1 04
  -2153791.13046  -1678277.57046  22640585.25348  22640585.04446  22640588.52146
 14 11 14 07 27 44.0000000  0  1 04
  -2190467.27646  -1706856.37746  22633605.92048  22633606.24146  22633609.27046
 14 11 14 07 27 45.0000000  0  1 04
  -2227132.48246  -1735426.65446  22626629.31648  22626629.57946  22626630.85846
 14 11 14 07 27 46.0000000  0  1 04
  -2263775.83646  -1763979.92046  22619656.29448  22619655.94646  22619657.50546
 14 11 14 07 27 47.0000000  0  1 04
  -2300395.46346  -1792514.69546  22612687.76148  22612688.94546  22612689.36246
 14 11 14 07 27 48.0000000  0  1 04
  -2337003.66646  -1821040.56946  22605721.32748  22605720.65346  22605723.65646
 14 11 14 07 27 49.0000000  0  1 04
  -2373603.10046  -1849559.60646  22598756.40848  22598755.73146  22598758.30146
 14 11 14 07 27 50.0000000  0  8 04 07 09 11 16 19 23 27
  -2410181.95446  -1878062.61046  22591796.04948  22591794.54946  22591797.09646
   1901135.32656   1481406.54756  23984062.87658  23984062.70356  23984062.97656
  -4011517.71758  -3125858.65858  21546251.16958  21546251.42558  21546254.18558
  -6775604.20057  -5279688.32657  22248071.52658  22248071.96557  22248072.05557
  -4110214.68456  -3202767.50456  22330586.39158  22330585.97056  22330586.76756
  -2645790.53459  -2061653.57259  18727310.90959  18727310.36159  18727309.67659
 -18419672.55159 -14352991.45958  19805584.53559  19805584.61759  19805583.08558
  -3602453.26758  -2807105.28558  19831687.46659  19831687.91758  19831690.55458
 14 11 14 07 27 51.0000000  0  1 04
  -2446736.18346  -1906546.47746  22584838.82348  22584838.55446  22584841.69946
 14 11 14 07 27 52.0000000  0  1 04
  -2483278.19446  -1935020.76046  22577885.64248  22577886.34746  22577889.65646
 14 11 14 07 27 53.0000000  0  1 04
  -2519810.72246  -1963487.62646  22570933.49448  22570934.79646  22570935.93846
 14 11 14 07 27 54.0000000  0  1 04
  -2556319.71946  -1991936.20646  22563986.56448  22563988.97146  22563987.20746
 14 11 14 07 27 55.0000000  0  1 04
  -2592803.98746  -2020365.46946  22557044.46348  22557045.21946  22557046.35246
 14 11 14 07 27 56.0000000  0  1 04
  -2629277.06746  -2048786.06646  22550103.27848  22550103.13346  22550105.69246
 14 11 14 07 27 57.0000000  0  1 04
  -2665740.89746  -2077199.45646  22543164.91448  22543163.64046  22543166.06546
 14 11 14 07 27 58.0000000  0  1 04
  -2702181.40246  -2105594.65346  22536230.17548  22536231.10346  22536231.59446
 14 11 14 07 27 59.0000000  0  1 04
  -2738595.97646  -2133969.63246  22529300.67948  22529300.66946  22529303.25646
 14 11 14 07 28 00.0000000  0  8 04 07 09 11 16 19 23 27
  -2774998.84646  -2162335.52946  22522374.44148  22522373.80746  22522376.36846
   2211045.38256   1722894.86656  24043037.00958  24043037.49856  24043037.39056
  -3801098.86958  -2961895.94858  21586292.39658  21586292.82558  21586295.60158
  -7093456.52757  -5527365.44457  22187586.29658  22187586.33157  22187586.90657
  -3891460.24756  -3032309.52456  22372213.80058  22372214.31656  22372213.69156
  -2629093.36659  -2048642.79659  18730488.29759  18730487.81159  18730487.10959
 -18384064.57559 -14325244.99558  19812360.45759  19812360.64659  19812359.05058
  -3425780.57558  -2669438.27658  19865307.24759  19865307.67658  19865310.31858
 14 11 14 07 28 01.0000000  0  1 04
  -2811392.09546  -2190693.86246  22515448.60048  22515449.84746  22515449.38446
 14 11 14 07 28 02.0000000  0  1 04
  -2847761.67146  -2219033.84146  22508528.17348  22508528.80046  22508528.91346
 14 11 14 07 28 03.0000000  0  1 04
  -2884106.89046  -2247354.76246  22501610.82748  22501612.24646  22501613.11846
 14 11 14 07 28 04.0000000  0  1 04
  -2920440.26046  -2275666.41646  22494697.70148  22494698.25846  22494700.61846
 14 11 14 07 28 05.0000000  0  1 04
  -2956764.77846  -2303971.27246  22487784.94448  22487787.05446  22487787.31646
 14 11 14 07 28 06.0000000  0  1 04
  -2993065.27246  -2332257.39646  22480878.08248  22480879.02746  22480877.06746
 14 11 14 07 28 07.0000000  0  1 04
  -3029339.73546  -2360523.20246  22473975.15748  22473975.38746  22473975.70846
 14 11 14 07 28 08.0000000  0  1 04
  -3065602.82846  -2388780.15246  22467074.00348  22467073.11346  22467075.15446
 14 11 14 07 28 09.0000000  0  1 04
  -3101855.51046  -2417028.97546  22460175.55948  22460174.68646  22460177.25646
 14 11 14 07 28 10.0000000  0  8 04 07 09 11 16 19 23 27
  -3138084.51646  -2445259.37446  22453281.01948  22453280.51646  22453282.56346
   2521603.98356   1964888.56256  24102134.02258  24102134.30756  24102134.40456
  -3588969.09558  -2796600.03558  21626659.47058  21626659.87458  21626662.59858
  -7408909.97057  -5773173.29757  22127557.44558  22127557.31057  22127558.12057
  -3670962.38356  -2860493.02156  22414173.51258  22414173.40056  22414174.13956
  -2606558.07159  -2031082.83159  18734776.57059  18734776.11159  18734775.39859
 -18345660.62359 -14295319.83758  19819668.48059  19819668.61459  19819667.06258
  -3244572.62358  -2528237.28958  19899789.98959  19899790.40558  19899793.03258
 14 11 14 07 28 11.0000000  0  1 04
  -3174285.55446  -2473467.97546  22446392.07948  22446391.59046  22446394.39746
 14 11 14 07 28 20.0000000  0  8 04 07 09 11 16 19 23 27
  -3499329.33846  -2726748.82746  22384538.61048  22384538.86346  22384540.13946
   2832803.59556   2207381.70856  24161353.54258  24161354.73256  24161354.22456
  -3375134.01258  -2629975.32158  21667350.71258  21667351.37658  21667354.07858
  -7721891.71457  -6017055.15757  22067999.00358  22067999.28757  22067999.68857
  -3448738.78156  -2687331.81456  22456461.34858  22456461.49656  22456461.20356
  -2578173.23059  -2008964.78359  18740178.12359  18740177.55259  18740176.82959
 -18304448.38359 -14263206.42058  19827510.90259  19827511.07059  19827509.56458
  -3058858.10858  -2383524.70058  19935130.31459  19935130.70858  19935133.32258
 14 11 14 07 28 30.0000000  0  8 04 07 09 11 16 19 23 27
  -3858681.65046  -3006763.59746  22316156.07348  22316156.14046  22316158.41646
   3144638.71046   2450370.08846  24220693.96648  24220694.42346  24220694.41146
  -3159597.17248  -2462024.54948  21708366.10948  21708366.68248  21708369.34248
  -8032326.66047  -6258952.49147  22008925.27948  22008925.49847  22008925.61347
  -3224805.25546  -2512838.17746  22499074.31748  22499074.33046  22499074.18046
  -2543927.18849  -1982279.56049  18746694.91749  18746694.36749  18746693.61649
 -18260413.93949 -14228893.86448  19835890.39749  19835890.51149  19835889.01748
  -2868664.48448  -2235321.89648  19971322.93349  19971323.37848  19971325.98748
 14 11 14 07 28 40.0000000  0  8 04 07 09 11 16 19 23 27
  -4216106.71246  -3285276.60646  22248140.15748  22248141.04246  22248142.48146
   3457057.97646   2693813.64846  24280144.93248  24280145.98346  24280146.01646
  -2942408.21548  -2292786.42148  21749695.83048  21749696.22948  21749699.14948
  -8340185.73247  -6498842.66247  21950341.56948  21950341.47047  21950342.06147
  -2999223.30746  -2337060.06646  22542000.88048  22542001.32146  22542001.25146
  -2503855.94949  -1951055.22349  18754320.15849  18754319.66949  18754318.95849
 -18213589.64449 -14192407.40748  19844800.81749  19844800.91049  19844799.36048
  -2674065.93448  -2083686.68648  20008353.89849  20008354.27548  20008356.84248
 14 11 14 07 28 50.0000000  0  8 04 07 09 11 16 19 23 27
  -4571551.75246  -3562246.73846  22180501.20448  22180501.40746  22180503.33546
   3770033.93446   2937690.97546  24339702.61048  24339702.59346  24339702.75946
  -2723593.01048  -2122281.08848  21791335.15248  21791335.69348  21791338.25648
  -8645416.08347  -6736684.47947  21892258.10948  21892257.93647  21892258.45947
  -2772030.80946  -2160026.97946  22585234.27748  22585234.60946  22585234.44946
  -2457973.43949  -1915302.62349  18763051.33649  18763050.86949  18763050.11349
 -18163984.61749 -14153754.14448  19854240.26849  19854240.49949  19854238.84748
  -2475113.60648  -1928658.91848  20046213.13049  20046213.57748  20046216.26548
 14 11 14 07 29 00.0000000  0  8 04 07 09 11 16 19 23 27
  -4925052.69246  -3837702.00146  22113232.33148  22113232.89946  22113233.99346
   4083450.18046   3181911.38746  24399343.67648  24399344.61346  24399344.65646
  -2503266.42248  -1950598.05448  21833261.83648  21833262.30448  21833265.01948
  -8948053.67347  -6972505.96647  21834668.03548  21834668.22747  21834668.23947
  -2543354.62146  -1981837.75446  22628750.18448  22628750.15246  22628749.60746
  -2406384.08949  -1875103.13649  18772868.40949  18772867.99949  18772867.22649
 -18111697.27749 -14113010.76548  19864190.23349  19864190.37349  19864188.86948
  -2271948.32248  -1770348.32448  20084874.30449  20084874.74148  20084877.37648
 14 11 14 07 29 10.0000000  0  8 04 07 09 11 16 19 23 27
  -5276484.89346  -4111545.26846  22046356.93148  22046356.99746  22046359.15746
   4397350.73946   3426509.18946  24459076.89248  24459078.11046  24459077.62446
  -2281383.09648  -1777701.97248  21875484.87348  21875485.33148  21875488.05748
  -9247974.19747  -7206210.25547  21777595.01148  21777595.01747  21777595.55347
  -2313161.27146  -1802466.32746  22672554.24748  22672555.24746  22672554.58746
  -2349033.83949  -1830414.63849  18783781.82349  18783781.33949  18783780.64849
 -18056666.16049 -14070129.38448  19874662.27449  19874662.51949  19874660.98248
  -2064551.33048  -1608740.29648  20124340.67549  20124341.15148  20124343.68548
 14 11 14 07 29 20.0000000  0  8 04 07 09 11 16 19 23 27
  -5625749.07046  -4383699.15046  21979894.45848  21979894.73546  21979896.33146
   4711754.36946   3671498.99146  24518906.09848  24518907.22146  24518906.66446
  -2057923.08848  -1603577.30248  21918007.76848  21918008.21148  21918011.08248
  -9545078.72947  -7437720.27347  21721057.80248  21721057.97047  21721058.15247
  -2081442.50746  -1621906.26946  22716649.12248  22716648.43846  22716649.85846
  -2285895.60749  -1781216.02049  18795796.66449  18795796.17649  18795795.38049
 -17998855.51949 -14025082.13248  19885663.25549  19885663.44749  19885661.94348
  -1852929.91348  -1443840.50548  20164610.82149  20164611.32248  20164613.89848
 14 11 14 07 29 30.0000000  0  8 04 07 09 11 16 19 23 27
  -5972831.18847  -4654152.74046  21913846.91748  21913847.44547  21913848.40146
   5026594.34446   3916828.78846  24578818.31448  24578818.58346  24578819.19046
  -1832952.17748  -1428275.31948  21960818.38548  21960818.76748  21960821.63548
  -9839354.16947  -7667025.80547  21665059.05648  21665059.24547  21665059.50147
  -1848275.94246  -1440218.06646  22761018.82048  22761018.31846  22761019.12846
  -2217029.72049  -1727554.30149  18808901.44149  18808900.97049  18808900.24149
 -17938315.84549 -13977908.37348  19897183.65649  19897183.78049  19897182.30648
  -1637177.63048  -1275721.86948  20205667.27748  20205667.57548  20205670.19848
 14 11 14 07 29 40.0000000  0  8 04 07 09 11 16 19 23 27
  -6317664.66447  -4922854.13646  21848227.11748  21848227.21147  21848228.75746
   5341856.53746   4162487.61946  24638810.62448  24638811.86946  24638811.08246
  -1606483.49148  -1251806.22748  22003914.05848  22003914.39648  22003917.11148
 -10130734.59848  -7894075.47447  21609611.53748  21609611.49248  21609611.70947
  -1613686.26846  -1257420.92646  22805659.60048  22805660.56846  22805660.37746
  -2142445.38649  -1669436.64349  18823094.35449  18823093.86249  18823093.14849
 -17875045.30349 -13928606.65548  19909223.68149  19909223.82649  19909222.21348
  -1417335.98048  -1104416.70248  20247501.75048  20247502.06348  20247504.71348
 14 11 14 07 29 50.0000000  0  8 04 07 09 11 16 19 23 27
  -6660181.26147  -5189750.17146  21783048.37248  21783048.86647  21783050.13946
   5657528.02746   4408465.36346  24698881.08448  24698882.03646  24698881.79446
  -1378529.10748  -1074179.45848  22047292.08648  22047292.75748  22047295.51448
 -10419153.20948  -8118817.23747  21554727.06948  21554727.05348  21554727.59947
  -1377697.17646  -1073533.33946  22850567.47148  22850567.24046  22850567.29246
  -2062152.50949  -1606870.77149  18838373.59849  18838373.12949  18838372.39149
 -17809041.31949 -13877174.98648  19921783.80949  19921784.00049  19921782.41248
  -1193445.97448   -929956.97248  20290106.49748  20290106.92348  20290109.50348
 14 11 14 07 30 00.0000000  0  8 04 07 09 11 16 19 23 27
  -7000336.18347  -5454805.92446  21718319.05748  21718319.69147  21718320.90346
   5973572.57546   4654733.81646  24759022.11848  24759022.93646  24759023.45246
  -1149124.49147   -895422.63548  22090946.52948  22090947.11147  22090949.71248
 -10704566.61048  -8341217.27147  21500414.82148  21500414.90948  21500415.17447
  -1140355.64746   -888591.92946  22895731.65748  22895731.83146  22895732.21146
  -1976185.72149  -1539883.67249  18854732.51649  18854732.09749  18854731.33749
 -17740325.08349 -13823629.87348  19934860.13349  19934860.27349  19934858.69948
   -965572.55248   -752393.28448  20333469.39748  20333469.72048  20333472.34148
 14 11 14 07 30 10.0000000  0  8 04 07 09 11 16 19 23 27
  -7338070.24047  -5717975.31447  21654050.39748  21654050.77447  21654052.09547
   6289968.28446   4901275.89546  24819230.10048  24819231.51646  24819230.81346
   -918290.95347   -715552.36448  22134872.62248  22134873.26147  22134876.05548
 -10986917.42848  -8561230.88848  21446685.16648  21446685.21848  21446685.58348
   -901694.56946   -702622.25546  22941147.32848  22941147.60946  22941147.46646
  -1884567.06949  -1468492.52649  18872167.06149  18872166.56549  18872165.79849
 -17668904.00949 -13767977.09748  19948451.11249  19948451.24749  19948449.63948
   -733766.97448   -571765.57948  20377580.55348  20377581.04648  20377583.53348
 14 11 14 07 30 20.0000000  0  8 04 07 09 11 16 19 23 27
  -7673314.22147  -5979204.38047  21590255.62048  21590255.83047  21590257.20947
   6606703.52046   5148082.56346  24879503.16448  24879503.36446  24879503.35546
   -686039.68947   -534577.36948  22179068.83748  22179069.22547  22179071.79848
 -11266138.13948  -8778805.45148  21393551.26948  21393551.43148  21393551.53848
   -661736.31946   -515641.82946  22986810.30448  22986810.87046  22986810.71946
  -1787310.11449  -1392707.89149  18890674.36449  18890673.93149  18890673.22149
 -17594775.74549 -13710214.81848  19962557.26349  19962557.34949  19962555.74948
   -498070.82648   -388106.25948  20422432.12948  20422432.45448  20422435.04548
 14 11 14 07 30 30.0000000  0  8 04 07 09 11 16 19 23 27
  -8006005.78047  -6238444.53847  21526946.40548  21526946.98347  21526948.34447
   6923759.40146   5395139.07146  24939836.62248  24939838.14446  24939837.80846
   -452389.19547   -352512.06448  22223530.76248  22223531.28447  22223534.13348
 -11542168.71548  -8993894.19948  21341024.27348  21341024.45148  21341024.83648
   -420510.66946   -327673.81746  23032713.69648  23032713.03346  23032714.72246
  -1684437.22849  -1312547.20649  18910250.44549  18910249.95249  18910249.21749
 -17517945.70749 -13650347.26748  19977177.50949  19977177.65149  19977176.04648
   -258533.49748   -201453.80848  20468014.56648  20468014.97748  20468017.54448
 14 11 14 07 30 40.0000000  0  8 04 07 09 11 16 19 23 27
  -8336120.70247  -6495676.92847  21464127.62948  21464128.14147  21464129.61247
   7241078.89946   5642400.97846  25000221.22248  25000221.06446  25000220.86046
   -217396.21547   -169400.67048  22268248.47648  22268249.08247  22268251.73548
 -11814987.41948  -9206480.18248  21289108.68148  21289108.69248  21289109.03948
   -178085.58246   -138771.19146  23078845.77448  23078845.12246  23078846.40846
  -1576010.51249  -1228058.86349  18930883.37949  18930882.88349  18930882.19449
 -17438457.63949 -13588408.51648  19992303.59949  19992303.74049  19992302.13748
    -15242.99148    -11876.80248  20514311.16148  20514311.58548  20514314.14748
 14 11 14 07 30 50.0000000  0  8 04 07 09 11 16 19 23 27
  -8663580.92147  -6750840.71747  21401814.01248  21401814.66047  21401815.74547
   7558658.97846   5889865.95846  25060654.24148  25060653.89446  25060654.21346
     18936.40947     14754.60948  22313221.22748  22313221.65447  22313224.44748
 -12084518.89248  -9416504.69348  21237818.41648  21237818.65248  21237818.87348
     65524.98846     51055.25246  23125203.32748  23125202.76146  23125203.80246
  -1462039.65949  -1139250.41449  18952571.37649  18952570.82349  18952570.16149
 -17356302.04549 -13524391.17448  20007937.28049  20007937.46849  20007935.83148
    231766.13348    180597.82348  20561315.48148  20561315.80048  20561318.56648
 14 11 14 07 31 00.0000000  0  8 04 07 09 11 16 19 23 27
  -8988315.16647  -7003880.37947  21340019.21748  21340019.71847  21340020.65647
   7876489.82646   6137526.31646  25121135.51248  25121137.87846  25121135.27346
    256598.90147    199946.15248  22358446.80648  22358447.54247  22358450.02148
 -12350694.93148  -9623914.57748  21187166.81048  21187167.08048  21187167.20448
    310300.26846    241789.23146  23171782.51448  23171781.72146  23171782.72546
  -1342542.76149  -1046135.95649  18975310.80149  18975310.33449  18975309.70949
 -17271476.63749 -13458293.46148  20024079.02749  20024079.19849  20024077.58548
    482452.04248    375937.48148  20609019.33248  20609019.88748  20609022.45648
 14 11 14 07 31 10.0000000  0  8 04 07 09 11 16 19 23 27
  -9310259.73148  -7254746.26547  21278755.21248  21278755.73248  21278756.79047
   8194553.91946   6385368.42246  25181660.91148  25181661.17146  25181661.41646
    495573.90247    386160.42048  22403922.27748  22403922.76847  22403925.64148
 -12613455.14848  -9828662.78748  21137165.32648  21137165.42048  21137165.36048
    556211.90246    433408.62546  23218578.23448  23218578.22846  23218578.72546
  -1217546.93049   -948736.61449  18999096.70249  18999096.25549  18999095.59749
 -17183987.10549 -13390119.80948  20040727.71249  20040727.94249  20040726.20548
    736764.91548    574103.34548  20657413.71148  20657414.07948  20657416.60948
 14 11 14 07 31 20.0000000  0  8 04 07 09 11 16 19 23 27
  -9629383.78648  -7503414.33947  21218027.86148  21218028.24348  21218029.42347
   8512801.26146   6633353.35246  25242221.88548  25242222.45846  25242222.09546
    735811.10247    573358.22248  22449637.91948  22449638.46947  22449641.16948
 -12872772.20748 -10030728.00948  21087818.88248  21087818.99548  21087819.24748
    803198.88046    625865.98946  23265578.13148  23265578.77346  23265578.50346
  -1087113.46049   -847100.15249  19023917.42949  19023916.86949  19023916.34049
 -17093872.29349 -13319900.47848  20057876.04949  20057876.20149  20057874.59348
    994621.75748    775030.75448  20706482.13248  20706482.43548  20706485.22848
 14 11 14 07 31 30.0000000  0  8 04 07 09 11 16 19 23 27
  -9945621.68948  -7749833.46747  21157849.76148  21157850.34748  21157851.58847
   8831216.34746   6881468.95646  25302813.98948  25302813.19146  25302813.36346
    977294.82347    761527.33548  22495590.74948  22495591.26047  22495593.92048
 -13128584.64948 -10230062.36648  21039139.43049  21039139.41348  21039139.60748
   1051234.84646    819140.80246  23312777.77448  23312777.38246  23312778.31646
   -951270.53149   -741248.52649  19049767.42249  19049766.94249  19049766.43249
 -17001136.95849 -13247639.18548  20075522.94649  20075523.11449  20075521.53948
   1255973.79448    978681.71048  20756215.63748  20756216.11248  20756218.73848
 14 11 14 07 31 40.0000000  0  8 04 07 09 11 16 19 23 27
 -10258891.31948  -7993939.64647  21098236.61448  21098237.06648  21098237.98347
   9149800.68346   7129716.47746  25363438.43148  25363438.59546  25363439.40046
   1220026.28047    950668.72148  22541781.11548  22541781.78547  22541784.30648
 -13380814.19548 -10426604.85448  20991141.78549  20991141.92048  20991141.92448
   1300310.40646   1013225.57646  23360175.12548  23360175.57346  23360175.66646
   -810030.80349   -631191.59749  19076644.50449  19076644.01149  19076643.37449
 -16905769.22049 -13173326.66348  20093670.82949  20093671.02049  20093669.44648
   1520788.78148   1185031.03648  20806608.17948  20806608.52748  20806611.46148
 14 11 14 07 31 50.0000000  0  8 04 07 09 11 16 19 23 27
 -10569164.94848  -8235711.27947  21039193.49748  21039193.91048  21039194.94247
   9468500.83146   7378054.36846  25424085.11748  25424085.24746  25424086.60846
   1463951.80547   1140740.54548  22588198.58848  22588199.14947  22588201.77748
 -13629438.02248 -10620337.69748  20943830.05549  20943830.36048  20943830.43048
   1550361.26846   1208070.36346  23407758.65048  23407758.45446  23407759.21246
   -663463.16749   -516983.05449  19104535.29849  19104534.87949  19104534.29949
 -16807812.49349 -13096996.75348  20112311.43549  20112311.59649  20112310.00348
   1788979.47948   1394010.78648  20857643.03548  20857643.77248  20857646.55648
 14 11 14 07 32 00.0000000  0  8 04 07 09 11 16 19 23 27
 -10876348.74348  -8475075.25048  20980738.26748  20980738.57748  20980739.82348
   9787330.32946   7626493.76646  25484756.28548  25484756.05946  25484756.32546
   1709084.26547   1331752.84048  22634845.82548  22634846.09847  22634849.06448
 -13874366.89048 -10811191.34848  20897221.72649  20897221.90148  20897221.98048
   1801389.78346   1403676.98246  23455527.92848  23455526.24546  23455528.51246
   -511571.16749   -398625.65449  19133439.42749  19133438.95949  19133438.38449
 -16707243.96949 -13018631.66948  20131449.04649  20131449.14249  20131447.54048
   2060524.88848   1605604.59948  20909316.68048  20909317.05648  20909319.80748
 14 11 14 07 32 10.0000000  0  8 04 07 09 11 16 19 23 27
 -11180414.64248  -8712009.70048  20922876.45448  20922876.83348  20922878.06848
  10106236.75146   7874992.30446  25545442.12948  25545442.32646  25545443.20546
   1955370.78447   1523664.39448  22681712.52048  22681712.92447  22681715.69748
 -14115577.80948 -10999147.89848  20851320.82049  20851320.92048  20851321.10748
   2053332.79746   1599996.17946  23503470.60848  23503470.03946  23503471.66046
   -354425.41849   -276174.42249  19163343.22349  19163342.78949  19163342.21449
 -16604107.01649 -12938265.22348  20151075.35549  20151075.47049  20151073.81948
   2335338.03448   1819744.69048  20961611.84548  20961612.17248  20961615.00348
 14 11 14 07 32 20.0000000  0  8 04 07 09 11 16 19 23 27
 -11481290.38748  -8946458.29548  20865621.66148  20865622.00948  20865623.37148
  10425211.90746   8123543.16046  25606141.23748  25606141.82246  25606140.93046
   2202802.49947   1716468.30848  22728797.00548  22728797.85747  22728800.42048
 -14353004.26448 -11184155.50748  20806139.99949  20806140.22848  20806140.36248
   2306171.34746   1797013.21246  23551584.22148  23551585.99446  23551584.67746
   -192053.78949   -149651.07349  19194241.57049  19194241.09549  19194240.48749
 -16498401.25449 -12855897.09548  20171190.48749  20171190.61049  20171188.98848
   2613375.71948   2036397.41348  21014520.84048  21014521.05948  21014523.92148
 14 11 14 07 32 30.0000000  0  8 04 07 09 11 16 19 23 27
 -11778924.55248  -9178380.98948  20808983.63448  20808984.18548  20808985.53948
  10744227.11846   8372126.50345  25666847.85048  25666847.85446  25666848.90445
   2451350.03247   1910141.69448  22776094.24348  22776094.73247  22776097.59948
 -14586600.61748 -11366178.63448  20761688.07649  20761688.22448  20761688.44648
   2559865.95546   1994697.36746  23599860.41848  23599862.08346  23599860.94446
    -24505.83849    -19094.22849  19226124.87649  19226124.43949  19226123.82649
 -16390147.20049 -12771543.29748  20191790.49349  20191790.69649  20191789.03148
   2894574.11748   2255513.02548  21068030.86648  21068031.50548  21068034.16148
 14 11 14 07 32 40.0000000  0  8 04 07 09 11 16 19 23 27
 -12073269.42648  -9407740.60148  20752971.76948  20752972.33548  20752973.27048
  11063250.18846   8620715.92045  25727555.86947  25727556.32746  25727557.19045
   2700980.56147   2104658.97748  22823597.29748  22823597.85447  22823600.57248
 -14816325.09048 -11545184.70248  20717972.95249  20717973.17148  20717973.26748
   2814373.60846   2193013.89346  23648292.01348  23648292.02446  23648291.90246
    148164.15349    115453.81249  19258982.87249  19258982.38949  19258981.76349
 -16279369.17749 -12685222.76148  20212870.86349  20212870.99149  20212869.34748
   3178865.72448   2477038.94648  21122129.85048  21122130.31348  21122133.20848
 14 11 14 07 32 50.0000000  0  8 04 07 09 11 16 19 23 27
 -12364263.52048  -9634489.23148  20697597.37248  20697597.89648  20697598.96348
  11382263.01846   8869296.10645  25788261.62547  25788262.91546  25788264.23745
   2951674.95647   2300005.24548  22871303.04048  22871303.59547  22871306.19148
 -15042122.78848 -11721130.95248  20675005.08149  20675005.22448  20675005.27548
   3069665.42946   2391942.57645  23696872.37448  23696873.79946  23696872.93945
    325914.57849    253960.62949  19292807.62249  19292807.19749  19292806.60649
 -16166078.10349 -12596944.00648  20234429.44849  20234429.63049  20234427.89648
   3466196.58448   2700933.10548  21176807.16648  21176807.46248  21176810.35348
 14 11 14 07 33 00.0000000  0  8 04 07 09 11 16 19 23 27
 -12651809.93448  -9858551.36648  20642879.04348  20642879.61148  20642880.68548
  11701282.90546   9117882.24545  25848969.26247  25848972.00646  25848970.30145
   3203449.82647   2496193.43348  22919214.28548  22919214.47747  22919217.31148
 -15263903.61548 -11893947.17248  20632801.50349  20632801.75048  20632801.83248
   3325748.17946   2591487.59846  23745603.40848  23745605.02746  23745604.08146
    508738.52549    396420.83649  19327597.94049  19327597.43049  19327596.82149
 -16050249.60349 -12506688.04048  20256470.86949  20256471.00549  20256469.39948
   3756548.39148   2927181.27448  21232059.20848  21232059.71448  21232062.48348
 14 11 14 07 33 10.0000000  0  8 04 07 09 11 16 19 23 27
 -12935858.90048 -10079888.21248  20588826.39748  20588826.72548  20588828.06448
  12020280.42846   9366453.65145  25909673.26147  25909672.67446  25909673.83645
   3456274.69947   2693199.81548  22967325.03348  22967325.58347  22967328.37048
 -15481625.05848 -12063600.23048  20591370.51449  20591370.70948  20591370.82148
   3582581.74646   2791616.66845  23794477.28048  23794478.19046  23794476.87445
    696580.75849    542791.39949  19363343.03749  19363342.61549  19363342.07849
 -15931906.63248 -12414472.73948  20278990.79349  20278990.87248  20278989.30448
   4049855.57448   3155732.30348  21287873.89948  21287874.19248  21287877.00648
 14 11 14 07 33 20.0000000  0  8 04 07 09 11 16 19 23 27
 -13216415.79848 -10298503.96248  20535438.08648  20535438.69248  20535439.72148
  12339171.45746   9614940.41245  25970355.77647  25970357.15646  25970355.54245
   3710064.42447   2890958.02148  23015619.85148  23015619.95547  23015622.87048
 -15695299.90448 -12230100.10448  20550709.65949  20550709.80848  20550709.88548
   3840071.32946   2992256.32745  23843476.57348  23843476.74246  23843478.62945
    889330.32549    692985.85648  19400022.11449  19400021.59549  19400021.02748
 -15811127.16848 -12320358.87848  20301974.30949  20301974.45848  20301972.89048
   4345997.84848   3386492.49148  21344227.88648  21344228.38148  21344231.10448
 14 11 14 07 33 30.0000000  0  8 04 07 09 11 16 19 23 27
 -13493362.23548 -10514306.35548  20482737.07849  20482737.55648  20482738.63248
  12657996.07446   9863375.05245  26031026.02047  26031029.08946  26031026.68045
   3964857.81847   3089498.30648  23064105.32948  23064105.27447  23064108.56648
 -15904817.61648 -12393360.64948  20510839.71849  20510839.91348  20510839.79648
   4098246.49946   3193430.47445  23892604.55148  23892605.54746  23892605.37545
   1086999.40449    847013.71048  19437637.23049  19437636.79749  19437636.24248
 -15687865.54348 -12224310.86348  20325430.19949  20325430.35648  20325428.74248
   4644978.83747   3619464.66248  21401122.22048  21401122.38147  21401125.26748
 14 11 14 07 33 40.0000000  0  8 04 07 09 11 16 19 23 27
 -13766664.52848 -10727269.17248  20430729.33749  20430729.84748  20430730.80748
  12976709.44846  10111722.92045  26091675.62847  26091676.42846  26091676.02145
   4220609.10447   3288784.99248  23112773.37948  23112773.78447  23112776.53248
 -16110152.87648 -12553362.14748  20471765.74549  20471765.86048  20471765.76848
   4357051.89446   3395094.46145  23941854.69048  23941853.62846  23941855.16145
   1289514.36049   1004817.56948  19476174.61849  19476174.09649  19476173.66448
 -15562161.08948 -12126359.35248  20349350.97449  20349351.09648  20349349.56748
   4946717.46047   3854585.65248  21458540.89748  21458541.43547  21458544.21248
 14 11 14 07 33 50.0000000  0  8 04 07 09 11 16 19 23 27
 -14036264.24148 -10937346.85848  20379426.24249  20379426.66248  20379427.90748
  13295292.43146  10359969.39845  26152298.75147  26152297.63046  26152300.82845
   4477297.75347   3488802.09448  23161619.50748  23161619.86547  23161622.72448
 -16311255.86548 -12710065.76948  20433497.06349  20433497.17648  20433497.13948
   4616457.47746   3597230.05045  23991217.94848  23991219.04946  23991217.31145
   1496825.94249   1166359.05448  19515624.72649  19515624.17049  19515623.61048
 -15434028.14448 -12026515.51148  20373733.87349  20373734.03348  20373732.42348
   5251157.86247   4091811.93848  21516474.07448  21516474.40747  21516477.26148
 14 11 14 07 34 00.0000000  0  8 04 07 09 11 16 19 23 27
 -14302100.11048 -11144491.69648  20328839.25949  20328839.84748  20328840.91048
  13613728.65946  10608098.20545  26212895.63347  26212898.68946  26212894.90445
   4734906.44346   3689536.12248  23210640.82348  23210641.18446  23210643.97248
 -16508074.14248 -12863430.66048  20396043.73549  20396043.89148  20396043.89748
   4876437.01446   3799812.56345  24040689.12548  24040690.25946  24040691.75145
   1708887.21549   1331601.59048  19555978.63249  19555978.05449  19555977.54248
 -15303478.17148 -11924788.27748  20398576.66749  20398576.86648  20398575.36248
   5558247.32647   4331102.42548  21574911.19548  21574911.65547  21574914.66648
 14 11 14 07 34 10.0000000  0  8 04 07 09 11 16 19 23 27
 -14564109.73748 -11348655.03548  20278980.41149  20278981.09148  20278982.16948
  13932003.78446  10856105.45745  26273461.88347  26273463.48346  26273463.42045
   4993419.33546   3890974.71347  23259834.12348  23259834.31346  23259837.14147
 -16700554.55448 -13013415.38648  20359415.95949  20359416.11048  20359416.03048
   5136965.64346   4002818.92444  24090266.83848  24090267.22746  24090267.64144
   1925651.79949   1500509.04248  19597227.56949  19597227.09249  19597226.46648
 -15170521.51448 -11821185.69248  20423877.49249  20423877.70048  20423876.00748
   5867934.66347   4572417.24248  21633842.67648  21633843.03047  21633846.29248
 14 11 14 07 34 20.0000000  0  7 04 07 09 11 19 23 27
 -14822243.00148 -11549797.83148  20229859.38149  20229859.93348  20229860.89848
  14250091.44246  11103994.97145  26333993.07847  26333993.65946  26333994.98545
   5252808.50146   4093096.13147  23309194.26948  23309194.77546  23309197.41347
 -16888656.78048 -13159988.54248  20323621.31349  20323621.47548  20323621.47348
   2147060.41649   1673035.21748  19639360.18849  19639359.75049  19639359.15148
 -15035180.79448 -11715725.40148  20449632.01349  20449632.14248  20449630.58448
   6180156.56347   4815707.02848  21693256.54948  21693257.06047  21693260.08348
 14 11 14 07 34 30.0000000  0  7 04 09 11 19 20 23 27
 -15076357.90948 -11747809.43548  20181502.93949  20181503.43648  20181504.50048
   5513138.49346   4295950.65747  23358733.57648  23358734.10246  23358736.73647
 -17072248.95648 -13303047.37048  20288684.84749  20288685.03148  20288685.01048
   2373145.42249   1849205.34448  19682382.77949  19682382.28749  19682381.70748
         0.37056         0.95956  23798478.06258  23798476.48856  23798475.90456
 -14897386.61048 -11608353.31748  20475853.40449  20475853.50648  20475851.91748
   6494942.15847   5060994.48948  21753158.29748  21753158.81347  21753161.60948
 14 11 14 07 34 31.0000000  0  1 20
         0.20046         0.76446  23795306.71348  23795304.58646  23795318.56246
 14 11 14 07 34 32.0000000  0  1 20
         0.65446         0.98843  23792133.42648  23792133.52746  23792158.68443
 14 11 14 07 34 33.0000000  0  1 20
    -16671.25246    -12991.25644  23788961.12248  23788959.81846  23789002.26344
 14 11 14 07 34 34.0000000  0  1 20
    -33330.15746    -25968.36246  23785789.95948  23785790.02946  23785785.93546
 14 11 14 07 34 35.0000000  0  1 20
    -49973.63046    -38937.53546  23782623.23248  23782623.08046  23782623.48946
 14 11 14 07 34 36.0000000  0  1 20
    -66612.21146    -51902.66046  23779457.51648  23779456.69346  23779459.00746
 14 11 14 07 34 37.0000000  0  1 20
    -83249.87446    -64867.07646  23776291.57948  23776291.01446  23776291.42446
 14 11 14 07 34 38.0000000  0  1 20
    -99874.30746    -77821.14146  23773127.12248  23773126.39346  23773128.47046
 14 11 14 07 34 39.0000000  0  1 20
   -116482.95246    -90763.01746  23769967.05748  23769968.07146  23769967.11346
 14 11 14 07 34 40.0000000  0  8 04 09 11 19 20 23 27 31
 -15326552.68458 -11942766.41758  20133892.44659  20133893.00958  20133893.96758
   5774234.24856   4499401.88557  23408418.22158  23408418.81956  23408421.70057
 -17251439.54258 -13442676.39758  20254585.96259  20254586.23358  20254586.20658
   2603698.77059   2028857.29058  19726255.63559  19726255.20759  19726254.61658
   -133087.55846   -103701.62346  23766808.43648  23766807.78946  23766808.64846
 -14757309.45458 -11499202.29658  20502509.18959  20502509.33858  20502507.77658
   6812081.08257   5308115.69958  21813507.81158  21813508.26357  21813511.11158
         0.03556         0.36656  22142290.73858  22142289.89456  22142291.12756
 14 11 14 07 34 41.0000000  0  2 20 31
   -149688.39546   -116637.33546  23763648.52348  23763650.08646  23763647.79546
         0.33046         0.53445  22138288.09648  22138287.73646  22138303.80145
 14 11 14 07 34 42.0000000  0  2 20 31
   -166274.64946   -129561.69246  23760491.56748  23760492.85046  23760492.45346
         0.73446         0.38743  22134289.36548  22134290.11846  22134317.46843
 14 11 14 07 34 43.0000000  0  2 20 31
   -182844.90546   -142473.55646  23757339.13348  23757339.80246  23757339.76546
    -20992.30346    -16358.95643  22130295.21948  22130296.02146  22130338.82943
 14 11 14 07 34 44.0000000  0  2 20 31
   -199410.67746   -155381.95946  23754185.72848  23754185.86846  23754187.58646
    -41975.34846    -32705.69446  22126301.12348  22126302.48046  22126298.07546
 14 11 14 07 34 45.0000000  0  2 20 31
   -215977.73946   -168291.34046  23751033.15348  23751032.98746  23751035.37146
    -62954.12546    -49053.03246  22122309.10648  22122309.98746  22122308.95546
 14 11 14 07 34 46.0000000  0  2 20 31
   -232531.63546   -181190.54746  23747884.25648  23747883.70346  23747885.00946
    -83914.27046    -65385.57246  22118321.45248  22118320.85246  22118321.49446
 14 11 14 07 34 47.0000000  0  2 20 31
   -249067.99146   -194075.93046  23744736.90048  23744737.45346  23744737.99746
   -104851.20546    -81700.08046  22114336.04648  22114336.90846  22114337.21546
 14 11 14 07 34 48.0000000  0  2 20 31
   -265582.11246   -206944.13046  23741594.08648  23741593.51246  23741594.96646
   -125760.51446    -97993.07946  22110357.75048  22110356.87246  22110357.91546
 14 11 14 07 34 49.0000000  0  2 20 31
   -282075.07746   -219795.81446  23738456.13848  23738454.81746  23738456.20646
   -146643.09246   -114265.18046  22106383.92648  22106385.35246  22106383.79146
 14 11 14 07 34 50.0000000  0  8 04 09 11 19 20 23 27 31
 -15572644.64258 -12134526.39558  20087062.68559  20087063.28258  20087064.31358
   6036201.98656   4703532.56057  23458268.93258  23458269.45956  23458272.40157
 -17426056.58758 -13578741.61958  20221357.48759  20221357.67258  20221357.72558
   2838792.87959   2212047.48458  19770992.59259  19770992.10259  19770991.47958
   -298563.06146   -232643.53946  23735318.17848  23735319.85446  23735319.05046
 -14614838.78958 -11388186.19658  20529620.47259  20529620.62458  20529619.07058
   7131644.23757   5557125.92258  21874318.64358  21874319.16957  21874322.08758
   -167515.10746   -130529.09346  22102411.19848  22102414.08146  22102411.65446
 14 11 14 07 34 51.0000000  0  2 20 31
   -315048.79546   -245489.56346  23732180.86048  23732181.62746  23732180.25946
   -188379.42246   -146787.01646  22098441.71548  22098443.03746  22098441.52146
 14 11 14 07 34 52.0000000  0  2 20 31
   -331538.89446   -258338.99346  23729043.22448  23729044.51146  23729043.27946
   -209242.57046   -163043.98546  22094471.89548  22094471.63446  22094471.29246
 14 11 14 07 34 53.0000000  0  2 20 31
   -348030.21546   -271189.40246  23725904.37048  23725904.41646  23725906.04746
   -230101.45946   -179297.66946  22090502.07048  22090503.32846  22090502.56646
 14 11 14 07 34 54.0000000  0  2 20 31
   -364507.47646   -284028.82646  23722770.11248  23722768.44746  23722771.17346
   -250940.74446   -195536.07846  22086537.54848  22086537.59746  22086536.08446
 14 11 14 07 34 55.0000000  0  2 20 31
   -380966.42846   -296853.97646  23719635.96848  23719637.73146  23719636.42046
   -271756.21346   -211755.93946  22082575.78848  22082577.73746  22082575.09746
 14 11 14 07 34 56.0000000  0  2 20 31
   -397420.88346   -309675.63846  23716506.24748  23716505.54746  23716506.63146
   -292561.72146   -227968.00946  22078617.00948  22078617.07746  22078616.14646
 14 11 14 07 34 57.0000000  0  2 20 31
   -413873.20346   -322495.62046  23713375.72148  23713375.34846  23713377.16146
   -313359.58046   -244174.11446  22074658.84848  22074659.83746  22074659.19646
 14 11 14 07 34 58.0000000  0  2 20 31
   -430311.38446   -335304.61546  23710247.97348  23710247.13946  23710248.06246
   -334137.82846   -260364.97646  22070704.88048  22070705.02246  22070704.35346
 14 11 14 07 34 59.0000000  0  2 20 31
   -446731.11646   -348099.21646  23707123.34848  23707121.71746  23707123.82346
   -354892.11446   -276537.15446  22066756.20248  22066755.99746  22066756.80446
 14 11 14 07 35 00.0000000  0  8 04 09 11 19 20 23 27 31
 -15814673.58958 -12323120.37758  20041006.21959  20041006.66758  20041007.64758
   6298925.78956   4908252.39457  23508263.87358  23508264.13956  23508267.15357
 -17596151.13558 -13711282.82558  20188989.59559  20188989.73958  20188989.77158
   3078277.47459   2398658.83258  19816565.03859  19816564.55759  19816563.91558
   -463147.01746   -360890.78646  23703999.30248  23703999.47846  23703999.61346
 -14470086.47658 -11275392.19458  20557166.00359  20557166.05458  20557164.41158
   7453480.53857   5807907.41858  21935562.13658  21935562.63257  21935565.64558
   -375637.05646   -292702.03246  22062806.86448  22062807.74246  22062807.76246
 14 11 14 07 35 01.0000000  0  2 20 31
   -479563.41846   -373682.81246  23700874.75248  23700875.62746  23700875.72746
   -396377.07646   -308863.08246  22058861.28648  22058860.52946  22058861.26846
 14 11 14 07 35 02.0000000  0  2 20 31
   -495965.34546   -386463.52246  23697753.20848  23697753.87646  23697755.71646
   -417097.12846   -325008.57046  22054917.75048  22054918.81946  22054918.33646
 14 11 14 07 35 03.0000000  0  2 20 31
   -512349.98446   -399230.78246  23694634.50048  23694637.05146  23694636.49446
   -437794.40146   -341136.29346  22050979.81348  22050979.46946  22050979.59746
 14 11 14 07 35 04.0000000  0  2 20 31
   -528722.24846   -411988.38546  23691520.78848  23691519.20846  23691520.86146
   -458473.85146   -357250.16046  22047044.38448  22047044.62546  22047045.25546
 14 11 14 07 35 05.0000000  0  2 20 31
   -545086.00146   -424739.37746  23688405.80348  23688407.14346  23688407.24246
   -479139.30846   -373353.12646  22043111.74848  22043111.80446  22043111.77446
 14 11 14 07 35 06.0000000  0  2 20 31
   -561446.37946   -437487.72446  23685292.99848  23685292.82946  23685293.48946
   -499795.90746   -389449.18546  22039181.42648  22039180.64346  22039182.17846
 14 11 14 07 35 07.0000000  0  2 20 31
   -577805.85246   -450235.33346  23682180.41948  23682179.65546  23682177.78846
   -520446.09846   -405540.23046  22035251.21748  22035252.65546  22035251.92746
 14 11 14 07 35 08.0000000  0  2 20 31
   -594150.06446   -462971.08546  23679070.25448  23679069.83946  23679070.67046
   -541075.63346   -421615.18746  22031326.66848  22031326.44546  22031325.79246
 14 11 14 07 35 09.0000000  0  2 20 31
   -610477.77946   -475693.95246  23675963.15748  23675963.78546  23675962.32446
   -561683.16246   -437673.00246  22027403.57348  22027404.39346  22027406.10546
 14 11 14 07 35 10.0000000  0  8 04 09 11 19 20 23 27 31
 -16052552.58558 -12508480.63358  19995739.21159  19995739.70458  19995740.82158
   6562417.37156   5113570.48957  23558404.75658  23558405.14856  23558407.80857
 -17761647.61258 -13840241.11058  20157496.63459  20157496.77258  20157496.82158
   3322129.02759   2588673.00958  19862968.36959  19862968.00359  19862967.37858
   -626791.87046   -488406.23946  23672858.43748  23672859.58746  23672859.23046
 -14323037.16358 -11160808.31558  20585148.47559  20585148.65958  20585146.96458
   7777566.43257   6060441.86658  21997233.55758  21997234.01657  21997236.94858
   -582271.68047   -453715.97846  22023486.03348  22023486.77547  22023486.10146
 14 11 14 07 35 11.0000000  0  2 20 31
   -643094.86046   -501109.85546  23669755.12148  23669756.29346  23669756.93946
   -602843.62746   -469746.09446  22019571.38648  22019572.19646  22019573.12046
 14 11 14 07 35 12.0000000  0  2 20 31
   -659396.00046   -513812.08046  23666654.67948  23666652.07546  23666653.10046
   -623408.30646   -485770.51046  22015658.05848  22015659.08446  22015658.76146
 14 11 14 07 35 13.0000000  0  2 20 31
   -675695.48546   -526512.99746  23663551.56248  23663551.01646  23663552.67246
   -643965.88647   -501789.40446  22011746.35448  22011748.18147  22011747.22246
 14 11 14 07 35 14.0000000  0  2 20 31
   -691980.63446   -539202.71546  23660452.39748  23660451.65246  23660453.41246
   -664503.66646   -517792.88146  22007839.12148  22007839.31946  22007838.29746
 14 11 14 07 35 15.0000000  0  2 20 31
   -708248.41946   -551878.86446  23657357.99048  23657356.78146  23657360.58146
   -685018.57246   -533778.52946  22003934.11148  22003935.70246  22003934.00046
 14 11 14 07 35 16.0000000  0  2 20 31
   -724511.75646   -564551.59946  23654263.49848  23654262.76746  23654264.39746
   -705523.69346   -549756.54046  22000032.72748  22000033.92846  22000032.42746
 14 11 14 07 35 17.0000000  0  2 20 31
   -740771.83446   -577221.81946  23651167.13848  23651169.29646  23651168.80546
   -726020.15746   -565727.77846  21996131.82548  21996133.11346  21996132.77746
 14 11 14 07 35 18.0000000  0  2 20 31
   -757015.60446   -589879.29646  23648076.84248  23648079.15246  23648077.85946
   -746494.81746   -581682.08146  21992235.94648  21992236.95746  21992235.65946
 14 11 14 07 35 19.0000000  0  2 20 31
   -773240.35646   -602521.95946  23644989.42548  23644990.84846  23644990.42946
   -766945.08646   -597617.36346  21988344.31348  21988344.70246  21988344.60546
 14 11 14 07 35 20.0000000  0  8 04 09 11 19 20 23 27 31
 -16286233.88958 -12690569.96258  19951271.21059  19951271.68058  19951272.79158
   6826649.53556   5319465.66357  23608686.60858  23608687.05256  23608689.44157
 -17922510.22758 -13965588.60358  20126885.38459  20126885.62358  20126885.70558
   3570284.64359   2782040.99958  19910190.90759  19910190.40959  19910189.85258
   -789461.11846   -615161.48046  23641903.75448  23641905.28346  23641902.87746
 -14173714.56858 -11044453.05358  20613563.70359  20613563.73758  20613562.14758
   8103839.71357   6314680.77458  22059321.73858  22059321.85057  22059324.79358
   -787385.93446   -613545.25746  21984455.26048  21984454.28446  21984456.06346
 14 11 14 07 35 21.0000000  0  2 20 31
   -805678.84246   -627798.69346  23638817.99048  23638817.43746  23638816.89946
   -807818.35346   -629466.63146  21980566.95948  21980567.10346  21980566.58246
 14 11 14 07 35 22.0000000  0  2 20 31
   -821880.87346   -640423.64246  23635734.66548  23635734.26246  23635734.85046
   -828229.63647   -645371.54246  21976682.12248  21976683.02647  21976682.78846
 14 11 14 07 35 23.0000000  0  2 20 31
   -838065.28346   -653034.91346  23632654.88348  23632654.12646  23632655.24146
   -848617.95646   -661258.52646  21972802.39148  21972802.88046  21972803.20346
 14 11 14 07 35 24.0000000  0  2 20 31
   -854246.71946   -665643.79146  23629575.11148  23629573.75746  23629575.83046
   -868997.78446   -677138.92946  21968923.97348  21968924.03746  21968924.43946
 14 11 14 07 35 25.0000000  0  2 20 31
   -870426.72246   -678251.58146  23626496.21748  23626494.02646  23626495.73146
   -889370.85346   -693014.04246  21965047.01848  21965047.94946  21965047.15846
 14 11 14 07 35 26.0000000  0  2 20 31
   -886590.36446   -690846.61646  23623420.75748  23623418.66846  23623421.29646
   -909722.15046   -708872.19446  21961174.34648  21961175.15546  21961174.43146
 14 11 14 07 35 27.0000000  0  2 20 31
   -902736.55546   -703428.05146  23620347.18448  23620346.93146  23620348.53646
   -930050.59946   -724712.56146  21957306.40348  21957306.28246  21957305.65246
 14 11 14 07 35 28.0000000  0  2 20 31
   -918876.69846   -716004.82846  23617276.03948  23617275.85846  23617276.97346
   -950367.66446   -740544.00946  21953439.79048  21953440.65946  21953440.46546
 14 11 14 07 35 29.0000000  0  2 20 31
   -935015.94046   -728580.85746  23614205.40848  23614203.77446  23614207.67346
   -970678.45546   -756370.61146  21949575.30848  21949575.78746  21949575.33446
 14 11 14 07 35 30.0000000  0  8 04 09 11 19 20 23 27 31
 -16515648.29958 -12869334.42758  19907615.10859  19907615.52458  19907616.62858
   7091617.38656   5525934.09557  23659108.23158  23659108.97656  23659111.15057
 -18078681.87258 -14087280.78058  20097166.96359  20097167.11058  20097167.23058
   3822702.91059   2978730.53758  19958224.50759  19958224.07059  19958223.50958
   -951139.74646   -741144.86246  23611136.28348  23611136.06746  23611136.39046
 -14022120.58958 -10926327.87458  20642410.94559  20642411.20758  20642409.46358
   8432260.43857   6570593.00858  22121817.64258  22121818.42257  22121821.24358
   -990968.39946   -772180.95346  21945714.94648  21945715.01546  21945715.12546
 14 11 14 07 35 31.0000000  0  2 20 31
   -967246.45446   -753695.51246  23608071.50948  23608071.67046  23608072.29146
  -1011235.86846   -787973.78046  21941857.30148  21941858.45046  21941858.07246
 14 11 14 07 35 32.0000000  0  2 20 31
   -983340.22346   -766236.12446  23605009.77948  23605008.39246  23605010.41546
  -1031485.03846   -803752.35646  21938003.86848  21938004.76046  21938004.18646
 14 11 14 07 35 33.0000000  0  2 20 31
   -999422.68446   -778767.93746  23601949.21348  23601948.54846  23601949.26246
  -1051717.58446   -819517.96346  21934154.45148  21934154.58946  21934154.23746
 14 11 14 07 35 34.0000000  0  2 20 31
  -1015502.16246   -791297.38646  23598888.88148  23598889.89946  23598889.83746
  -1071941.71946   -835277.02346  21930305.83648  21930306.52846  21930306.33646
 14 11 14 07 35 35.0000000  0  2 20 31
  -1031580.41246   -803825.90646  23595830.15348  23595829.66046  23595830.42646
  -1092159.30547   -851030.98246  21926458.48348  21926459.33647  21926458.62646
 14 11 14 07 35 36.0000000  0  2 20 31
  -1047643.65246   -816342.69046  23592773.51748  23592772.72346  23592774.44246
  -1112356.48346   -866769.06046  21922614.52548  21922615.40146  21922615.68146
 14 11 14 07 35 37.0000000  0  2 20 31
  -1063688.88446   -828845.48346  23589719.20648  23589718.36146  23589720.20046
  -1132530.33346   -882488.91646  21918775.71048  21918776.24446  21918776.40646
 14 11 14 07 35 38.0000000  0  2 20 31
  -1079712.32846   -841331.26946  23586668.85148  23586670.10046  23586670.58346
  -1152677.01646   -898187.65246  21914941.70348  21914942.19646  21914942.16746
 14 11 14 07 35 39.0000000  0  2 20 31
  -1095715.75946   -853801.46746  23583625.07448  23583626.05946  23583623.19346
  -1172798.36846   -913866.61246  21911113.15048  21911113.82646  21911113.76246
 14 11 14 07 35 40.0000000  0  8 04 09 11 19 20 23 27 31
 -16740684.13458 -13044687.01158  19864792.15559  19864792.65958  19864793.71558
   7357358.92956   5733005.41457  23709677.13258  23709677.67156  23709680.24757
 -18230063.53658 -14205240.50458  20068359.86659  20068360.11358  20068360.19758
   4079384.85159   3178742.42658  20007069.50459  20007068.96559  20007068.48258
  -1111712.19646   -866266.20946  23580581.02248  23580580.99946  23580580.63646
 -13868214.29958 -10806400.89158  20671698.36759  20671698.54858  20671696.84158
   8762831.66857   6828180.96157  22184723.60458  22184724.06057  22184726.98657
  -1192907.35746   -929535.97646  21907286.46548  21907286.19746  21907286.80246
 14 11 14 07 35 41.0000000  0  2 20 31
  -1127705.17846   -878728.30546  23577537.54648  23577536.89746  23577537.84146
  -1213007.62146   -945198.50146  21903462.31748  21903461.23346  21903461.47046
 14 11 14 07 35 42.0000000  0  2 20 31
  -1143699.26346   -891191.21946  23574494.58348  23574492.17846  23574494.58846
  -1233103.56646   -960857.68346  21899637.14848  21899638.12346  21899637.26746
 14 11 14 07 35 43.0000000  0  2 20 31
  -1159692.63746   -903653.59246  23571450.78048  23571449.35146  23571450.57246
  -1253193.53746   -976512.21346  21895814.59948  21895815.50146  21895814.48346
 14 11 14 07 35 44.0000000  0  2 20 31
  -1175670.62646   -916103.97746  23568410.11348  23568408.76246  23568408.32546
  -1273262.77346   -992150.57546  21891995.23248  21891996.08046  21891995.80946
 14 11 14 07 35 45.0000000  0  2 20 31
  -1191629.89846   -928539.79346  23565372.98448  23565372.19746  23565374.13946
  -1293307.99746  -1007770.23946  21888181.18548  21888181.55246  21888181.49546
 14 11 14 07 35 46.0000000  0  2 20 31
  -1207584.41546   -940971.86846  23562336.06048  23562337.82146  23562338.40946
  -1313343.12546  -1023382.00846  21884368.67348  21884369.27546  21884367.92846
 14 11 14 07 35 47.0000000  0  2 20 31
  -1223536.16146   -953401.78946  23559301.95248  23559302.23746  23559303.31046
  -1333370.17046  -1038987.46246  21880556.62248  21880558.51746  21880558.73246
 14 11 14 07 35 48.0000000  0  2 20 31
  -1239472.09946   -965819.40946  23556268.07348  23556268.85946  23556268.45946
  -1353376.07646  -1054576.50646  21876751.07748  21876750.71646  21876750.95546
 14 11 14 07 35 49.0000000  0  2 20 31
  -1255389.51946   -978222.57046  23553238.45548  23553240.02046  23553240.07546
  -1373358.18846  -1070146.98246  21872947.35048  21872946.95946  21872948.17946
 14 11 14 07 35 50.0000000  0  8 04 09 11 19 20 23 27 31
 -16961395.11458 -13216669.58158  19822792.18959  19822792.71958  19822793.77458
   7623747.71656   5940581.07457  23760369.34658  23760369.47156  23760372.42257
 -18376721.76658 -14319519.63958  20040451.81559  20040451.96358  20040452.06358
   4340166.44759   3381948.85658  20056694.57459  20056694.06159  20056693.57758
  -1271292.63946   -990614.63046  23550214.41048  23550214.47046  23550213.78746
 -13712119.67658 -10684768.72558  20701402.19959  20701402.35258  20701400.69158
   9095392.19857   7087319.02057  22248007.95558  22248008.30157  22248011.12657
  -1393320.69546  -1085702.18146  21869149.06448  21869149.03846  21869149.22346
 14 11 14 07 35 51.0000000  0  2 20 31
  -1287183.80546  -1002997.37346  23547189.93648  23547188.81346  23547190.16746
  -1413265.96346  -1101243.94446  21865353.57348  21865354.71646  21865353.85446
 14 11 14 07 35 52.0000000  0  2 20 31
  -1303072.11446  -1015377.84146  23544165.97448  23544165.23546  23544169.24146
  -1433203.01446  -1116779.32346  21861559.24848  21861559.22746  21861560.57646
 14 11 14 07 35 53.0000000  0  2 20 31
  -1318958.44546  -1027756.82846  23541143.12648  23541142.86046  23541143.22146
  -1453132.85246  -1132309.05446  21857767.28448  21857767.77846  21857766.99746
 14 11 14 07 35 54.0000000  0  2 20 31
  -1334829.95846  -1040124.20546  23538123.19748  23538122.50246  23538123.68346
  -1473042.55646  -1147823.11546  21853978.38348  21853978.79346  21853978.78146
 14 11 14 07 35 55.0000000  0  2 20 31
  -1350683.34146  -1052477.48546  23535106.36748  23535105.24046  23535107.27846
  -1492928.85446  -1163318.90546  21850195.04848  21850194.95846  21850194.77846
 14 11 14 07 35 56.0000000  0  2 20 31
  -1366513.61146  -1064812.80146  23532093.34948  23532095.01246  23532094.83646
  -1512786.80046  -1178792.65946  21846415.30548  21846416.03646  21846414.24446
 14 11 14 07 35 57.0000000  0  2 20 31
  -1382323.00746  -1077131.76746  23529085.05948  23529086.53746  23529086.71246
  -1532618.54646  -1194245.96946  21842641.62148  21842642.08746  21842641.57346
 14 11 14 07 35 58.0000000  0  2 20 31
  -1398125.06646  -1089445.06046  23526077.57848  23526078.14846  23526079.03846
  -1552437.72146  -1209689.46746  21838869.78048  21838870.33046  21838869.72346
 14 11 14 07 35 59.0000000  0  1 31
  -1572246.81846  -1225125.13446  21835100.81448  21835101.79246  21835101.30246
 14 11 14 07 36 00.0000000  0  7 04 09 11 19 23 27 31
 -17177612.71558 -13385150.81158  19781647.32759  19781647.91958  19781648.96858
   7890880.08856   6148736.14957  23811202.69658  23811202.40256  23811205.93257
 -18518501.30258 -14429997.19358  20013471.99259  20013472.20258  20013472.28858
   4605105.93858   3588395.20358  20107110.86759  20107110.36558  20107109.80258
 -13553738.04558 -10561354.47658  20731541.18959  20731541.40458  20731539.76258
   9430003.66557   7348055.20857  22311682.31158  22311682.67157  22311685.84457
  -1592049.89647  -1240556.08946  21831332.28348  21831332.37247  21831332.53446
 14 11 14 07 36 01.0000000  0  1 31
  -1611848.31846  -1255983.42146  21827564.74848  21827564.85846  21827564.94746
 14 11 14 07 36 02.0000000  0  1 31
  -1631627.20546  -1271395.54746  21823801.27448  21823800.07546  21823802.06346
 14 11 14 07 36 03.0000000  0  1 31
  -1651382.17846  -1286789.07146  21820041.95648  21820041.40446  21820041.90346
 14 11 14 07 36 04.0000000  0  1 31
  -1671125.29947  -1302173.29146  21816284.60048  21816285.20947  21816283.85146
 14 11 14 07 36 05.0000000  0  1 31
  -1690859.25746  -1317550.41246  21812530.04448  21812529.85746  21812529.99346
 14 11 14 07 36 06.0000000  0  1 31
  -1710571.85547  -1332910.88546  21808778.09848  21808777.88047  21808777.83946
 14 11 14 07 36 07.0000000  0  1 31
  -1730261.34246  -1348253.32146  21805031.07948  21805031.87046  21805031.34646
 14 11 14 07 36 08.0000000  0  1 31
  -1749937.94047  -1363585.72246  21801287.53348  21801287.18847  21801287.70946
 14 11 14 07 36 10.0000000  0  7 04 09 11 19 20 23 27
 -17389442.71858 -13550213.13058  19741337.38959  19741337.91958  19741339.01858
   8158578.93756   6357332.63657  23862144.23758  23862144.75656  23862147.70057
 -18655521.42158 -14536766.10358  19987398.00859  19987398.16758  19987398.19958
   4873987.51358   3797913.30458  20158277.38759  20158276.89258  20158276.21658
  -1587139.18456  -1236728.79856  23490110.34958  23490109.53656  23490110.48556
 -13393244.50658 -10436294.58358  20762082.23559  20762082.33258  20762080.68258
   9766454.43457   7610224.62557  22375706.88558  22375706.72757  22375709.97457
 14 11 14 07 36 20.0000000  0  8 04 09 11 19 20 23 27 31
 -17596749.66348 -13711750.99948  19701888.22149  19701888.66648  19701889.88048
   8426908.96346   6566420.94547  23913205.64448  23913206.11646  23913209.04747
 -18787660.67548 -14639731.74448  19962252.71949  19962252.80148  19962252.83448
   5146836.82648   4010523.14448  20210198.81149  20210198.38548  20210197.76448
  -1743432.72246  -1358515.94746  23460368.08048  23460368.91846  23460368.96746
 -13230572.56948 -10309537.24848  20793037.71349  20793037.79048  20793036.16748
  10104774.77347   7873850.84347  22440086.84248  22440087.76747  22440090.52147
  -1984795.87357  -1546591.90456  21756595.13558  21756595.27457  21756595.13556
 14 11 14 07 36 30.0000000  0  8 04 09 11 19 20 23 27 31
 -17799490.64048 -13869730.96748  19663307.83149  19663308.41548  19663309.40448
   8695843.33546   6775980.18947  23964382.50648  23964382.67546  23964385.41847
 -18914890.45048 -14738871.81848  19938041.73349  19938041.85448  19938041.88948
   5423587.48648   4226172.99248  20262862.79049  20262862.29748  20262861.65548
  -1898586.00246  -1479414.59646  23430843.48248  23430843.52846  23430844.05546
 -13065747.67548 -10181102.27548  20824402.83049  20824402.92248  20824401.24648
  10444903.53747   8138886.21447  22504811.17948  22504811.36047  22504814.76047
  -2178686.11347  -1697675.19447  21719698.87348  21719699.60947  21719699.44447
 14 11 14 07 36 40.0000000  0  8 04 09 11 19 20 23 27 31
 -17997603.08248 -14024104.28348  19625608.39349  19625608.91048  19625609.83948
   8965375.74646   6986005.42247  24015672.73148  24015672.57146  24015675.97847
 -19037162.68948 -14834148.88148  19914774.06949  19914774.18048  19914774.27148
   5704193.30848   4444826.86048  20316260.27149  20316259.81448  20316259.22148
  -2052561.01846  -1599395.12846  23401543.05948  23401542.57546  23401543.92646
 -12898774.84648 -10050993.59048  20856176.70149  20856176.92248  20856175.19748
  10786800.37847   8405299.29847  22569872.19748  22569872.57447  22569875.35547
  -2370884.13647  -1847439.88047  21683124.88148  21683125.18747  21683125.15747
 14 11 14 07 36 50.0000000  0  8 04 09 11 19 20 23 27 31
 -18191021.52048 -14174819.93548  19588802.00249  19588802.50648  19588803.57448
   9235503.34446   7196494.43847  24067076.15048  24067076.32346  24067079.05947
 -19154426.94348 -14925523.61248  19892459.33749  19892459.51648  19892459.64648
   5988611.13048   4666451.12048  20370383.23849  20370382.75348  20370382.17648
  -2205316.55846  -1718425.41446  23372474.47648  23372475.06346  23372475.13646
 -12729656.00348  -9919212.68248  20888358.98449  20888359.14148  20888357.41948
  11130428.50846   8673061.45347  22635262.48848  22635262.85246  22635265.87847
  -2561352.78647  -1995856.99147  21646879.84848  21646880.60647  21646880.35947
 14 11 14 07 37 00.0000000  0  8 04 09 11 19 20 23 27 31
 -18379744.25848 -14321876.61048  19552889.19849  19552889.75448  19552890.86148
   9506160.82246   7407396.34547  24118580.39748  24118581.39846  24118583.92547
 -19266696.64048 -15013006.49648  19871095.08449  19871095.27248  19871095.45948
   6276734.88448   4890963.12548  20425211.35849  20425210.90948  20425210.31248
  -2356873.85446  -1836522.01246  23343634.80148  23343633.91346  23343634.80746
 -12558455.60048  -9785809.79348  20920937.39549  20920937.45948  20920935.77148
  11475688.83046   8942095.44547  22700963.39148  22700963.72346  22700966.70947
  -2750117.47947  -2142946.34847  21610959.20748  21610959.71247  21610959.41747
 14 11 14 07 37 10.0000000  0  8 04 09 11 19 20 23 27 31
 -18563684.68148 -14465206.80548  19517886.53649  19517887.09248  19517888.03748
   9777368.62846   7618727.08547  24170189.59448  24170189.73546  24170192.92447
 -19373900.59348 -15096542.04648  19850694.82049  19850695.12548  19850695.16248
   6568543.97148   5118346.82848  20480740.77849  20480740.27048  20480739.77248
  -2507168.33346  -1953634.57346  23315034.52248  23315033.96446  23315034.15846
 -12385152.69548  -9650768.57548  20953915.78749  20953916.00548  20953914.18348
  11822568.20746   9212391.03247  22766972.41848  22766973.16846  22766975.50847
  -2937118.09547  -2288661.09847  21575374.04948  21575374.69847  21575374.24547
 14 11 14 07 37 20.0000000  0  8 04 09 11 19 20 23 27 31
 -18742814.82648 -14604788.73348  19483799.19149  19483799.70848  19483800.78348
  10049089.31646   7830457.46247  24221896.39248  24221896.94546  24221899.32947
 -19476026.71348 -15176120.83948  19831260.88549  19831261.11248  19831261.22048
   6863959.67348   5348540.87348  20536956.52149  20536956.10648  20536955.55348
  -2656193.49046  -2069758.04746  23286675.60348  23286674.95346  23286676.43746
 -12463554.68648  -9711861.05148  20979234.71649  20979234.90748  20979233.28248
  12170995.81246   9483893.02847  22833276.13148  22833276.08046  22833278.95647
  -3122352.41947  -2432999.52047  21540125.05348  21540126.05447  21540125.27747
 14 11 14 07 37 30.0000000  0  8 04 09 11 19 20 23 27 31
 -18917077.13048 -14740577.54848  19450638.20649  19450638.76048  19450639.76848
  10321316.38346   8042582.43946  24273699.77948  24273700.32546  24273702.89646
 -19573033.56248 -15251710.60148  19812801.14549  19812801.36048  19812801.40448
   7162933.71648   5581507.63848  20593849.38449  20593848.92048  20593848.48648
  -2803912.15946  -2184863.51046  23258565.82648  23258566.09346  23258565.25146
 -12340357.74448  -9615863.44648  21021050.54649  21021050.63648  21021048.98448
  12520931.80546   9756570.39647  22899866.58448  22899866.19146  22899869.96647
  -3305787.65147  -2575936.05947  21505218.56148  21505219.09147  21505218.81647
 14 11 14 07 37 40.0000000  0  8 04 09 11 19 20 23 27 31
 -19086452.45048 -14872558.30548  19418407.21349  19418407.74648  19418408.70348
  10594005.86146   8255067.83747  24325590.81248  24325590.98846  24325593.58047
 -19664918.40748 -15323309.16948  19795316.07049  19795316.24848  19795316.25448
   7465380.06448   5817180.09348  20651403.00449  20651402.61248  20651401.99948
  -2950324.98046  -2298951.37746  23230704.01848  23230704.82946  23230704.92346
 -12160916.74048  -9476039.27548  21055196.88649  21055197.15948  21055195.39548
  12872299.00946  10030363.00347  22966729.49648  22966729.92446  22966733.01947
  -3487428.74447  -2717474.55647  21470653.46948  21470653.99747  21470653.50147
 14 11 14 07 37 50.0000000  0  8 04 09 11 19 20 23 27 31
 -19250889.43448 -15000691.02448  19387115.87049  19387116.40548  19387117.48748
  10867146.38546   8467904.57246  24377567.43948  24377567.79946  24377570.30946
 -19751646.25248 -15390889.32248  19778812.28349  19778812.48148  19778812.59948
   7771245.98648   6055517.14948  20709607.43349  20709606.94348  20709606.33948
  -3095399.00546  -2411996.07146  23203098.12748  23203097.65346  23203097.68346
 -11979472.64748  -9334654.29048  21089724.66349  21089724.82148  21089723.05348
  13225053.92046  10305236.93447  23033856.47048  23033856.61346  23033860.27047
  -3667247.37247  -2857592.94947  21436435.01548  21436435.67547  21436435.25747
 14 11 14 07 38 00.0000000  0  8 04 09 11 19 20 23 27 31
 -19410324.45348 -15124926.10648  19356776.40449  19356776.92948  19356777.95848
  11140740.77246   8681094.97546  24429631.04048  24429631.54846  24429633.95946
 -19833170.80748 -15454414.95448  19763298.68549  19763298.88348  19763298.95248
   8080491.65948   6296487.77348  20768455.04849  20768454.47248  20768453.91248
  -3239088.33046  -2523961.77846  23175754.40548  23175754.35946  23175754.99046
 -11796023.55248  -9191706.95148  21124633.84549  21124634.08248  21124632.35448
  13579166.41746  10581168.72447  23101241.96748  23101242.64846  23101245.49447
  -3845202.20347  -2996259.04047  21402571.19748  21402571.81247  21402571.56247
 14 11 14 07 38 10.0000000  0  8 04 09 11 19 20 23 27 31
 -19564738.31448 -15245248.60348  19327392.35949  19327392.99948  19327393.96148
  11414748.44946   8894607.44546  24481772.89148  24481773.14646  24481776.16246
 -19909489.74548 -15513884.26048  19748775.71249  19748775.89548  19748775.91248
   8393034.06348   6540027.27848  20827929.83649  20827929.40248  20827928.76348
  -3381390.27746  -2634846.41546  23148675.28048  23148674.65746  23148675.90146
 -11610611.02248  -9047229.66848  21159916.66949  21159916.91348  21159915.18348
  13934563.51546  10858101.50247  23168871.87548  23168872.75546  23168875.26147
  -4021295.12847  -3133474.29847  21369061.84348  21369062.76647  21369062.24347
 14 11 14 07 38 20.0000000  0  8 04 09 11 19 20 23 27 31
 -19714081.24148 -15361619.71648  19298973.49649  19298973.97648  19298974.98048
  11689160.28446   9108434.85946  24533991.51148  24533992.09846  24533994.85946
 -19980570.77548 -15569272.07348  19735249.44649  19735249.57548  19735249.63348
   8708821.39148   6786095.28848  20888022.25749  20888021.77448  20888021.16448
  -3522270.83746  -2744623.46546  23121866.83348  23121866.96546  23121867.00446
 -11423245.20848  -8901230.32448  21195571.23449  21195571.35548  21195569.65048
  14291203.96546  11136003.10747  23236737.95548  23236738.78646  23236741.59647
  -4195496.75147  -3269215.81047  21335912.55648  21335912.97547  21335912.47147
 14 11 14 07 38 30.0000000  0  8 04 09 11 19 20 23 27 31
 -19858324.21048 -15474016.83448  19271524.85949  19271525.45448  19271526.45148
  11963947.82246   9322554.99746  24586281.42148  24586282.94146  24586285.12146
 -20046402.47648 -15620569.51948  19722722.14349  19722722.26348  19722722.37948
   9027782.56948   7034636.43148  20948718.44249  20948718.05748  20948717.50348
  -3661715.32946  -2853281.52346  23095331.48848  23095330.89546  23095331.47746
 -11233955.97948  -8753732.23048  21231591.70049  21231591.95348  21231590.28648
  14649027.29546  11414826.43846  23304829.26848  23304829.63746  23304833.23646
  -4367797.26447  -3403475.94347  21303124.74748  21303125.27847  21303125.09447
 14 11 14 07 38 40.0000000  0  8 04 09 11 19 20 23 27 31
 -19997419.22948 -15582402.56048  19245056.03549  19245056.55748  19245057.50748
  12239102.72646   9536961.39946  24638642.33848  24638642.84646  24638645.31146
 -20106954.49048 -15667752.91648  19711199.38349  19711199.59348  19711199.63548
   9349866.31548   7285610.74148  21010009.01048  21010008.52648  21010008.11748
  -3799689.15946  -2960793.58246  23069075.52848  23069075.38446  23069076.16546
 -11042753.13848  -8604743.01848  21267976.48649  21267976.54448  21267974.93348
  15007993.61246  11694540.41846  23373138.40748  23373139.38046  23373142.44246
  -4538166.84447  -3536231.44647  21270704.56048  21270705.11447  21270704.76047
 14 11 14 07 38 50.0000000  0  8 04 09 11 19 20 23 27 31
 -20131342.22348 -15686758.14148  19219571.30949  19219571.87648  19219572.78548
  12514594.06446   9751629.96846  24691066.27048  24691066.91046  24691070.00346
 -20162220.73748 -15710817.53448  19700682.59049  19700682.81848  19700682.86148
   9674998.70048   7538960.60448  21071879.83248  21071879.27348  21071878.85448
  -3936180.62546  -3067150.55646  23043102.18148  23043102.16946  23043102.24546
 -10849669.25348  -8454288.06348  21304719.03249  21304719.28248  21304717.60348
  15368040.40946  11975096.33146  23441652.88448  23441654.21346  23441656.70946
  -4706598.56847  -3667476.93547  21238653.04148  21238653.67747  21238653.22247
 14 11 14 07 39 00.0000000  0  8 04 09 11 19 20 23 27 31
 -20260059.08548 -15787056.99048  19195077.27349  19195077.89148  19195078.81948
  12790402.03946   9966545.25046  24743550.41948  24743552.05646  24743554.28446
 -20212185.49048 -15749751.11748  19691174.66249  19691174.77248  19691174.83948
  10003116.86648   7794637.05048  21134318.48348  21134318.16948  21134317.61948
  -4071166.91146  -3172334.68146  23017415.49548  23017414.94646  23017415.05046
 -10654726.11548  -8302384.33848  21341815.56349  21341815.65848  21341814.08248
  15729116.67746  12256454.42746  23510363.87448  23510363.12346  23510367.92746
  -4873074.61347  -3797198.51347  21206973.72748  21206974.21047  21206973.72047
 14 11 14 07 39 10.0000000  0  8 04 09 11 19 20 23 27 31
 -20383531.04448 -15883268.90548  19171581.37749  19171581.95048  19171582.89348
  13066512.88546  10181696.55146  24796093.00648  24796092.85346  24796095.97546
 -20256828.15348 -15784537.61948  19682679.40449  19682679.62448  19682679.74048
  10334164.02248   8052595.83348  21197314.76148  21197314.42148  21197313.84248
  -4204619.38046  -3276323.63946  22992020.01848  22992020.32846  22992020.44946
 -10457939.51648  -8149044.17548  21379262.69949  21379262.80448  21379261.34848
  16091177.79646  12538579.94246  23579261.47048  23579261.74346  23579265.66546
  -5037571.26447  -3925377.71047  21175671.02348  21175671.48847  21175671.20647
 14 11 14 07 39 20.0000000  0  8 04 09 11 19 20 23 27 31
 -20501715.44148 -15975360.63348  19149091.66349  19149092.15548  19149093.13948
  13342918.19346  10397077.27146  24848691.14548  24848691.19746  24848694.54846
 -20296124.56348 -15815158.19948  19675201.52649  19675201.71448  19675201.85848
  10668088.65748   8312796.81948  21260858.53448  21260857.99348  21260857.56848
  -4336504.13946  -3379091.02046  22966923.17148  22966923.01546  22966923.74946
 -10259320.20048  -7994275.91348  21417059.00548  21417058.95248  21417057.35948
  16454184.48946  12821442.24846  23648339.25548  23648339.00946  23648343.04246
  -5200059.69147  -4051992.05247  21144750.44248  21144751.09247  21144750.53847
 14 11 14 07 39 30.0000000  0  8 04 09 11 19 20 23 27 31
 -20614594.69648 -16063318.48748  19127611.42449  19127611.94848  19127612.99348
  13619585.61646  10612662.23846  24901339.16048  24901340.67046  24901343.02546
 -20330075.88848 -15841613.77648  19668740.82549  19668740.99648  19668741.15148
  11004815.30648   8575181.19248  21324935.57848  21324935.08348  21324934.65948
  -4466811.37246  -3480629.10546  22942127.16148  22942126.53146  22942126.99046
 -10058902.94748  -7838106.64448  21455196.95548  21455196.99548  21455195.73748
  16818073.90446  13104992.27746  23717585.84948  23717586.47946  23717589.45746
  -5360535.19847  -4177037.88547  21114212.88048  21114213.64347  21114213.18047
 14 11 14 07 39 40.0000000  0  8 04 09 11 19 20 23 27 31
 -20722133.13448 -16147114.66048  19107147.54249  19107148.04548  19107149.02048
  13896502.59546  10828441.62546  24954034.87948  24954034.63546  24954038.58446
 -20358665.07448 -15863891.06048  19663300.51749  19663300.61148  19663300.84048
  11344288.25748   8839705.54748  21389535.07448  21389534.64448  21389534.10648
  -4595511.92146  -3580915.24346  22917635.59348  22917635.84446  22917636.29346
  -9856702.98248  -7680548.23148  21493674.33948  21493674.48248  21493672.93248
  17182803.22446  13389200.08946  23786990.78248  23786992.15646  23786995.67946
  -5518973.61947  -4300496.38347  21084063.10248  21084063.92847  21084063.32847
 14 11 14 07 39 50.0000000  0  8 04 09 11 19 20 23 27 31
 -20824307.30948 -16226730.89748  19087704.41449  19087704.92948  19087706.00348
  14173645.38046  11044397.03646  25006773.14248  25006775.28546  25006777.25146
 -20381887.57848 -15881986.52248  19658881.45049  19658881.63848  19658881.66048
  11686440.79948   9106317.88448  21454644.64748  21454644.11648  21454643.60248
  -4722587.68546  -3679935.35746  22893454.00048  22893453.58446  22893454.53246
  -9652746.72148  -7521621.29248  21532485.94648  21532486.06548  21532484.45948
  17548318.90446  13674017.46546  23856545.87948  23856546.83246  23856550.84946
  -5675362.00948  -4422357.44747  21054303.46748  21054303.96848  21054303.71247
 14 11 14 07 40 00.0000000  0  8 04 09 11 19 20 23 27 31
 -20921062.98248 -16302124.91848  19069292.45649  19069293.00148  19069293.98548
  14451022.75046  11260535.09846  25059556.34148  25059556.47546  25059559.95846
 -20399708.21648 -15895872.72948  19655490.30349  19655490.49748  19655490.60448
  12031238.37348   9374991.29248  21520257.38648  21520256.93548  21520256.46348
  -4847988.49846  -3777650.28746  22869590.95148  22869590.81546  22869591.51946
  -9447028.67748  -7361321.56448  21571632.65848  21571633.02348  21571631.33948
  17914599.72046  13959430.93946  23926247.04048  23926247.38846  23926251.22946
  -5829655.48148  -4542586.10647  21024942.40548  21024943.10848  21024942.33447
 14 11 14 07 40 10.0000000  0  7 04 09 11 19 20 23 27
 -21012413.22948 -16373306.72648  19051908.86449  19051909.47048  19051910.37048
  14728577.61346  11476810.93546  25112373.52148  25112373.39446  25112376.56146
 -20412158.85348 -15905574.32548  19653120.88849  19653121.09748  19653121.05948
  12378582.07948   9645649.08748  21586354.36048  21586353.96348  21586353.29348
  -4971729.48846  -3874071.52746  22846043.53448  22846043.47146  22846044.29546
  -9239607.76048  -7199694.51848  21611103.38448  21611103.45548  21611101.93448
  18281559.27446  14245372.83546  23996077.40448  23996077.96846  23996081.12246
 14 11 14 07 40 18.0000000  0  1 32
         0.20558         0.09157  20735657.17258  20735657.89858  20735659.06357
 14 11 14 07 40 19.0000000  0  1 32
         0.82948         0.24646  20731017.33248  20731017.39448  20731033.59146
 14 11 14 07 40 20.0000000  0  8 04 09 11 19 20 23 27 32
 -21098314.35358 -16440242.63858  19035562.39859  19035562.95458  19035563.94558
  15006310.94756  11693226.47956  25165224.25558  25165225.39356  25165227.18656
 -20419214.99558 -15911072.59658  19651778.07859  19651778.28358  19651778.37958
  12728428.18058   9918256.46058  21652927.97158  21652927.33558  21652926.85358
  -5093769.54256  -3969167.63557  22822820.11258  22822820.10656  22822820.94657
  -9030488.27158  -7036744.26658  21650897.61958  21650897.60958  21650895.95658
  18649169.27456  14531823.29156  24066030.76658  24066031.76756  24066035.05556
         0.87648         0.80944  20726382.87448  20726383.03748  20726412.41544
 14 11 14 07 40 21.0000000  0  1 32
    -24316.38748    -18948.85343  20721755.77048  20721755.50548  20721801.39943
 14 11 14 07 40 22.0000000  0  1 32
    -48612.63948    -37877.72648  20717132.19948  20717131.89948  20717130.47648
 14 11 14 07 40 23.0000000  0  1 32
    -72888.66848    -56794.31648  20712512.42848  20712512.41248  20712514.32548
 14 11 14 07 40 24.0000000  0  1 32
    -97132.49748    -75685.61948  20707899.40248  20707898.64048  20707900.51948
 14 11 14 07 40 25.0000000  0  1 32
   -121341.38548    -94549.68648  20703292.46948  20703292.05348  20703294.11448
 14 11 14 07 40 26.0000000  0  1 32
   -145528.89148   -113397.08848  20698689.49748  20698689.40148  20698691.15048
 14 11 14 07 40 27.0000000  0  1 32
   -169696.54548   -132229.02748  20694090.89848  20694090.64848  20694092.29648
 14 11 14 07 40 28.0000000  0  1 32
   -193832.42548   -151036.21348  20689498.14548  20689497.63648  20689499.30448
 14 11 14 07 40 29.0000000  0  1 32
   -217932.38248   -169815.38348  20684911.67048  20684911.36748  20684913.16048
 14 11 14 07 40 30.0000000  0  8 04 09 11 19 20 23 27 32
 -21178725.57758 -16502900.72658  19020260.66159  19020261.18458  19020262.18458
  15284222.34556  11909781.65956  25218108.99658  25218109.18956  25218112.91256
 -20420855.02259 -15912350.53858  19651466.00559  19651466.23359  19651466.33358
  13080734.19558  10192780.60558  21719969.65858  21719969.02058  21719968.45958
  -5214067.71256  -4062906.46056  22799928.29558  22799928.17056  22799929.07856
  -8819673.13558  -6872472.75258  21691014.25858  21691014.27958  21691012.84658
  19017400.43356  14818756.55056  24136102.84358  24136103.56456  24136107.25256
   -242010.94648   -188577.89848  20680329.79148  20680329.61548  20680331.20248
 14 11 14 07 40 31.0000000  0  1 32
   -266068.44648   -207323.99648  20675751.65048  20675751.58948  20675753.18748
 14 11 14 07 40 32.0000000  0  1 32
   -290092.82748   -226044.30548  20671179.94248  20671179.74448  20671181.13448
 14 11 14 07 40 33.0000000  0  1 32
   -314081.54248   -244736.80548  20666615.06148  20666615.00148  20666616.67648
 14 11 14 07 40 34.0000000  0  1 32
   -338048.39448   -263412.27048  20662054.33948  20662054.22548  20662055.59048
 14 11 14 07 40 35.0000000  0  1 32
   -361995.10748   -282072.04248  20657497.43648  20657497.16048  20657498.78148
 14 11 14 07 40 36.0000000  0  1 32
   -385909.05148   -300706.28848  20652947.02148  20652946.38948  20652948.60748
 14 11 14 07 40 37.0000000  0  1 32
   -409787.93848   -319313.20948  20648402.83648  20648402.45648  20648404.24748
 14 11 14 07 40 38.0000000  0  1 32
   -433645.19448   -337903.27748  20643863.12648  20643862.73448  20643864.98748
 14 11 14 07 40 39.0000000  0  1 32
   -457483.19048   -356478.34348  20639326.62748  20639326.59548  20639328.29348
 14 11 14 07 40 40.0000000  0  7 04 11 19 20 23 27 32
 -21253632.15658 -16561269.47858  19006006.38159  19006006.95358  19006008.01458
 -20417083.38959 -15909411.60258  19652183.70459  19652183.88959  19652183.99558
  13435432.60358  10469168.94658  21787466.44558  21787466.06858  21787465.24258
  -5332608.20256  -4155275.67156  22777370.76458  22777370.26256  22777371.03456
  -8607190.84158  -6706902.14958  21731448.36058  21731448.44258  21731446.94558
  19386199.13556  15106123.93856  24206283.34558  24206283.11656  24206287.85356
   -481296.96048   -375034.51648  20634795.34148  20634794.99548  20634796.72848
 14 11 14 07 40 41.0000000  0  1 32
   -505083.25848   -393569.28348  20630268.77848  20630268.64348  20630270.47448
 14 11 14 07 40 42.0000000  0  1 32
   -528834.81248   -412076.99448  20625749.18948  20625749.01248  20625750.47748
 14 11 14 07 40 43.0000000  0  1 32
   -552549.99148   -430556.36748  20621235.99948  20621236.08548  20621237.27148
 14 11 14 07 40 44.0000000  0  1 32
   -576242.15248   -449017.76748  20616727.60548  20616727.50648  20616729.31748
 14 11 14 07 40 45.0000000  0  1 32
   -599913.68448   -467463.12448  20612223.08448  20612222.91848  20612224.25748
 14 11 14 07 40 46.0000000  0  1 32
   -623552.02048   -485882.61248  20607724.74448  20607724.74148  20607726.21548
 14 11 14 07 40 47.0000000  0  1 32
   -647153.98348   -504273.73548  20603233.50048  20603233.59048  20603235.03948
 14 11 14 07 40 48.0000000  0  1 32
   -670723.06748   -522639.25148  20598748.61348  20598748.43148  20598750.14148
 14 11 14 07 40 49.0000000  0  1 32
   -694264.35248   -540983.11748  20594268.44648  20594268.82448  20594270.12848
 14 11 14 07 40 50.0000000  0  7 04 11 19 20 23 27 32
 -21322996.36358 -16615319.50358  18992806.79159  18992807.36158  18992808.35058
 -20407881.44559 -15902241.25559  19653934.79559  19653935.03059  19653935.08559
  13792480.42758  10747388.00458  21855410.36758  21855409.86158  21855409.36858
  -5449350.76156  -4246243.89357  22755155.36158  22755154.95656  22755155.92857
  -8393045.45858  -6540035.64658  21772198.89258  21772198.93958  21772197.50558
  19755536.71256  15393920.51756  24276566.03158  24276563.87356  24276569.59256
   -717778.38248   -559305.73248  20589794.03248  20589793.81548  20589795.27048
 14 11 14 07 40 51.0000000  0  1 32
   -741262.84148   -577605.30848  20585325.28148  20585324.80648  20585326.50548
 14 11 14 07 40 52.0000000  0  2 01 32
         0.93558         0.97958  20204370.21059  20204370.84758  20204369.71658
   -764719.78048   -595883.44148  20580861.60248  20580861.38948  20580862.88048
 14 11 14 07 40 53.0000000  0  2 01 32
         0.25848         0.80847  20201226.62249  20201227.32948  20201240.52847
   -788148.43348   -614139.53048  20576403.01348  20576403.03148  20576404.63748
 14 11 14 07 40 54.0000000  0  2 01 32
         0.61348         0.37345  20198090.51049  20198091.30748  20198117.62645
   -811550.07348   -632374.57148  20571950.38648  20571949.84248  20571951.33848
 14 11 14 07 40 55.0000000  0  2 01 32
    -16435.05248    -12807.88842  20194963.12249  20194964.09348  20195006.43342
   -834922.29448   -650586.69048  20567502.57148  20567502.36948  20567503.76748
 14 11 14 07 40 56.0000000  0  2 01 32
    -32827.11348    -25578.01248  20191843.93449  20191844.40848  20191843.58048
   -858266.47848   -668776.96748  20563060.11148  20563060.15248  20563061.49748
 14 11 14 07 40 57.0000000  0  2 01 32
    -49176.57548    -38318.04648  20188732.52149  20188733.23248  20188736.46148
   -881583.12248   -686945.77748  20558623.18048  20558623.10748  20558624.65048
 14 11 14 07 40 58.0000000  0  2 01 32
    -65482.06648    -51023.62348  20185629.73349  20185630.48048  20185633.54048
   -904870.84948   -705092.05448  20554191.41048  20554191.46748  20554192.99748
 14 11 14 07 40 59.0000000  0  2 01 32
    -81743.06448    -63694.53248  20182535.48749  20182536.07148  20182539.55148
   -928129.12848   -723215.39248  20549765.56348  20549765.60648  20549767.18748
 14 11 14 07 41 00.0000000  0  8 01 04 11 19 20 23 27 32
    -97969.75248    -76338.69948  20179447.64549  20179448.27348  20179451.38948
 -21386750.43658 -16664997.98458  18980674.75759  18980675.34058  18980676.33558
 -20393200.59859 -15890801.62258  19656728.44159  19656728.66259  19656728.72358
  14151866.69958  11027429.28458  21923799.26458  21923798.92058  21923798.13858
  -5564223.71456  -4335755.21857  22733295.70458  22733295.62556  22733296.07157
  -8177209.29558  -6371851.60458  21813271.08658  21813271.31758  21813269.68958
  20125416.60656  15682138.97456  24346951.74658  24346951.00956  24346955.99156
   -951368.17248   -741323.72348  20545343.49748  20545343.49348  20545344.86048
 14 11 14 07 41 01.0000000  0  2 01 32
   -114161.78048    -88955.85248  20176366.35049  20176366.85248  20176370.07548
   -974587.61948   -759416.79848  20540925.06248  20540924.49448  20540926.60648
 14 11 14 07 41 02.0000000  0  2 01 32
   -130306.03248   -101535.70548  20173294.15049  20173294.70348  20173297.96248
   -997774.34648   -777484.28648  20536512.37648  20536512.33848  20536513.94848
 14 11 14 07 41 03.0000000  0  2 01 32
   -146398.44148   -114075.22748  20170231.67049  20170232.66048  20170235.77448
  -1020924.28448   -795523.18048  20532107.66948  20532106.92048  20532108.86048
 14 11 14 07 41 04.0000000  0  2 01 32
   -162452.65048   -126584.99148  20167176.76949  20167177.64648  20167180.76248
  -1044051.09348   -813544.06248  20527706.53349  20527706.37348  20527707.33148
 14 11 14 07 41 05.0000000  0  2 01 32
   -178470.29348   -139066.27548  20164128.64149  20164129.58748  20164132.60948
  -1067156.39648   -831548.19048  20523309.86249  20523309.20848  20523311.15748
 14 11 14 07 41 06.0000000  0  2 01 32
   -194438.34448   -151508.92148  20161090.31249  20161090.65948  20161094.02348
  -1090227.17148   -849525.42948  20518919.58549  20518919.26648  20518920.75648
 14 11 14 07 41 07.0000000  0  2 01 32
   -210354.67548   -163911.25248  20158060.98749  20158061.91548  20158065.33048
  -1113261.30248   -867474.09848  20514536.70748  20514536.05748  20514537.54048
 14 11 14 07 41 08.0000000  0  2 01 32
   -226232.59848   -176283.64748  20155039.96449  20155040.53348  20155043.95648
  -1136272.08548   -885404.56848  20510157.28549  20510157.16848  20510158.51148
 14 11 14 07 41 09.0000000  0  2 01 32
   -242073.90748   -188627.52548  20152025.63849  20152026.20548  20152029.31748
  -1159261.31748   -903318.25348  20505782.53948  20505782.72748  20505783.96248
 14 11 14 07 41 10.0000000  0  8 01 04 11 19 20 23 27 32
   -257865.39048   -200932.58748  20149020.21349  20149020.94348  20149024.42748
 -21445049.90158 -16710426.02958  18969580.64659  18969581.26258  18969582.26758
 -20373215.48459 -15875228.70659  19660531.41059  19660531.58459  19660531.69959
  14513358.98258  11309111.83658  21992588.69758  21992588.50958  21992587.64358
  -5677377.07656  -4423926.38357  22711763.09958  22711762.84756  22711763.57057
  -7959876.51258  -6202501.11258  21854627.93458  21854628.03058  21854626.51358
  20495620.69156  15970608.56156  24417398.84157  24417400.66656  24417403.12156
  -1182215.78048   -921204.85648  20501414.86349  20501413.98448  20501415.96248
 14 11 14 07 41 11.0000000  0  2 01 32
   -273606.83048   -213198.64348  20146024.95049  20146025.68548  20146028.87548
  -1205135.26248   -939064.19148  20497053.42449  20497052.99048  20497054.55648
 14 11 14 07 41 12.0000000  0  2 01 32
   -289310.01548   -225434.88148  20143036.53049  20143037.38648  20143040.43448
  -1228031.55048   -956905.44448  20492695.94649  20492696.04848  20492697.47448
 14 11 14 07 41 13.0000000  0  2 01 32
   -304977.29848   -237643.14848  20140055.16149  20140056.04848  20140059.02148
  -1250907.00548   -974730.46748  20488342.93949  20488342.92048  20488344.77648
 14 11 14 07 41 14.0000000  0  2 01 32
   -320594.87748   -249812.70448  20137083.39249  20137083.90648  20137087.30248
  -1273747.82248   -992528.51748  20483996.44149  20483996.37548  20483997.80648
 14 11 14 07 41 15.0000000  0  2 01 32
   -336160.37848   -261941.66248  20134121.20049  20134122.02648  20134125.27848
  -1296551.62048  -1010297.70548  20479657.36449  20479657.25248  20479658.52948
 14 11 14 07 41 16.0000000  0  2 01 32
   -351686.65948   -274040.04948  20131166.72749  20131167.51148  20131170.65648
  -1319331.26648  -1028048.06448  20475322.55249  20475322.22448  20475323.72548
 14 11 14 07 41 17.0000000  0  2 01 32
   -367176.25148   -286109.86248  20128219.38249  20128220.01048  20128223.03548
  -1342089.29448  -1045781.59248  20470991.73449  20470991.37048  20470993.02048
 14 11 14 07 41 18.0000000  0  2 01 32
   -382616.64948   -298141.34548  20125280.92849  20125281.74448  20125284.94448
  -1364813.18748  -1063488.52748  20466667.35949  20466667.17648  20466668.96448
 14 11 14 07 41 19.0000000  0  2 01 32
   -398003.78648   -310131.32448  20122353.10149  20122353.67648  20122356.68648
  -1387498.87348  -1081165.68248  20462350.33849  20462350.25048  20462351.75348
 14 11 14 07 41 20.0000000  0  8 01 04 11 19 20 23 27 32
   -413352.85848   -322091.62448  20119431.96849  20119432.82248  20119436.03648
 -21497789.78859 -16751522.03658  18959544.54359  18959545.14959  18959546.20358
 -20347840.26059 -15855455.80459  19665360.24759  19665360.39159  19665360.46159
  14876985.31358  11592457.00457  22061784.52758  22061784.06558  22061783.37657
  -5788700.92456  -4510672.20757  22690578.93358  22690578.27756  22690579.31057
  -7740981.06758  -6031933.24958  21896282.32458  21896282.52458  21896280.84358
  20866191.61656  16259362.74756  24487916.74157  24487919.47856  24487921.97656
  -1410161.56248  -1098824.90348  20458037.98349  20458037.77748  20458039.08248
 14 11 14 07 41 21.0000000  0  2 01 32
   -428665.13048   -334023.27048  20116518.13749  20116518.92048  20116522.19448
  -1432802.52148  -1116467.21248  20453729.84149  20453729.44048  20453730.70548
 14 11 14 07 41 22.0000000  0  2 01 32
   -443927.86248   -345916.31648  20113613.83149  20113614.40548  20113617.69748
  -1455408.99648  -1134082.65448  20449427.28549  20449427.44148  20449428.88648
 14 11 14 07 41 23.0000000  0  2 01 32
   -459138.41348   -357768.69248  20110719.24949  20110720.14948  20110723.44248
  -1477978.33748  -1151669.15448  20445132.65949  20445132.52048  20445134.35548
 14 11 14 07 41 24.0000000  0  2 01 32
   -474308.79748   -369589.76548  20107832.46449  20107833.15048  20107836.48448
  -1500522.58248  -1169236.08948  20440842.71549  20440842.54548  20440844.29948
 14 11 14 07 41 25.0000000  0  2 01 32
   -489444.87848   -381384.11148  20104952.07549  20104952.82348  20104956.19748
  -1523047.56748  -1186788.02448  20436556.55849  20436555.91548  20436557.81248
 14 11 14 07 41 26.0000000  0  2 01 32
   -504532.57448   -393140.76348  20102081.05149  20102081.47348  20102084.90348
  -1545539.22848  -1204314.00148  20432276.41349  20432276.06448  20432277.84248
 14 11 14 07 41 27.0000000  0  2 01 32
   -519566.47148   -404855.48248  20099220.34349  20099220.92248  20099224.19148
  -1567992.14348  -1221809.77048  20428004.07449  20428003.55148  20428005.00448
 14 11 14 07 41 28.0000000  0  2 01 32
   -534560.13548   -416538.85048  20096367.03849  20096367.83348  20096371.15848
  -1590419.88748  -1239285.92648  20423736.09849  20423735.57248  20423737.23048
 14 11 14 07 41 29.0000000  0  2 01 32
   -549516.53348   -428193.19148  20093520.76449  20093521.74348  20093524.73248
  -1612825.42948  -1256744.79348  20419472.26549  20419472.16448  20419473.67748
 14 11 14 07 41 30.0000000  0  7 01 04 11 19 20 23 32
   -564429.83148   -439813.93648  20090682.91949  20090683.88348  20090686.87448
 -21544960.52359 -16788278.43959  18950568.32059  18950568.83559  18950569.88959
 -20317084.36659 -15831490.16659  19671212.83459  19671213.05659  19671213.22559
  15242682.38458  11877415.73657  22131374.29658  22131373.94558  22131373.14557
  -5898176.96556  -4595978.19257  22669746.24958  22669746.00956  22669746.42357
  -7520548.55258  -5860167.68658  21938229.20458  21938229.36458  21938227.92758
  -1635202.92448  -1274181.79548  20415214.10549  20415213.76048  20415215.63248
 14 11 14 07 41 31.0000000  0  2 01 32
   -579300.43648   -451401.42048  20087853.09049  20087853.97748  20087857.33448
  -1657552.79348  -1291597.27648  20410960.78749  20410960.67248  20410962.62048
 14 11 14 07 41 32.0000000  0  2 01 32
   -594127.68148   -462955.11748  20085031.73349  20085032.45448  20085035.77748
  -1679874.34648  -1308990.69448  20406713.13349  20406713.04148  20406714.79348
 14 11 14 07 41 33.0000000  0  2 01 32
   -608909.89948   -474473.72848  20082218.76249  20082219.45448  20082222.77548
  -1702165.91348  -1326360.74448  20402471.44249  20402471.17548  20402472.79848
 14 11 14 07 41 34.0000000  0  2 01 32
   -623647.90548   -485957.88348  20079414.18749  20079415.06048  20079418.23148
  -1724428.31248  -1343708.06648  20398235.22549  20398234.34248  20398235.97848
 14 11 14 07 41 35.0000000  0  2 01 32
   -638340.49748   -497406.66048  20076618.49449  20076619.00648  20076622.29948
  -1746660.35148  -1361031.73248  20394004.16649  20394004.08248  20394005.53348
 14 11 14 07 41 36.0000000  0  2 01 32
   -652988.22748   -508820.48048  20073830.97549  20073831.53548  20073834.80348
  -1768862.57548  -1378332.16748  20389779.47449  20389779.30148  20389780.64048
 14 11 14 07 41 37.0000000  0  2 01 32
   -667590.48248   -520198.85448  20071052.25849  20071052.91348  20071056.23248
  -1791034.35848  -1395608.87848  20385560.24249  20385559.86248  20385561.98548
 14 11 14 07 41 38.0000000  0  2 01 32
   -682148.23648   -531542.55548  20068282.00149  20068282.70748  20068285.87648
  -1813176.70048  -1412862.64648  20381346.67049  20381346.31948  20381348.10748
 14 11 14 07 41 39.0000000  0  2 01 32
   -696660.13048   -542850.52448  20065520.39749  20065521.10348  20065524.36748
  -1835288.21348  -1430092.39448  20377139.05649  20377138.65248  20377140.43348
 14 11 14 07 41 40.0000000  0  7 01 04 11 19 20 23 32
   -711127.00948   -554123.41548  20062767.25349  20062767.98848  20062771.48748
 -21586639.55159 -16820755.59859  18942637.08659  18942637.62159  18942638.64459
 -20281044.18059 -15803406.90559  19678071.06859  19678071.22359  19678071.37559
  15610300.53657  12163871.42057  22201329.78558  22201329.37557  22201328.80257
  -6005873.74756  -4679897.74657  22649251.94458  22649251.87456  22649252.85057
  -7298691.01158  -5687291.70358  21980447.28258  21980447.46758  21980445.95158
  -1857369.75448  -1447298.78748  20372936.98249  20372936.55248  20372938.18748
 14 11 14 07 41 41.0000000  0  2 01 32
   -725548.27048   -565360.75848  20060023.32249  20060023.95848  20060027.12848
  -1879420.71048  -1464481.34848  20368740.99049  20368740.58248  20368742.02048
 14 11 14 07 41 42.0000000  0  2 01 32
   -739916.20748   -576556.56248  20057289.10049  20057289.51648  20057293.06748
  -1901433.37548  -1481634.08648  20364551.91449  20364551.81148  20364553.30448
 14 11 14 07 41 43.0000000  0  2 01 32
   -754229.71348   -587709.94348  20054565.42349  20054566.03148  20054569.08348
  -1923406.64348  -1498756.10348  20360370.53049  20360370.27748  20360372.02148
 14 11 14 07 41 44.0000000  0  2 01 32
   -768503.85448   -598832.63948  20051849.11149  20051850.02048  20051853.03048
  -1945355.59048  -1515859.16448  20356193.96049  20356193.52248  20356195.52848
 14 11 14 07 41 45.0000000  0  2 01 32
   -782740.46848   -609926.09948  20049139.83649  20049140.44048  20049143.73148
  -1967282.01448  -1532944.68948  20352021.44849  20352020.83648  20352022.83448
 14 11 14 07 41 46.0000000  0  2 01 32
   -796924.98548   -620978.97448  20046440.71249  20046441.25348  20046444.60648
  -1989171.39148  -1550001.35348  20347855.93049  20347855.80348  20347857.27848
 14 11 14 07 41 47.0000000  0  1 01
   -811057.27648   -631991.15248  20043751.16149  20043752.07548  20043755.39248
 14 11 14 07 41 48.0000000  0  1 01
   -825149.58248   -642972.16448  20041069.54649  20041070.48348  20041073.61848
 14 11 14 07 41 49.0000000  0  1 01
   -839203.32548   -653923.12948  20038395.62149  20038396.07848  20038399.22748
 14 11 14 07 41 50.0000000  0  6 01 04 11 19 20 23
   -853206.02648   -664834.33048  20035730.59549  20035731.24848  20035734.60548
 -21622603.29759 -16848779.28459  18935793.36159  18935793.92359  18935794.97159
 -20239514.87259 -15771046.39959  19685973.87759  19685974.00659  19685974.15059
  15979993.39757  12451943.75057  22271680.02758  22271679.84457  22271678.87757
  -6111556.95556  -4762248.27157  22629141.17258  22629140.73156  22629141.89257
  -7075217.77757  -5513156.73758  22022972.91258  22022973.36657  22022971.68458
 14 11 14 07 41 51.0000000  0  1 01
   -867155.80348   -675704.28848  20033076.25849  20033076.71148  20033080.27548
 14 11 14 07 41 52.0000000  0  1 01
   -881066.28748   -686543.61848  20030429.09349  20030429.74948  20030432.96848
 14 11 14 07 41 53.0000000  0  1 01
   -894937.83648   -697352.61648  20027789.61749  20027790.22348  20027793.15648
 14 11 14 07 41 54.0000000  0  2 01 31
   -908758.30148   -708121.81848  20025159.32049  20025160.03848  20025163.39248
         0.65958         0.79657  20719197.97958  20719198.47958  20719198.07857
 14 11 14 07 41 55.0000000  0  2 01 31
   -922525.35348   -718849.38548  20022539.52049  20022540.20248  20022543.75748
         0.54948         0.99246  20716761.07648  20716761.07148  20716775.94046
 14 11 14 07 41 56.0000000  0  2 01 31
   -936252.26448   -729545.67248  20019927.46949  20019928.34948  20019931.51448
         0.25348         0.15843  20714327.31948  20714327.46948  20714355.45343
 14 11 14 07 41 57.0000000  0  2 01 31
   -949940.82948   -740212.08648  20017322.71449  20017323.33448  20017326.61048
    -12773.52448     -9954.59645  20711896.28648  20711897.21348  20711941.05145
 14 11 14 07 41 58.0000000  0  2 01 31
   -963577.77148   -750838.28548  20014727.65649  20014728.36048  20014731.58848
    -25518.53248    -19882.27448  20709470.86048  20709471.42748  20709467.82148
 14 11 14 07 41 59.0000000  0  2 01 31
   -977160.35048   -761422.10548  20012142.73549  20012143.61948  20012146.84548
    -38232.05848    -29789.13448  20707051.33348  20707051.89748  20707052.15648
 14 11 14 07 42 00.0000000  0  8 01 04 11 19 20 23 31 32
   -990701.42548   -771973.58348  20009566.03049  20009566.93548  20009570.06748
 -21652933.04659 -16872412.84659  18930021.82159  18930022.36859  18930023.35059
 -20192596.68059 -15734486.76658  19694902.03359  19694902.18959  19694902.35558
  16351611.28457  12741516.10357  22342396.65558  22342396.01357  22342395.68257
  -6215296.12656  -4843083.95457  22609400.46658  22609399.79956  22609400.97657
  -6850241.72457  -5337850.74158  22065784.57158  22065784.91757  22065782.90058
    -50926.98248    -39681.28148  20704635.96348  20704636.27848  20704635.99848
  -2292396.96158  -1786280.98958  20290153.98359  20290153.83058  20290155.33758
 14 11 14 07 42 01.0000000  0  2 01 31
  -1004204.01948   -782495.08548  20006996.64349  20006997.74348  20007000.60648
    -63606.34748    -49561.29748  20702223.09248  20702223.81848  20702223.33348
 14 11 14 07 42 02.0000000  0  2 01 31
  -1017655.95148   -792977.12148  20004437.12749  20004437.42748  20004440.94648
    -76257.99148    -59419.73548  20699815.47148  20699816.31348  20699815.50548
 14 11 14 07 42 03.0000000  0  2 01 31
  -1031054.86848   -803417.83248  20001886.99949  20001887.78548  20001891.16548
    -88879.56948    -69254.72148  20697413.74048  20697414.31248  20697414.21648
 14 11 14 07 42 04.0000000  0  2 01 31
  -1044413.18748   -813826.90048  19999345.20749  19999345.97848  19999349.00748
   -101483.53748    -79075.98248  20695014.88048  20695016.06248  20695015.14748
 14 11 14 07 42 05.0000000  0  2 01 31
  -1057731.84548   -824205.07748  19996810.76049  19996811.45548  19996814.58448
   -114070.83148    -88884.26748  20692619.84348  20692620.62948  20692619.73448
 14 11 14 07 42 06.0000000  0  2 01 31
  -1070998.83848   -834543.00248  19994286.04649  19994286.66348  19994290.05248
   -126629.48148    -98670.23648  20690229.90048  20690230.60148  20690230.49948
 14 11 14 07 42 07.0000000  0  2 01 31
  -1084212.28648   -844839.19648  19991771.52849  19991772.35248  19991775.57948
   -139157.61748   -108432.42148  20687846.13848  20687846.86348  20687846.26048
 14 11 14 07 42 08.0000000  0  2 01 31
  -1097386.69248   -855104.95748  19989264.60349  19989265.35648  19989268.66348
   -151669.77748   -118182.15148  20685465.29648  20685466.15848  20685465.49348
 14 11 14 07 42 09.0000000  0  2 01 31
  -1110522.39048   -865340.56648  19986764.88749  19986765.62248  19986768.92148
   -164166.29248   -127919.68448  20683087.17648  20683087.57048  20683087.40748
 14 11 14 07 42 10.0000000  0  8 01 04 11 19 20 23 31 32
  -1123606.43348   -875535.92948  19984275.00349  19984275.95848  19984279.06448
 -21677616.95159 -16891647.04359  18925324.61259  18925325.15059  18925326.18059
 -20140296.38959 -15693733.29258  19704854.46159  19704854.60859  19704854.73358
  16725099.52557  13032545.88657  22413469.22058  22413468.70757  22413467.94057
  -6317066.06556  -4922385.18157  22590034.00858  22590033.89056  22590034.64557
  -6623780.94057  -5161387.80358  22108878.55658  22108878.62057  22108877.22658
   -176634.25848   -137634.98348  20680714.52248  20680715.44548  20680714.83148
  -2505265.85858  -1952152.83758  20249646.36059  20249646.13158  20249647.73658
 14 11 14 07 42 11.0000000  0  2 01 31
  -1136637.47348   -885689.98848  19981795.52049  19981796.19448  19981799.43848
   -189072.31948   -147326.98548  20678347.41148  20678348.35648  20678347.42948
 14 11 14 07 42 12.0000000  0  2 01 31
  -1149626.77448   -895811.51548  19979323.71249  19979324.37948  19979327.59148
   -201491.77748   -157004.47248  20675984.28648  20675984.77748  20675985.04448
 14 11 14 07 42 13.0000000  0  2 01 31
  -1162576.83248   -905902.46748  19976859.17749  19976860.09448  19976863.40548
   -213895.15448   -166669.43948  20673624.04248  20673624.85348  20673624.66248
 14 11 14 07 42 14.0000000  0  2 01 31
  -1175475.24748   -915953.19048  19974404.87649  19974405.64348  19974408.85248
   -226270.05548   -176312.22648  20671268.94048  20671269.86748  20671269.39548
 14 11 14 07 42 15.0000000  0  2 01 31
  -1188316.93548   -925959.70348  19971961.24049  19971961.84748  19971964.97548
   -238611.40648   -185928.87148  20668920.84748  20668921.52448  20668920.90648
 14 11 14 07 42 16.0000000  0  2 01 31
  -1201117.05748   -935933.81148  19969525.23149  19969526.36648  19969529.51848
   -250934.41148   -195531.19748  20666575.65248  20666576.04348  20666576.10348
 14 11 14 07 42 17.0000000  0  2 01 31
  -1213880.13648   -945879.06048  19967096.57449  19967097.31548  19967100.51648
   -263243.60548   -205122.77748  20664233.46748  20664234.24448  20664233.35448
 14 11 14 07 42 18.0000000  0  2 01 31
  -1226589.90948   -955782.79248  19964677.98049  19964678.62648  19964682.10948
   -275522.74048   -214690.92948  20661896.65048  20661897.21148  20661897.17748
 14 11 14 07 42 19.0000000  0  2 01 31
  -1239244.88348   -965643.81948  19962269.86649  19962270.42548  19962273.90848
   -287770.32748   -224234.51548  20659565.79148  20659567.00448  20659566.41348
 14 11 14 07 42 20.0000000  0  8 01 04 11 19 20 23 31 32
  -1251860.50348   -975474.15848  19959869.30349  19959869.75248  19959873.11348
 -21696659.82859 -16906485.64259  18921700.83559  18921701.42859  18921702.46059
 -20082637.17959 -15648804.04158  19715826.65159  19715826.80959  19715826.95758
  17100388.77757  13324979.04057  22484884.46658  22484883.98557  22484883.26557
  -6416856.93257  -5000144.27457  22571044.53658  22571044.24657  22571045.41757
  -6395868.78957  -4983793.95158  22152248.94258  22152248.88457  22152247.35558
   -300001.84948   -233765.56048  20657238.29448  20657239.05248  20657238.75248
  -2714996.93958  -2115579.63558  20209735.87759  20209735.65858  20209737.19258
 14 11 14 07 42 21.0000000  0  1 31
   -312215.23748   -243282.48148  20654914.25748  20654915.23648  20654914.20248
 14 11 14 07 42 22.0000000  0  1 31
   -324400.91448   -252777.82048  20652595.32048  20652596.15448  20652595.79648
 14 11 14 07 42 23.0000000  0  1 31
   -336555.09148   -262248.60248  20650282.54548  20650283.49148  20650283.05548
 14 11 14 07 42 24.0000000  0  1 31
   -348690.80648   -271704.99348  20647973.42248  20647973.79448  20647973.65148
 14 11 14 07 42 25.0000000  0  1 31
   -360811.70648   -281149.85748  20645666.80548  20645667.32248  20645666.79048
 14 11 14 07 42 26.0000000  0  1 31
   -372905.91548   -290573.92148  20643365.25248  20643365.55948  20643365.32248
 14 11 14 07 42 27.0000000  0  1 31
   -384970.63348   -299975.00148  20641069.37148  20641069.82648  20641069.57848
 14 11 14 07 42 28.0000000  0  1 31
   -397017.91248   -309362.47648  20638777.12848  20638777.41648  20638777.12848
 14 11 14 07 42 29.0000000  0  1 31
   -409047.00848   -318735.79548  20636487.80548  20636488.66248  20636488.05048
 14 11 14 07 42 30.0000000  0  8 01 04 11 19 20 23 31 32
  -1375455.18758  -1071781.70158  19936349.81059  19936350.61058  19936353.92358
 -21710051.01259 -16916920.31959  18919152.58859  18919153.08559  18919154.19559
 -20019626.72459 -15599704.98158  19727817.06559  19727817.30159  19727817.44058
  17477426.90457  13618774.95757  22556632.29758  22556631.83557  22556631.41857
  -6514642.08157  -5076340.45757  22552436.42858  22552436.43257  22552437.05357
  -6166521.45557  -4805081.75658  22195892.13858  22195892.15457  22195890.66258
   -421044.85248   -328084.76548  20634204.89148  20634205.57548  20634204.73848
  -2921546.39958  -2276527.24158  20170430.74759  20170430.55858  20170432.20658
 14 11 14 07 42 31.0000000  0  1 31
   -433011.91348   -337409.75348  20631927.55348  20631927.85048  20631927.56748
 14 11 14 07 42 32.0000000  0  1 31
   -444961.69448   -346721.26648  20629653.48148  20629653.90448  20629653.90348
 14 11 14 07 42 33.0000000  0  1 31
   -456897.38348   -356021.79148  20627382.47148  20627382.86348  20627383.12448
 14 11 14 07 42 34.0000000  0  1 31
   -468804.37448   -365299.97548  20625116.80848  20625116.92648  20625116.68548
 14 11 14 07 42 35.0000000  0  1 31
   -480680.50648   -374554.11448  20622856.82348  20622857.01148  20622856.56648
 14 11 14 07 42 36.0000000  0  1 31
   -492537.61748   -383793.40348  20620600.07748  20620601.08448  20620600.67948
 14 11 14 07 42 37.0000000  0  1 31
   -504379.03748   -393020.48148  20618347.10848  20618347.75848  20618346.80548
 14 11 14 07 42 38.0000000  0  1 31
   -516191.42948   -402224.94548  20616098.88948  20616099.59748  20616099.45448
 14 11 14 07 42 39.0000000  0  1 31
   -527972.06948   -411404.67748  20613857.12348  20613857.84748  20613857.74348
 14 11 14 07 42 40.0000000  0  8 01 04 11 19 20 23 31 32
  -1494362.95758  -1164437.10458  19913722.51659  19913723.24058  19913726.49858
 -21717809.85559 -16922966.16359  18917676.13259  18917676.65259  18917677.65259
 -19951302.58159 -15546465.39558  19740818.77359  19740818.92859  19740819.05158
  17856133.80357  13913871.23057  22628698.11258  22628697.45357  22628696.97257
  -6610423.50157  -5150975.30157  22534209.97558  22534209.93457  22534210.29957
  -5935783.53657  -4625285.99458  22239800.14458  22239800.34557  22239798.72758
   -539735.01348   -420570.59248  20611618.71548  20611619.27448  20611619.09548
  -3124898.99858  -2434983.79558  20131734.05659  20131733.85358  20131735.42558
 14 11 14 07 42 41.0000000  0  1 31
   -551482.06248   -429724.13548  20609383.10548  20609384.27348  20609383.23748
 14 11 14 07 42 42.0000000  0  1 31
   -563199.62348   -438854.69748  20607153.77448  20607153.87648  20607153.90948
 14 11 14 07 42 43.0000000  0  1 31
   -574887.94448   -447962.48448  20604929.20048  20604930.10848  20604929.65248
 14 11 14 07 42 44.0000000  0  1 31
   -586558.56248   -457056.45748  20602708.56248  20602709.36748  20602708.84148
 14 11 14 07 42 45.0000000  0  1 31
   -598212.24448   -466137.24248  20600491.33948  20600491.60248  20600491.19648
 14 11 14 07 42 46.0000000  0  1 31
   -609836.25048   -475194.92748  20598278.84048  20598279.73248  20598279.16748
 14 11 14 07 42 47.0000000  0  1 31
   -621429.12648   -484228.33948  20596072.85848  20596073.50848  20596072.63248
 14 11 14 07 42 48.0000000  0  1 31
   -633003.15648   -493247.05048  20593870.32648  20593871.11348  20593870.63548
 14 11 14 07 42 49.0000000  0  1 31
   -644562.59048   -502254.39248  20591670.68848  20591671.42448  20591670.96748
 14 11 14 07 42 50.0000000  0  8 01 04 11 19 20 23 31 32
  -1608554.08058  -1253417.18658  19891992.70559  19891993.41258  19891996.71358
 -21719932.52059 -16924620.16859  18917272.19759  18917272.69059  18917273.68959
 -19877678.87559 -15489096.26858  19754828.90759  19754829.12359  19754829.11458
  18236454.38657  14210224.90557  22701070.59758  22701069.99357  22701069.81457
  -6704178.57157  -5224031.15157  22516369.21658  22516368.66757  22516369.57957
  -5703675.01157  -4444422.21257  22283968.89058  22283969.18657  22283967.58257
   -656093.13648   -511239.23948  20589476.75748  20589477.33448  20589476.81548
  -3325015.23758  -2590918.49758  20093653.16959  20093652.99058  20093654.62058
 14 11 14 07 42 51.0000000  0  1 31
   -667591.98648   -520199.38548  20587288.07748  20587288.95648  20587289.02348
 14 11 14 07 42 52.0000000  0  1 31
   -679063.61448   -529138.30548  20585105.38848  20585106.16048  20585105.71148
 14 11 14 07 42 53.0000000  0  1 31
   -690510.03948   -538057.60948  20582927.62348  20582927.68548  20582927.26948
 14 11 14 07 42 54.0000000  0  1 31
   -701938.99548   -546963.27648  20580752.49448  20580753.25048  20580752.56348
 14 11 14 07 42 55.0000000  0  1 31
   -713352.63648   -555857.02348  20578580.33748  20578581.25748  20578580.79348
 14 11 14 07 42 56.0000000  0  1 31
   -724738.13848   -564728.84748  20576413.59348  20576414.46548  20576413.89948
 14 11 14 07 42 57.0000000  0  1 31
   -736092.64248   -573576.51248  20574253.26248  20574254.13248  20574253.19048
 14 11 14 07 42 58.0000000  0  1 31
   -747426.99148   -582408.45948  20572096.44048  20572096.68348  20572096.34448
 14 11 14 07 42 59.0000000  0  1 31
   -758745.10748   -591227.76448  20569942.39648  20569942.80648  20569942.60048
 14 11 14 07 43 00.0000000  0  8 01 04 11 19 20 23 31 32
  -1717957.18658  -1338666.35358  19871174.01459  19871174.69758  19871177.89758
 -21716378.25359 -16921850.59959  18917948.51859  18917949.02359  18917950.02459
 -19798732.83059 -15427579.87158  19769851.81759  19769852.06059  19769852.08858
  18618372.21657  14507823.19057  22773747.28458  22773746.61557  22773745.97257
  -6795846.56957  -5295460.73157  22498925.17358  22498925.28957  22498925.49757
  -5470177.42957  -4262476.06657  22328402.19658  22328402.09257  22328400.65957
   -770034.43148   -600024.65248  20567794.17148  20567794.53248  20567794.30348
  -3521817.43458  -2744270.83358  20056202.95159  20056202.72358  20056204.33158
 14 11 14 07 43 01.0000000  0  1 31
   -781293.03048   -608797.57648  20565651.27248  20565652.43348  20565652.44748
 14 11 14 07 43 02.0000000  0  1 31
   -792533.48248   -617556.36848  20563512.49248  20563513.24548  20563512.80748
 14 11 14 07 43 03.0000000  0  1 31
   -803757.41948   -626302.28648  20561376.83348  20561377.69448  20561377.05948
 14 11 14 07 43 04.0000000  0  1 31
   -814952.51648   -635025.74848  20559246.60448  20559246.93148  20559246.86348
 14 11 14 07 43 05.0000000  0  1 31
   -826114.80448   -643723.63648  20557122.49548  20557122.81348  20557123.02848
 14 11 14 07 43 06.0000000  0  1 31
   -837259.21148   -652407.57148  20555001.53948  20555002.73048  20555002.11348
 14 11 14 07 43 07.0000000  0  1 31
   -848387.22148   -661078.74448  20552883.99148  20552884.89548  20552884.63948
 14 11 14 07 43 08.0000000  0  1 31
   -859486.15548   -669727.27448  20550772.33448  20550772.70048  20550772.43548
 14 11 14 07 43 09.0000000  0  1 31
   -870554.06348   -678351.61548  20548666.22048  20548666.43548  20548665.94448
 14 11 14 07 43 10.0000000  0  8 01 04 11 19 20 23 31 32
  -1822571.63758  -1420184.10358  19851266.52159  19851267.22958  19851270.43858
 -21707177.83659 -16914681.43559  18919699.22859  18919699.83459  18919700.86259
 -19714512.58459 -15361953.71458  19785878.45459  19785878.60859  19785878.69058
  19001801.67557  14806599.37457  22846711.45558  22846710.98057  22846710.45457
  -6885436.55457  -5365271.07557  22481876.62358  22481876.38757  22481876.98357
  -5235341.99757  -4079487.43957  22373089.89358  22373090.01057  22373088.42657
   -881585.86348   -686947.83148  20546566.52348  20546567.39348  20546566.98448
  -3715297.87158  -2895034.78858  20019384.91059  20019384.66358  20019386.21858
 14 11 14 07 43 11.0000000  0  1 31
   -892583.12948   -695517.11848  20544473.97048  20544474.94848  20544474.26048
 14 11 14 07 43 12.0000000  0  1 31
   -903560.44048   -704070.86048  20542385.01248  20542385.82648  20542385.10848
 14 11 14 07 43 13.0000000  0  1 31
   -914519.91148   -712610.70748  20540299.90648  20540300.29448  20540299.96548
 14 11 14 07 43 14.0000000  0  1 31
   -925467.46148   -721141.26148  20538216.06548  20538216.97248  20538216.67148
 14 11 14 07 43 15.0000000  0  1 31
   -936400.73848   -729660.69448  20536135.95648  20536136.31948  20536135.61148
 14 11 14 07 43 16.0000000  0  1 31
   -947305.94548   -738158.26548  20534060.73448  20534060.99748  20534060.64148
 14 11 14 07 43 17.0000000  0  1 31
   -958179.41348   -746631.10648  20531991.70548  20531992.21848  20531992.08448
 14 11 14 07 43 18.0000000  0  1 31
   -969033.71048   -755088.97848  20529925.98148  20529926.70648  20529926.09248
 14 11 14 07 43 19.0000000  0  1 31
   -979872.60048   -763534.86248  20527863.22248  20527864.28648  20527863.69748
 14 11 14 07 43 20.0000000  0  8 01 04 11 19 20 23 31 32
  -1922317.51858  -1497908.15258  19832285.47659  19832286.12558  19832289.42958
 -21692282.98059 -16903075.03859  18922533.70759  18922534.18759  18922535.13459
 -19624987.20659 -15292193.68458  19802914.56959  19802914.70359  19802914.85658
  19386737.74057  15106549.52757  22919962.43458  22919961.86357  22919961.38557
  -6972877.50257  -5433406.84957  22465237.06858  22465236.74957  22465237.54857
  -4999139.53257  -3895433.58357  22418037.61458  22418037.75257  22418036.16157
   -990681.00248   -771957.01248  20525806.50948  20525807.61048  20525806.70148
  -3905368.88958  -3043142.05258  19983215.53159  19983215.27758  19983216.78258
 14 11 14 07 43 21.0000000  0  1 31
  -1001457.23448   -780354.06848  20523755.63748  20523756.46248  20523756.19448
 14 11 14 07 43 22.0000000  0  1 31
  -1012215.38348   -788737.03248  20521708.81548  20521709.23048  20521708.60448
 14 11 14 07 43 30.0000000  0  8 01 04 11 19 20 23 31 32
  -2017261.20358  -1571890.22858  19814218.27259  19814219.00458  19814222.29358
 -21671792.31559 -16887108.27259  18926432.87559  18926433.40659  18926434.48959
 -19530272.38459 -15218389.92758  19820938.19259  19820938.34859  19820938.42958
  19773030.60857  15407556.93157  22993471.37758  22993471.09057  22993470.43457
  -7058243.84757  -5499926.04457  22448992.58558  22448992.29057  22448992.52257
  -4761686.06457  -3710404.92657  22463223.29658  22463223.81057  22463222.07357
  -1097395.02248   -855110.76248  20505499.54348  20505500.14248  20505499.72948
  -4092088.49258  -3188637.81858  19947683.86859  19947683.65058  19947685.31858
 14 11 14 07 43 40.0000000  0  8 01 04 11 19 20 23 31 32
  -2107214.76348  -1641983.90348  19797100.58749  19797101.38148  19797104.67048
 -21645550.52249 -16866660.11349  18931426.48449  18931427.06349  18931428.02149
 -19430229.66149 -15140434.55848  19839975.71449  19839975.86149  19839975.91648
  20160786.28947  15709704.18147  23067258.59448  23067258.54847  23067258.02347
  -7141354.90647  -5564687.89047  22433176.93248  22433176.91147  22433177.49847
  -4522842.16147  -3524292.80547  22508674.07948  22508674.36547  22508672.78847
  -1201563.46048   -936280.96148  20485676.90848  20485677.58048  20485677.09448
  -4275259.51748  -3331368.46348  19912827.64349  19912827.35648  19912828.90648
 14 11 14 07 43 50.0000000  0  8 01 04 11 19 20 23 31 32
  -2192353.51548  -1708325.77848  19780899.36349  19780900.00648  19780903.33448
 -21613766.12349 -16841893.04149  18937474.85849  18937475.37949  18937476.38049
 -19325084.00749 -15058502.87948  19859984.21649  19859984.39349  19859984.50348
  20549748.97447  16012791.95947  23141276.13548  23141275.50447  23141274.77647
  -7222392.28447  -5627833.88047  22417756.00948  22417755.84947  22417756.68247
  -4282830.57747  -3337270.80647  22554346.81848  22554346.96947  22554345.22347
  -1303368.91648  -1015609.86848  20466304.03748  20466304.61548  20466304.23448
  -4455047.51548  -3471462.98748  19878615.10449  19878614.90848  19878616.40748
 14 11 14 07 44 00.0000000  0  8 01 04 11 19 20 23 31 32
  -2272478.58848  -1770760.88949  19765652.00749  19765652.72548  19765655.99449
 -21576273.80149 -16812678.23649  18944609.37849  18944609.87949  18944610.89749
 -19214686.33049 -14972478.72048  19880992.16049  19880992.36749  19880992.44348
  20940038.64246  16316913.75447  23215545.89948  23215545.16146  23215544.98547
  -7301162.42147  -5689213.18147  22402766.58748  22402766.42947  22402766.93347
  -4041498.63947  -3149219.97047  22600270.72448  22600270.83647  22600269.54747
  -1402623.79648  -1092951.31848  20447416.44448  20447417.01948  20447416.63948
  -4631242.94448  -3608758.10348  19845086.14949  19845085.88348  19845087.59948
 14 11 14 07 44 10.0000000  0  8 01 04 11 19 20 23 31 32
  -2347676.12048  -1829356.35449  19751342.35449  19751343.07448  19751346.37349
 -21533193.41049 -16779109.08749  18952807.29649  18952807.87649  18952808.78049
 -19099172.67549 -14882468.07548  19902973.70249  19902973.93649  19902973.94348
  21331491.76646  16621942.12047  23290036.83048  23290036.14146  23290036.46147
  -7377755.85747  -5748896.36247  22388191.26848  22388191.00747  22388191.42747
  -3798977.56147  -2960242.51847  22646420.97448  22646421.38547  22646419.65747
  -1499424.73848  -1168380.60448  20428995.79348  20428996.37148  20428996.18748
  -4803920.62748  -3743312.11748  19812226.64349  19812226.43148  19812228.03348
 14 11 14 07 44 20.0000000  0  8 01 04 11 19 20 23 31 32
  -2417954.68448  -1884118.86349  19737968.78649  19737969.49248  19737972.78249
 -21484567.94349 -16741219.10749  18962060.45249  18962060.92649  18962061.94549
 -18978601.37449 -14788516.41648  19925917.67849  19925917.83749  19925917.88648
  21724023.87046  16927811.27146  23364733.45648  23364732.60846  23364732.48946
  -7452184.60447  -5806892.76947  22374027.86448  22374027.78747  22374028.24447
  -3555319.73847  -2770379.30547  22692787.42748  22692787.31947  22692786.27147
  -1593789.90448  -1241911.88748  20411038.63948  20411039.33448  20411038.97548
  -4973077.12748  -3875122.35348  19780037.21549  19780036.99248  19780038.61648
 14 11 14 07 44 30.0000000  0  8 01 04 11 19 20 23 31 32
  -2483215.66848  -1934971.56549  19725550.03749  19725550.67548  19725554.00849
 -21430333.28549 -16698958.32349  18972380.85649  18972381.43749  18972382.49349
 -18852923.81449 -14690585.84548  19949833.29749  19949833.50149  19949833.65748
  22117659.40346  17234540.21946  23439639.64748  23439638.86046  23439638.73946
  -7524352.70647  -5863127.62847  22360294.80648  22360294.51747  22360295.10347
  -3310469.17447  -2579586.66647  22739381.06048  22739381.12447  22739379.73847
  -1685629.30448  -1313475.04148  20393562.17148  20393562.85648  20393562.51348
  -5138601.06248  -4004102.02048  19748539.05349  19748538.84848  19748540.48948
 14 11 14 07 44 40.0000000  0  8 01 04 11 19 20 23 31 32
  -2543483.73248  -1981933.68249  19714081.23349  19714082.09048  19714085.36749
 -21370548.91049 -16652373.08749  18983757.55349  18983758.05049  18983759.04549
 -18722214.51849 -14588734.44248  19974706.41749  19974706.66549  19974706.66748
  22512301.10846  17542053.20146  23514737.35248  23514736.97946  23514736.97746
  -7594286.43647  -5917621.42547  22346987.06748  22346986.56347  22346987.20747
  -3064491.88847  -2387916.07447  22786189.04348  22786189.02947  22786187.71047
  -1774975.26948  -1383095.26048  20376560.23948  20376560.79748  20376560.43148
  -5300503.64548  -4130259.85348  19717730.01749  19717729.73248  19717731.42948
 14 11 14 07 44 50.0000000  0  8 01 04 11 19 20 23 31 32
  -2598698.39048  -2024958.08049  19703574.29549  19703575.03748  19703578.34349
 -21305189.60249 -16601443.74549  18996194.98949  18996195.53749  18996196.53249
 -18586462.94249 -14482953.99448  20000539.07349  20000539.32949  20000539.33348
  22907938.42446  17850341.99646  23590024.78348  23590024.98846  23590023.53946
  -7661926.07747  -5970327.61847  22334115.52648  22334115.39147  22334115.17347
  -2817367.51447  -2195351.63947  22833215.41848  22833215.37647  22833214.04947
  -1861774.12848  -1450730.71748  20360042.92348  20360043.45048  20360043.24248
  -5458710.18048  -4253537.64948  19687624.30149  19687623.94448  19687625.63548
 14 11 14 07 45 00.0000000  0  8 01 04 11 19 20 23 31 32
  -2648840.23348  -2064029.63249  19694032.60149  19694033.40048  19694036.67149
 -21234271.28749 -16546182.71549  19009690.27949  19009690.78349  19009691.78549
 -18445699.38949 -14373268.11248  20027325.53249  20027325.73549  20027325.72448
  23304521.52046  18159367.73346  23665492.03448  23665491.68346  23665490.95246
  -7727251.95447  -6021230.87947  22321684.35048  22321684.06247  22321684.74247
  -2569115.33347  -2001908.39547  22880456.00848  22880456.42947  22880454.91147
  -1946012.23348  -1516370.78748  20344012.92248  20344013.55848  20344013.15848
  -5613186.36448  -4373908.67948  19658228.41549  19658228.21748  19658229.87748
 14 11 14 07 45 10.0000000  0  8 01 04 11 19 20 23 31 32
  -2693923.48948  -2099159.42749  19685453.54849  19685454.30148  19685457.59149
 -21157843.91449 -16486628.90949  19024233.94549  19024234.44049  19024235.42849
 -18299987.50149 -14259726.38448  20055053.52549  20055053.76349  20055053.79648
  23701968.39346  18469066.58746  23741123.72048  23741123.42946  23741122.63546
  -7790277.01347  -6070341.29347  22309691.23448  22309690.74047  22309691.30947
  -2319787.09547  -1807626.67047  22927901.54048  22927901.88147  22927900.32247
  -2027708.57748  -1580030.26048  20328466.73548  20328467.18548  20328466.92248
  -5763930.82148  -4491371.87248  19629542.68049  19629542.46448  19629544.08048
 14 11 14 07 45 20.0000000  0  8 01 04 11 19 20 23 31 32
  -2733914.00848  -2130320.85349  19677843.62749  19677844.32948  19677847.61749
 -21075908.94449 -16422783.47149  19039825.62849  19039826.22449  19039827.15349
 -18149342.48649 -14142340.66148  20083720.35349  20083720.58749  20083720.64048
  24100247.18546  18779413.65546  23816913.79848  23816913.66646  23816912.26146
  -7850964.92447  -6117630.55547  22298142.51548  22298142.11847  22298142.75447
  -2069384.92847  -1612508.11547  22975551.61148  22975551.91047  22975550.41547
  -2106832.86248  -1641685.53948  20313409.78648  20313410.49548  20313409.97948
  -5910893.06648  -4605887.88748  19601576.67049  19601576.53548  19601578.07948
 14 11 14 07 45 30.0000000  0  8 01 04 11 19 20 23 31 32
  -2768793.45948  -2157499.63349  19671206.27349  19671206.99748  19671210.26649
 -20988484.16949 -16354660.26349  19056461.99349  19056462.56649  19056463.51549
 -17993795.31349 -14021135.07248  20113320.08449  20113320.19449  20113320.25548
  24499311.93146  19090373.16546  23892852.88048  23892852.57546  23892852.32446
  -7909294.10247  -6163081.84747  22287042.99648  22287042.73047  22287043.11947
  -1817925.42847  -1416565.66647  23023402.65948  23023403.25047  23023401.61547
  -2183369.60448  -1701324.54648  20298845.40348  20298845.99048  20298845.53248
  -6054037.77348  -4717429.20248  19574337.11649  19574336.98948  19574338.51348
 14 11 14 07 45 40.0000000  0  8 01 04 11 19 20 23 31 32
  -2798550.84548  -2180687.19149  19665543.63349  19665544.35248  19665547.69549
 -20895594.52549 -16282278.72149  19074138.32949  19074138.81549  19074139.79749
 -17833383.84649 -13896139.12848  20143845.28049  20143845.49249  20143845.55748
  24899110.94046  19401904.83046  23968932.32048  23968931.95846  23968931.63546
  -7965249.40247  -6206683.36047  22276394.97048  22276394.74947  22276395.35347
  -1565431.07547  -1219816.82547  23071451.02348  23071451.33547  23071449.66647
  -2257309.74848  -1758940.23148  20284775.07448  20284775.59548  20284775.33448
  -6193336.25148  -4825973.45448  19547829.53349  19547829.31348  19547830.87848
 14 11 14 07 45 50.0000000  0  8 01 04 11 19 20 23 31 32
  -2823193.86549  -2199889.52649  19660854.22149  19660854.90449  19660858.15649
 -20797284.02549 -16205673.12949  19092846.20249  19092846.67249  19092847.71849
 -17668164.41949 -13767396.71648  20175285.50049  20175285.73549  20175285.81348
  25299575.64246  19713955.21246  24045138.19348  24045137.51046  24045137.15746
  -8018833.29147  -6248437.03047  22266198.19348  22266198.06847  22266198.51847
  -1311941.76146  -1022292.70647  23119688.27448  23119688.46246  23119687.15747
  -2328661.86048  -1814539.26348  20271197.08948  20271197.85348  20271197.41748
  -6328777.83848  -4931512.33548  19522055.88349  19522055.60248  19522057.15248
 14 11 14 07 46 00.0000000  0  8 01 04 11 19 20 23 31 32
  -2842662.19149  -2215059.63749  19657149.47349  19657150.21149  19657153.54549
 -20693528.63049 -16124824.76749  19112590.14449  19112590.68349  19112591.71849
 -17498124.89549 -13634898.38348  20207642.93549  20207643.12949  20207643.23448
  25700707.14846  20026525.19946  24121471.34748  24121470.02046  24121470.60246
  -8069979.36747  -6288291.09547  22256465.60948  22256465.21947  22256465.70547
  -1057428.03846   -823970.33947  23168120.68048  23168121.17646  23168119.22247
  -2397365.43348  -1868074.50448  20258123.30048  20258123.83948  20258123.49848
  -6460283.09748  -5033983.95148  19497031.27449  19497030.95248  19497032.60448
 14 11 14 07 46 10.0000000  0  8 01 04 11 19 20 23 31 32
  -2857006.35449  -2226236.89549  19654419.91649  19654420.59649  19654423.91249
 -20584415.02249 -16039801.17849  19133353.84849  19133354.29849  19133355.30049
 -17323363.87449 -13498720.96748  20240898.84049  20240899.05549  20240899.13848
  26102397.42346  20339530.55946  24197910.36548  24197910.17746  24197908.96946
  -8118730.99047  -6326279.37047  22247188.28648  22247188.08047  22247188.60547
   -801969.81646   -624912.01447  23216732.65248  23216733.07246  23216731.30147
  -2463469.88348  -1919584.45548  20245543.94448  20245544.63648  20245544.22148
  -6587882.85048  -5133412.30948  19472749.76849  19472749.52548  19472751.16948
 14 11 14 07 46 20.0000000  0  8 01 04 11 19 20 23 31 32
  -2866177.46149  -2233383.19749  19652674.65949  19652675.42649  19652678.67749
 -20469930.72249 -15950592.62749  19155139.46149  19155139.94349  19155140.93949
 -17143880.16749 -13358863.53448  20275053.45849  20275053.67749  20275053.74248
  26504639.67746  20652966.05446  24274454.53248  24274453.66546  24274453.93346
  -8165030.97847  -6362357.26947  22238377.82448  22238377.40147  22238378.03747
   -545546.37446   -425101.54347  23265528.38148  23265529.05446  23265527.26347
  -2526924.24548  -1969029.40248  20233468.95648  20233469.63248  20233469.30248
  -6711507.89048  -5229743.49148  19449224.76749  19449224.48248  19449226.03948
 14 11 14 07 46 30.0000000  0  8 01 04 11 19 20 23 31 32
  -2870187.32349  -2236507.75249  19651911.60049  19651912.31849  19651915.64449
 -20350123.74949 -15857236.54149  19177937.89449  19177938.48049  19177939.46249
 -16959732.70149 -13215372.00348  20310095.60749  20310095.80149  20310095.85948
  26907368.02446  20966780.31746  24351090.82748  24351091.03546  24351089.50746
  -8208882.05247  -6396526.92247  22230033.17748  22230033.03747  22230033.33447
   -288196.18246   -224568.95147  23314500.63348  23314500.74046  23314499.26447
  -2587737.13848  -2016416.05948  20221896.69648  20221897.29748  20221896.84948
  -6831148.91548  -5322970.25048  19426457.76749  19426457.57048  19426459.13748
 14 11 14 07 46 40.0000000  0  8 01 04 11 19 20 23 31 32
  -2869029.09149  -2235605.22049  19652131.99949  19652132.73049  19652136.05249
 -20225023.48949 -15759755.81649  19201743.71449  19201744.24449  19201745.21949
 -16770961.32048 -13068277.41948  20346017.49949  20346017.71748  20346017.84448
  27310537.09646  21280938.01046  24427811.29848  24427811.75646  24427810.90446
  -8250267.22247  -6428775.09347  22222157.83848  22222157.36147  22222157.98147
    -29937.70246    -23328.57647  23363645.74448  23363645.90846  23363643.97247
  -2645897.65848  -2061735.93348  20210829.10348  20210829.60048  20210829.25548
  -6946777.48548  -5413070.42148  19404454.33449  19404454.09548  19404455.65748
 14 11 14 07 46 50.0000000  0  8 01 04 11 19 20 23 31 32
  -2862691.47549  -2230666.80649  19653338.09349  19653338.76949  19653342.07349
 -20094654.75249 -15658169.78749  19226552.07449  19226552.63149  19226553.55549
 -16577600.84248 -12917606.92348  20382812.86949  20382813.09148  20382813.08648
  27714107.62346  21595408.53246  24504608.59648  24504608.90646  24504607.76646
  -8289164.11347  -6459084.34347  22214756.07148  22214755.96647  22214756.19147
    229216.36046    178609.62046  23412961.00748  23412961.56846  23412959.77846
  -2701389.37948  -2104976.22548  20200269.26448  20200269.97048  20200269.49948
  -7058359.98948  -5500017.81648  19383220.96949  19383220.71648  19383222.20748
 14 11 14 07 47 00.0000000  0  8 01 04 11 19 20 23 31 32
  -2851192.06549  -2221706.21249  19655526.24149  19655526.97649  19655530.28549
 -19959071.34749 -15552520.38349  19252352.69549  19252353.33049  19252354.22049
 -16379714.57148 -12763409.84048  20420469.33449  20420469.54948  20420469.59648
  28118013.30646  21910140.18746  24581469.31348  24581468.29346  24581468.11846
  -8325578.18847  -6487458.93447  22207826.46948  22207826.22747  22207826.68447
    489225.99146    381214.51046  23462439.33848  23462438.87746  23462438.29046
  -2754223.64848  -2146145.77748  20190215.30548  20190215.91448  20190215.54948
  -7165891.19048  -5583808.35248  19362758.38749  19362758.13548  19362759.76148
 14 11 14 07 47 10.0000000  0  8 01 04 11 19 20 23 31 32
  -2834541.05949  -2208731.38749  19658694.79449  19658695.60249  19658698.90749
 -19818319.25049 -15442843.43449  19279137.00849  19279137.54349  19279138.46049
 -16177357.87048 -12605729.30648  20458976.59349  20458976.76648  20458976.86348
  28522196.95846  22225088.44646  24658383.00348  24658382.98546  24658382.21246
  -8359506.60947  -6513896.64547  22201369.96548  22201370.11047  22201370.20047
    750059.88746    584461.67746  23512074.31148  23512074.17846  23512073.16646
  -2804403.56348  -2185246.99948  20180666.36848  20180666.97048  20180666.70248
  -7269357.77948  -5664431.65448  19343069.32549  19343069.09348  19343070.59548
 14 11 14 07 47 20.0000000  0  8 01 04 11 19 20 23 31 32
  -2812751.89049  -2191752.80149  19662841.14349  19662841.90049  19662845.27449
 -19672447.72649 -15329177.31549  19306895.46249  19306896.03649  19306896.91749
 -15970588.73148 -12444610.50348  20498323.48549  20498323.67148  20498323.71248
  28926599.88746  22540207.56446  24735338.31148  24735336.55046  24735337.13146
  -8390948.63147  -6538396.90047  22195386.97148  22195386.65747  22195387.42847
   1011684.89146    788325.29646  23561859.89348  23561860.31846  23561858.67246
  -2851934.51948  -2222284.09448  20171621.59948  20171622.10548  20171621.87448
  -7368749.12448  -5741879.43548  19324155.75149  19324155.59448  19324157.07948
 14 11 14 07 47 30.0000000  0  8 01 04 11 19 20 23 31 32
  -2785837.74849  -2170780.72749  19667962.72449  19667963.45349  19667966.80649
 -19521505.51049 -15211560.00349  19335618.83149  19335619.35249  19335620.37649
 -15759464.33048 -12280097.98448  20538499.09649  20538499.30148  20538499.39548
  29331165.34346  22855453.33846  24812324.53648  24812324.39046  24812323.97746
  -8419902.43047  -6560958.28447  22189876.92448  22189876.61347  22189877.54547
   1274069.40946    992780.74146  23611789.84648  23611790.25146  23611788.47246
  -2896820.28448  -2257260.00348  20163079.99348  20163080.73148  20163080.29348
  -7464053.84848  -5816142.83748  19306019.92749  19306019.67248  19306021.23948
 14 11 14 07 47 40.0000000  0  8 01 04 11 19 20 23 31 32
  -2753699.89849  -2145738.22649  19674078.38349  19674079.09549  19674082.37249
 -19365429.27549 -15089942.15649  19365319.12749  19365319.65449  19365320.58749
 -15543929.37448 -12112148.66948  20579514.02649  20579514.29848  20579514.29648
  29735950.28546  23170870.13446  24889352.86348  24889351.78246  24889351.54946
  -8446253.27047  -6581491.38447  22184862.53148  22184862.52047  22184863.12447
   1537295.30646   1197891.82446  23661880.26348  23661879.64946  23661879.09446
  -2938952.03948  -2290089.92548  20155062.54449  20155063.30448  20155062.89548
  -7555148.00948  -5887125.27448  19288685.23449  19288685.04848  19288686.56248
 14 11 14 07 47 50.0000000  0  8 01 04 11 19 20 23 31 32
  -2716337.42349  -2116624.59649  19681188.24149  19681188.88949  19681192.22749
 -19204253.16149 -14964350.38349  19395989.91149  19395990.46249  19395991.36149
 -15324025.62648 -11940795.10648  20621360.27349  20621360.54448  20621360.66148
  30140915.68346  23486427.53446  24966414.88448  24966415.31546  24966414.24946
  -8469983.30047  -6599982.29747  22180346.79748  22180347.04247  22180347.28047
   1801348.05646   1403647.17146  23712127.71948  23712128.12546  23712126.40846
  -2978317.72848  -2320764.47748  20147571.56249  20147572.28348  20147571.83048
  -7642004.98448  -5954806.01548  19272156.87749  19272156.65048  19272158.23148
 14 11 14 07 48 00.0000000  0  8 01 04 11 19 20 23 31 32
  -2673807.24449  -2083484.19049  19689281.43749  19689282.13949  19689285.48249
 -19038068.81149 -14834856.07849  19427613.73949  19427614.31749  19427615.26449
 -15099851.98048 -11766114.34248  20664019.14749  20664019.38148  20664019.39248
  30545966.40846  23802051.40046  25043493.39748  25043493.72546  25043492.55146
  -8491131.42047  -6616461.32247  22176322.70648  22176322.36447  22176323.12147
   2066156.62146   1609991.49246  23762519.04048  23762519.29146  23762517.94346
  -3014962.12448  -2349318.53748  20140598.35649  20140599.05048  20140598.62348
  -7724655.53648  -6019209.01948  19256428.96549  19256428.75448  19256430.26048
 14 11 14 07 48 10.0000000  0  8 01 04 11 19 20 23 31 32
  -2626142.19349  -2046342.58849  19698351.77949  19698352.52749  19698355.84449
 -18866943.84549 -14701511.94449  19460177.70749  19460178.29349  19460179.22349
 -14871482.57648 -11588164.15848  20707476.41249  20707476.63648  20707476.69748
  30951032.98446  24117687.68846  25120575.70248  25120574.60146  25120575.00646
  -8509711.66647  -6630939.42747  22172787.04748  22172786.45347  22172787.09947
   2331675.58046   1816889.36246  23813045.96948  23813045.97846  23813044.51646
  -3048904.99848  -2375767.52048  20134139.37149  20134139.93348  20134139.45648
  -7803105.75148  -6080339.03348  19241500.34749  19241500.16748  19241501.76048
 14 11 14 07 48 20.0000000  0  8 01 04 11 19 20 23 31 32
  -2573338.38949  -2005196.75949  19708400.07949  19708400.71749  19708404.06649
 -18690908.47249 -14564341.52249  19493676.14349  19493676.67249  19493677.65349
 -14638954.21148 -11406973.22348  20751725.14549  20751725.33148  20751725.37848
  31356084.43446  24433312.32746  25197654.22248  25197653.73846  25197654.14946
  -8525700.37447  -6643398.13347  22169744.33348  22169744.00447  22169744.83447
   2597897.44546   2024334.93846  23863706.04948  23863705.94746  23863704.37846
  -3080128.45848  -2400097.47548  20128197.59249  20128198.25348  20128197.88648
  -7877324.67548  -6138171.94248  19227376.98749  19227376.78148  19227378.33048
 14 11 14 07 48 30.0000000  0  8 01 04 11 19 20 23 31 32
  -2515362.95249  -1960021.08149  19719432.39949  19719433.14049  19719436.39449
 -18509963.90149 -14423345.74348  19528108.75649  19528109.27849  19528110.27048
 -14402273.88848 -11222546.99848  20796763.88349  20796764.07948  20796764.09948
  31761120.60246  24748922.67645  25274729.66847  25274729.16046  25274729.58045
  -8539043.99647  -6653795.74047  22167204.96948  22167204.89447  22167205.56847
   2864845.08246   2232346.05946  23914504.86348  23914504.48646  23914503.50746
  -3108584.61648  -2422271.09148  20122782.53849  20122783.33248  20122782.86948
  -7947251.77848  -6192660.57448  19214070.28849  19214070.09448  19214071.65648
 14 11 14 07 48 40.0000000  0  8 01 04 11 19 20 23 31 32
  -2452273.12049  -1910860.15949  19731437.99549  19731438.73549  19731441.99949
 -18324200.63349 -14278595.13348  19563458.33149  19563458.90249  19563459.83948
 -14161537.90248 -11034960.51748  20842574.45249  20842574.67848  20842574.64548
  32166052.81646  25064452.10946  25351785.87547  25351786.92446  25351784.40346
  -8549778.15747  -6662160.00747  22165162.45348  22165162.21047  22165162.65347
   3132452.70546   2440871.46146  23965428.94948  23965428.63046  23965426.83346
  -3134314.71948  -2442320.50848  20117886.30349  20117886.95048  20117886.56248
  -8012916.14348  -6243827.59848  19201574.77249  19201574.60248  19201576.10048
 14 11 14 07 48 50.0000000  0  8 01 04 11 19 20 23 31 32
  -2384066.00949  -1857711.73949  19744417.35149  19744418.10049  19744421.40549
 -18133649.16149 -14130113.46448  19599718.99749  19599719.56849  19599720.57448
 -13916781.78348 -10844241.47248  20889150.02449  20889150.12148  20889150.19148
  32570854.30146  25379880.43246  25428816.99947  25428817.95446  25428816.33746
  -8557877.44747  -6668471.13247  22163621.32248  22163620.92347  22163621.44847
   3400716.04346   2649907.77846  24016477.35248  24016478.26646  24016475.98546
  -3157299.06648  -2460230.37448  20113512.59449  20113513.21148  20113512.80048
  -8074286.48648  -6291648.63048  19189896.41949  19189896.20548  19189897.70148
 14 11 14 07 49 00.0000000  0  8 01 04 11 19 20 23 31 32
  -2310777.37849  -1800603.69849  19758363.64349  19758364.45249  19758367.67749
 -17938377.71549 -13977953.89248  19636877.93949  19636878.50949  19636879.53148
 -13668078.78448 -10650446.93048  20936476.54149  20936476.75448  20936476.85948
  32975461.20446  25695159.94545  25505811.27847  25505811.90246  25505810.81645
  -8563354.22947  -6672738.73947  22162578.81648  22162578.48647  22162579.56347
   3669593.52846   2859422.66846  24067643.16848  24067643.31946  24067641.69046
  -3177555.48748  -2476014.58148  20109657.92349  20109658.51048  20109658.13748
  -8131369.69648  -6336129.04048  19179033.85449  19179033.60848  19179035.17548
 14 11 14 07 49 10.0000000  0  8 01 04 11 19 20 23 31 32
  -2232390.74749  -1739523.19749  19773280.11249  19773280.96649  19773284.17749
 -17738402.42949 -13822128.99048  19674932.03449  19674932.59349  19674933.56648
 -13415449.18248 -10453592.69648  20984550.34049  20984550.62648  20984550.67548
  33379863.60746  26010279.20545  25582766.28947  25582765.07546  25582767.34945
  -8566167.83647  -6674931.15047  22162043.62748  22162043.15347  22162043.78647
   3939097.14646   3069425.48746  24118928.01148  24118928.30946  24118926.71846
  -3195048.85048  -2489645.76148  20106329.02549  20106329.63748  20106329.19348
  -8184120.06248  -6377233.21048  19168995.74449  19168995.51848  19168997.14048
 14 11 14 07 49 20.0000000  0  8 01 04 11 19 20 23 31 32
  -2148940.29649  -1674496.86049  19789160.24649  19789160.98649  19789164.22749
 -17533789.21949 -13662690.12348  19713868.58949  19713869.10649  19713870.11248
 -13158962.93848 -10253733.28248  21033358.13249  21033358.31848  21033358.39148
  33784002.80546  26325190.13545  25659672.45347  25659671.81146  25659671.61945
  -8566327.37247  -6675055.45047  22162013.19248  22162012.88747  22162013.58147
   4209189.64546   3279887.14046  24170324.72548  24170326.03846  24170323.94546
  -3209793.68348  -2501135.22748  20103522.96149  20103523.73848  20103523.25048
  -8232542.09348  -6414964.65148  19159781.32749  19159781.10248  19159782.67248
 14 11 14 07 49 30.0000000  0  8 01 04 11 19 20 23 31 32
  -2060424.40049  -1605523.41849  19806004.31049  19806005.00549  19806008.28549
 -17324567.76749 -13499660.41348  19753682.11349  19753682.67849  19753683.77048
 -12898653.65048 -10050894.86948  21082893.33349  21082893.54948  21082893.68548
  34187857.31346  26639882.79645  25736523.37047  25736522.85146  25736524.33245
  -8563805.33547  -6673090.21047  22162493.24348  22162492.73347  22162493.28247
   4479870.85546   3490807.54446  24221833.86348  24221834.16646  24221832.34046
  -3221767.90148  -2510465.76648  20101244.46349  20101245.08048  20101244.66648
  -8276604.31348  -6449298.83348  19151396.55749  19151396.34448  19151397.80948
 14 11 14 07 49 40.0000000  0  8 01 04 11 19 20 23 31 32
  -1966887.39749  -1532637.43049  19823803.71049  19823804.49449  19823807.70649
 -17110813.41849 -13333098.57748  19794358.18249  19794358.73549  19794359.86148
 -12634599.90148  -9845138.70648  21133141.10049  21133141.28248  21133141.40448
  34591361.25946  26954300.73045  25813307.12347  25813305.89146  25813306.27245
  -8558619.31047  -6669049.13247  22163480.04748  22163479.69747  22163480.06547
   4751095.96446   3702151.74346  24273446.06148  24273446.05446  24273445.28746
  -3230994.42048  -2517655.24848  20099488.65649  20099489.24548  20099488.86448
  -8316320.80648  -6480246.73248  19143838.70249  19143838.54748  19143840.07148
 14 11 14 07 49 50.0000000  0  8 01 04 11 19 20 23 31 32
  -1868336.22549  -1455844.29049  19842557.39749  19842558.14849  19842561.33149
 -16892563.50549 -13163033.70948  19835889.81849  19835890.36149  19835891.33748
 -12366841.97248  -9636496.17248  21184093.75549  21184094.04348  21184094.01548
  34994487.83346  27268425.39145  25890019.37747  25890018.58246  25890020.18245
  -8550748.75047  -6662916.20447  22164977.77648  22164977.47147  22164977.71347
   5022858.79646   3913914.94546  24325160.97248  24325161.35546  24325160.32046
  -3237457.98448  -2522691.77748  20098258.67349  20098259.34248  20098258.89448
  -8351667.95448  -6507789.94948  19137112.40349  19137112.16948  19137113.68748
 14 11 14 07 50 00.0000000  0  8 01 04 11 19 20 23 31 32
  -1764795.20049  -1375162.95749  19862260.62449  19862261.34449  19862264.52549
 -16669872.18948 -12989507.98548  19878266.50349  19878267.02048  19878268.08348
 -12095436.64448  -9425011.50348  21235740.40149  21235740.55548  21235740.68148
  35397194.62646  27582215.89545  25966651.18247  25966649.29046  25966649.58045
  -8540189.60647  -6654688.27247  22166987.04348  22166986.85447  22166987.29747
   5295137.19646   4126079.90046  24376974.15648  24376973.55246  24376972.50846
  -3241159.85548  -2525576.33648  20097554.27949  20097554.90648  20097554.38748
  -8382639.36648  -6531923.50348  19131218.71249  19131218.47248  19131220.00548
 14 11 14 07 50 10.0000000  0  8 01 04 11 19 20 23 31 32
  -1656280.36249  -1290605.93949  19882910.31649  19882911.00149  19882914.23749
 -16442785.00048 -12812556.91848  19921479.74849  19921480.31348  19921481.30248
 -11820431.49848  -9210721.79048  21288072.09149  21288072.36348  21288072.48648
  35799448.98246  27895631.12945  26043201.56347  26043202.40346  26043200.70845
  -8526928.95747  -6644355.28047  22169510.36548  22169510.03947  22169510.65747
   5567918.47146   4338636.72446  24428882.44548  24428882.33046  24428881.53346
  -3242092.19148  -2526302.81748  20097376.78849  20097377.43948  20097376.93048
  -8409219.97148  -6552635.65148  19126160.58349  19126160.35848  19126161.84148
 14 11 14 07 50 20.0000000  0  7 01 04 11 20 23 31 32
  -1542805.93049  -1202184.29849  19904503.72249  19904504.46249  19904507.63649
 -16211344.89848 -12632213.97748  19965521.36249  19965521.93148  19965522.93348
 -11541871.51448  -8993662.07248  21341080.31149  21341080.64448  21341080.69748
  -8510951.30647  -6631905.13847  22172550.74748  22172550.57147  22172550.82147
   5841193.04546   4551577.91546  24480885.12848  24480885.14246  24480884.61846
  -3240244.60348  -2524863.11948  20097728.37649  20097729.00748  20097728.60948
  -8431392.83148  -6569913.19248  19121941.19349  19121941.01348  19121942.45248
 14 11 14 07 50 29.0000000  0  1 14
         0.32656         0.70756  21319411.89758  21319412.25756  21319412.38356
 14 11 14 07 50 30.0000000  0  8 01 04 11 14 20 23 31 32
  -1424389.39659  -1109911.67359  19927037.61659  19927038.33359  19927041.51359
 -15975597.62758 -12448514.80558  20010382.55959  20010383.15458  20010384.17958
 -11259804.04258  -8773869.24758  21394756.01159  21394756.16458  21394756.27258
         0.68346         0.04045  21314822.59948  21314822.23646  21314838.01945
  -8492243.59957  -6617327.68157  22176110.80258  22176110.29957  22176110.65957
   6114949.39256   4764894.51156  24532978.98858  24532978.14656  24532977.71956
  -3235609.10958  -2521251.03058  20098610.46459  20098611.07758  20098610.80558
  -8449143.96358  -6583745.23658  19118563.30359  19118563.04658  19118564.58058
 14 11 14 07 50 31.0000000  0  1 14
         0.54946         0.24144  21310236.02248  21310236.18446  21310264.02544
 14 11 14 07 50 32.0000000  0  1 14
    -24084.38547    -18768.39242  21305653.30348  21305652.74547  21305697.00042
 14 11 14 07 50 33.0000000  0  1 14
    -48150.24646    -37517.33546  21301072.74648  21301073.80546  21301070.18146
 14 11 14 07 50 34.0000000  0  1 14
    -72189.61246    -56249.58046  21296497.84448  21296498.45546  21296498.26746
 14 11 14 07 50 35.0000000  0  1 14
    -96202.24746    -74960.70646  21291928.50248  21291929.70946  21291929.13346
 14 11 14 07 50 36.0000000  0  1 14
   -120203.56746    -93663.04046  21287361.40148  21287361.46246  21287361.19346
 14 11 14 07 50 37.0000000  0  1 14
   -144193.16647   -112356.21046  21282796.55448  21282796.10747  21282797.13346
 14 11 14 07 50 38.0000000  0  1 14
   -168156.92746   -131029.31146  21278236.16448  21278236.70546  21278237.63446
 14 11 14 07 50 39.0000000  0  1 14
   -192093.54547   -149681.20546  21273681.98248  21273682.12847  21273681.61646
 14 11 14 07 50 40.0000000  0  8 01 04 11 14 20 23 31 32
  -1301133.57459  -1013868.17059  19950492.39059  19950493.19959  19950496.36659
 -15735673.65558 -12261561.06258  20056038.55859  20056039.09758  20056040.06158
 -10974360.87058  -8551445.99658  21449074.12059  21449074.21758  21449074.40858
   -216016.45147   -168322.42746  21269129.20048  21269129.44147  21269129.45446
  -8470877.48857  -6600678.74057  22180176.51658  22180176.17157  22180176.69157
   6389091.66756   4978511.84856  24585146.59458  24585146.62056  24585146.52156
  -3228262.36358  -2515526.28158  20100008.43659  20100009.05858  20100008.77458
  -8462544.57158  -6594187.25458  19116013.25859  19116013.05758  19116014.46958
 14 11 14 07 50 41.0000000  0  1 14
   -239929.57146   -186956.04146  21264578.83948  21264578.18946  21264578.89546
 14 11 14 07 50 42.0000000  0  1 14
   -263819.80847   -205571.79346  21260032.47648  21260031.65847  21260031.91246
 14 11 14 07 50 43.0000000  0  1 14
   -287680.45146   -224164.50346  21255491.50548  21255491.88146  21255491.93246
 14 11 14 07 50 44.0000000  0  1 14
   -311527.63346   -242746.70646  21250954.27448  21250953.18046  21250953.96346
 14 11 14 07 50 45.0000000  0  1 14
   -335365.15146   -261321.41446  21246417.00948  21246417.79046  21246418.83346
 14 11 14 07 50 46.0000000  0  1 14
   -359177.92947   -279876.82946  21241886.60948  21241886.18647  21241886.69446
 14 11 14 07 50 47.0000000  0  1 14
   -382963.14047   -298410.76046  21237360.03648  21237359.66247  21237360.31946
 14 11 14 07 50 48.0000000  0  1 14
   -406734.75246   -316934.07346  21232836.50448  21232836.55746  21232835.92746
 14 11 14 07 50 49.0000000  0  1 14
   -430494.50246   -335448.18046  21228315.28748  21228316.22246  21228314.89346
 14 11 14 07 50 50.0000000  0  8 01 04 11 14 20 23 31 32
  -1172956.39459   -913989.83959  19974883.64559  19974884.40759  19974887.69459
 -15491518.27158 -12071310.11358  20102499.76659  20102500.33958  20102501.37558
 -10685487.97458  -8326350.23658  21504044.83659  21504044.95358  21504045.12158
   -454233.50246   -353946.10546  21223797.76248  21223798.74846  21223798.61246
  -8446738.99457  -6581869.50057  22184770.03758  22184769.91157  22184769.99457
   6663710.21356   5192500.27656  24637405.09958  24637405.43756  24637403.59656
  -3218095.27558  -2507603.86158  20101943.08059  20101943.78958  20101943.43958
  -8471480.86058  -6601150.58258  19114312.68059  19114312.49958  19114313.97858
 14 11 14 07 50 51.0000000  0  1 14
   -477945.77547   -372423.18946  21219285.55248  21219284.84847  21219284.40046
 14 11 14 07 50 52.0000000  0  1 14
   -501644.85747   -390890.01646  21214775.96748  21214776.24447  21214774.88346
 14 11 14 07 50 53.0000000  0  1 14
   -525331.64846   -409347.24746  21210267.58248  21210268.74046  21210267.77046
 14 11 14 07 50 54.0000000  0  1 14
   -548994.92947   -427786.15446  21205764.73048  21205763.55747  21205765.98146
 14 11 14 07 50 55.0000000  0  1 14
   -572630.55747   -446203.56146  21201267.48548  21201266.78047  21201268.70146
 14 11 14 07 50 56.0000000  0  1 14
   -596252.26447   -464610.06546  21196772.23848  21196771.95247  21196772.82646
 14 11 14 07 50 57.0000000  0  1 14
   -619862.99746   -483008.03446  21192278.22848  21192278.30946  21192279.42646
 14 11 14 07 50 58.0000000  0  1 14
   -643449.10447   -501386.82446  21187791.22348  21187791.36747  21187792.71946
 14 11 14 07 50 59.0000000  0  1 14
   -667006.85147   -519743.50646  21183307.93248  21183308.79647  21183308.41646
 14 11 14 07 51 00.0000000  0  8 01 04 11 14 20 23 31 32
  -1039954.16459   -810351.73459  20000193.11959  20000193.89359  20000197.15159
 -15243253.92658 -11877857.38558  20149742.89159  20149743.47958  20149744.57758
 -10393308.79858  -8098678.15558  21559644.57858  21559644.98858  21559645.01658
   -690553.16746   -538091.27746  21178827.17848  21178828.45546  21178827.85846
  -8419891.98957  -6560949.74557  22189878.73658  22189878.55257  22189878.82457
   6938718.24056   5406792.17456  24689737.08658  24689739.22656  24689735.66056
  -3205176.58358  -2497537.33858  20104401.55459  20104402.08958  20104401.71358
  -8476017.25659  -6604685.43458  19113449.45059  19113449.26259  19113450.76058
 14 11 14 07 51 01.0000000  0  1 14
   -714087.86147   -556430.00046  21174348.88948  21174349.25247  21174348.96746
 14 11 14 07 51 02.0000000  0  1 14
   -737596.86347   -574748.72246  21169874.98248  21169875.52847  21169875.80946
 14 11 14 07 51 03.0000000  0  1 14
   -761078.67747   -593046.22246  21165407.19048  21165406.87047  21165406.77746
 14 11 14 07 51 04.0000000  0  1 14
   -784547.13147   -611333.29246  21160941.22048  21160940.50347  21160942.46746
 14 11 14 07 51 05.0000000  0  1 14
   -808004.38646   -629611.69346  21156477.65848  21156477.75346  21156477.49246
 14 11 14 07 51 06.0000000  0  1 14
   -831437.70746   -647871.45946  21152017.85748  21152017.54546  21152017.77846
 14 11 14 07 51 07.0000000  0  1 14
   -854842.62547   -666109.04246  21147564.62948  21147564.87147  21147564.16846
 14 11 14 07 51 08.0000000  0  1 14
   -878233.11347   -684335.39646  21143112.91748  21143114.16547  21143113.20446
 14 11 14 07 51 09.0000000  0  1 14
   -901612.06747   -702552.73046  21138663.88848  21138665.07347  21138665.07546
 14 11 14 07 51 10.0000000  0  8 01 04 11 14 20 23 31 32
   -902132.58859   -702958.29159  20026419.77559  20026420.41859  20026423.69859
 -14990912.43358 -11681227.64658  20197761.86759  20197762.39258  20197763.48558
 -10097855.24758  -7868454.60258  21615867.54958  21615867.77758  21615867.88558
   -924966.56247   -720751.05446  21134220.79148  21134220.53347  21134220.68946
  -8390308.98057  -6537898.03957  22195508.04158  22195507.85857  22195508.45857
   7214120.63556   5621391.43456  24742144.52258  24742145.05256  24742143.46856
  -3189483.48358  -2485308.93158  20107387.84359  20107388.52658  20107387.98458
  -8476127.47759  -6604771.30558  19113428.46359  19113428.28059  19113429.76358
 14 11 14 07 51 11.0000000  0  1 14
   -948293.60047   -738927.98846  21129781.29448  21129780.79847  21129781.72546
 14 11 14 07 51 12.0000000  0  1 14
   -971605.76447   -757093.28446  21125345.29748  21125345.69147  21125344.47346
 14 11 14 07 51 13.0000000  0  1 14
   -994906.65447   -775249.83746  21120910.46448  21120910.54347  21120911.43246
 14 11 14 07 51 14.0000000  0  1 14
  -1018183.00447   -793387.25946  21116481.27348  21116481.42247  21116481.36346
 14 11 14 07 51 15.0000000  0  1 14
  -1041432.40147   -811503.67846  21112057.05448  21112057.79547  21112057.49646
 14 11 14 07 51 16.0000000  0  1 14
  -1064667.11147   -829608.63246  21107636.36848  21107635.85447  21107636.59046
 14 11 14 07 51 17.0000000  0  1 14
  -1087889.88147   -847704.28046  21103216.42148  21103217.19847  21103216.42746
 14 11 14 07 51 18.0000000  0  1 14
  -1111087.79747   -865780.59446  21098802.57448  21098802.97747  21098802.27046
 14 11 14 07 51 19.0000000  0  1 14
  -1134258.86047   -883835.96246  21094393.73248  21094392.91947  21094392.62246
 14 11 14 07 51 20.0000000  0  8 01 04 11 14 20 23 31 32
   -759528.77159   -591838.43059  20053556.31659  20053557.16459  20053560.30659
 -14734556.23658 -11481469.57558  20246544.78759  20246545.37258  20246546.44758
  -9799189.86358  -7635728.32958  21672701.57058  21672701.84158  21672702.04858
  -1157415.57547   -901880.17346  21089986.12848  21089987.18447  21089986.92846
  -8357993.40757  -6512717.06357  22201657.65958  22201657.57557  22201657.96757
   7489892.10556   5836278.25256  24794622.10758  24794620.87156  24794621.39156
  -3171024.11358  -2470925.00258  20110900.57559  20110901.20258  20110900.68858
  -8471816.61859  -6601412.18558  19114248.83559  19114248.62059  19114250.00658
 14 11 14 07 51 21.0000000  0  1 14
  -1180560.05947   -919914.81846  21085582.63748  21085582.05747  21085583.01346
 14 11 14 07 51 22.0000000  0  1 14
  -1203678.84947   -937929.46246  21081182.90048  21081182.37447  21081183.04346
 14 11 14 07 51 23.0000000  0  1 14
  -1226770.15847   -955922.71246  21076789.85648  21076789.22547  21076788.94346
 14 11 14 07 51 24.0000000  0  1 14
  -1249846.83647   -973904.51446  21072397.37648  21072398.32347  21072398.01846
 14 11 14 07 51 25.0000000  0  1 14
  -1272911.44047   -991876.92546  21068008.22348  21068008.41847  21068008.62446
 14 11 14 07 51 26.0000000  0  1 14
  -1295950.53247  -1009829.48346  21063623.87048  21063623.68547  21063624.67846
 14 11 14 07 51 27.0000000  0  1 14
  -1318962.14547  -1027760.59446  21059245.40648  21059245.47547  21059246.00946
 14 11 14 07 51 28.0000000  0  1 14
  -1341958.66947  -1045679.95946  21054869.79948  21054869.37047  21054869.70846
 14 11 14 07 51 29.0000000  0  1 14
  -1364942.84247  -1063589.70946  21050495.26048  21050495.91947  21050494.87946
 14 11 14 07 51 30.0000000  0  8 01 04 11 14 20 23 31 32
   -612162.35159   -477007.43959  20081599.28459  20081599.96659  20081603.19659
 -14474229.62858 -11278617.67458  20296083.29259  20296083.87058  20296084.88358
  -9497356.66258  -7400533.62158  21730138.72258  21730138.92858  21730138.97758
  -1387902.37447  -1081480.26446  21046126.37448  21046126.22247  21046126.76646
  -8322930.61757  -6485395.39857  22208329.70058  22208329.42657  22208330.16857
   7766025.93356   6051447.47956  24847168.60958  24847169.53456  24847168.26256
  -3149788.35458  -2454377.64458  20114941.68759  20114942.24558  20114941.74958
  -8463072.24059  -6594598.37158  19115912.79559  19115912.61059  19115914.04058
 14 11 14 07 51 31.0000000  0  1 14
  -1410834.23247  -1099349.24446  21041762.78048  21041762.50247  21041762.55146
 14 11 14 07 51 32.0000000  0  1 14
  -1433752.09547  -1117207.29346  21037401.23748  21037401.57447  21037401.32846
 14 11 14 07 51 33.0000000  0  1 14
  -1456657.94047  -1135056.01446  21033042.15148  21033042.56547  21033042.46146
 14 11 14 07 51 34.0000000  0  1 14
  -1479538.75847  -1152885.24146  21028688.67948  21028688.09447  21028688.44346
 14 11 14 07 51 35.0000000  0  1 14
  -1502391.49747  -1170692.57046  21024339.52448  21024339.69347  21024340.27946
 14 11 14 07 51 36.0000000  0  1 14
  -1525228.57747  -1188487.67546  21019994.13848  21019994.76147  21019994.53646
 14 11 14 07 51 37.0000000  0  1 14
  -1548052.40847  -1206272.48646  21015651.07348  21015650.99747  21015651.70946
 14 11 14 07 51 38.0000000  0  1 14
  -1570849.84847  -1224036.73046  21011312.96148  21011312.68147  21011313.12046
 14 11 14 07 51 39.0000000  0  1 14
  -1593619.87547  -1241779.60946  21006979.35948  21006980.17847  21006979.51646
 14 11 14 07 51 40.0000000  0  8 01 04 11 14 20 23 31 32
   -460078.43159   -358500.47959  20110539.88059  20110540.59759  20110543.77459
 -14210001.72258 -11072725.80258  20346364.29559  20346364.78358  20346365.88758
  -9192424.33458  -7162924.01558  21788165.33058  21788165.64658  21788165.78358
  -1616375.62147  -1259511.35346  21002649.13148  21002648.90147  21002649.92546
  -8285130.71257  -6455940.92657  22215523.04858  22215522.61757  22215523.14657
   8042491.04556   6266874.75856  24899778.31458  24899777.20156  24899777.27156
  -3125791.02058  -2435678.41758  20119508.11859  20119508.75558  20119508.17458
  -8449907.19359  -6584339.89058  19118417.98959  19118417.78459  19118419.27258
 14 11 14 07 51 41.0000000  0  1 14
  -1639119.16947  -1277233.58946  20998320.81448  20998321.62547  20998321.43046
 14 11 14 07 51 42.0000000  0  1 14
  -1661837.11047  -1294935.88646  20993997.73548  20993997.91247  20993998.46446
 14 11 14 07 51 43.0000000  0  1 14
  -1684526.58347  -1312616.01846  20989680.58348  20989681.39647  20989681.02646
 14 11 14 07 51 44.0000000  0  1 14
  -1707201.87047  -1330285.05446  20985365.45648  20985365.74447  20985366.28546
 14 11 14 07 51 45.0000000  0  1 14
  -1729865.33347  -1347944.90546  20981053.61048  20981053.11547  20981052.31846
 14 11 14 07 51 46.0000000  0  1 14
  -1752502.84147  -1365584.51446  20976744.98448  20976745.59547  20976745.87446
 14 11 14 07 51 47.0000000  0  1 14
  -1775111.63647  -1383201.77146  20972443.41248  20972442.92047  20972443.14846
 14 11 14 07 51 48.0000000  0  1 14
  -1797705.05747  -1400807.01946  20968143.49548  20968144.23747  20968143.65846
 14 11 14 07 51 49.0000000  0  1 14
  -1820286.56147  -1418403.00146  20963846.83148  20963846.05147  20963845.91846
 14 11 14 07 51 50.0000000  0  8 01 04 11 14 20 23 31 32
   -303304.04359   -236338.61359  20140373.01259  20140373.74659  20140376.94359
 -13941922.90858 -10863833.21458  20397378.00159  20397378.48058  20397379.61758
  -8884442.49358  -6922938.16358  21846772.35958  21846772.57658  21846772.79258
  -1842842.86847  -1435979.32246  20959553.92548  20959553.49347  20959554.10246
  -8244585.28057  -6424347.06357  22223238.55558  22223237.99857  22223238.63157
   8319275.46856   6482550.90956  24952448.75858  24952448.13556  24952447.75056
  -3099028.14258  -2414824.21158  20124600.88159  20124601.49058  20124601.02858
  -8432316.36959  -6570632.74858  19121765.39459  19121765.17159  19121766.68158
 14 11 14 07 51 51.0000000  0  1 14
  -1865371.18647  -1453533.88046  20955267.12248  20955267.76847  20955267.42546
 14 11 14 07 51 52.0000000  0  1 14
  -1887883.48447  -1471075.92146  20950982.81748  20950984.16647  20950983.13446
 14 11 14 07 51 53.0000000  0  1 14
  -1910382.46447  -1488607.58646  20946701.90548  20946701.68447  20946701.58046
 14 11 14 07 51 54.0000000  0  1 14
  -1932855.47647  -1506119.02846  20942425.24748  20942425.26347  20942424.56046
 14 11 14 07 51 55.0000000  0  1 14
  -1955299.34947  -1523607.76846  20938154.40548  20938154.02647  20938153.99646
 14 11 14 07 51 56.0000000  0  1 14
  -1977727.96847  -1541084.60146  20933886.16048  20933886.16747  20933888.01346
 14 11 14 07 51 57.0000000  0  1 14
  -2000144.12347  -1558551.71746  20929620.40648  20929620.85547  20929620.79846
 14 11 14 07 52 00.0000000  0  7 01 04 11 20 23 31 32
   -141876.68858   -110551.05959  20171091.61159  20171092.40258  20171095.53359
 -13670053.59058 -10651986.99458  20449112.93959  20449113.57158  20449114.62058
  -8573470.42758  -6680622.27058  21905948.11258  21905948.47958  21905948.75158
  -8201295.94657  -6390615.10057  22231475.89358  22231475.67657  22231476.48757
   8596357.81456   6698459.15556  25005175.20158  25005176.14256  25005175.02756
  -3069505.63458  -2391819.65158  20130218.77959  20130219.53658  20130218.98058
  -8410305.16259  -6553481.15358  19125954.03559  19125953.84059  19125955.32158
 14 11 14 07 52 10.0000000  0  8 01 04 11 14 20 23 31 32
     24175.27348     18840.09049  20202690.34849  20202690.96748  20202694.19549
 -13394444.20648 -10437226.43248  20501559.64949  20501560.28048  20501561.30648
  -8259557.35848  -6436014.68648  21965684.00348  21965684.19648  21965684.48748
  -2289578.17457  -1784084.76056  20874543.19458  20874543.37857  20874543.59256
  -8155254.69347  -6354738.78447  22240237.62948  22240237.28947  22240237.77947
   8873726.82546   6914590.82046  25057957.41148  25057955.22146  25057956.37046
  -3037219.70148  -2366661.76548  20136362.61349  20136363.22548  20136362.66548
  -8383869.83949  -6532882.19148  19130984.45449  19130984.23749  19130985.70248
 14 11 14 07 52 20.0000000  0  8 01 04 11 14 20 23 31 32
    194814.31248    151805.57649  20235161.73549  20235162.52348  20235165.67249
 -13115153.84648 -10219597.58348  20554706.88249  20554707.48248  20554708.54848
  -7942760.73648  -6189160.18348  22025968.34148  22025968.48048  22025968.85148
  -2509805.21047  -1955690.25246  20832635.22248  20832635.42147  20832635.54646
  -8106462.05047  -6316718.52947  22249522.27748  22249522.11247  22249522.70347
   9151363.25146   7130930.82846  25110789.86848  25110790.00646  25110788.55246
  -3002175.17648  -2339354.33748  20143031.38249  20143032.01448  20143031.49548
  -8353015.88349  -6508840.14848  19136855.81849  19136855.57749  19136857.04448
 14 11 14 07 52 30.0000000  0  8 01 04 11 14 20 23 31 32
    369992.62848    288308.17049  20268497.04049  20268497.83048  20268500.97349
 -12832251.10148  -9999153.88048  20608541.41549  20608541.99148  20608543.08648
  -7623147.47948  -5940110.89548  22086788.73948  22086788.87748  22086789.04548
  -2727914.78047  -2125645.75547  20791130.39848  20791130.47147  20791130.55047
  -8054928.48147  -6276562.47947  22259328.77048  22259328.53447  22259329.26147
   9429238.36046   7347456.84946  25163667.57048  25163667.53646  25163666.25046
  -2964386.77948  -2309908.82248  20150222.22849  20150222.91148  20150222.28448
  -8317759.12549  -6481367.34948  19143564.97549  19143564.74249  19143566.13248
 14 11 14 07 52 40.0000000  0  8 01 04 11 14 20 23 31 32
    549717.19048    428353.30048  20302697.58449  20302698.26248  20302701.40848
 -12545749.32848  -9775905.74448  20663060.82949  20663061.47648  20663062.51348
  -7300728.86248  -5688875.61148  22148142.99948  22148143.26448  22148143.35548
  -2943837.16847  -2293896.96647  20750041.92348  20750041.96147  20750042.00647
  -8000609.34847  -6234235.86447  22269665.59448  22269665.25847  22269665.83247
   9707379.25146   7564189.98646  25216596.45748  25216596.66446  25216594.84946
  -2923813.83748  -2278293.53048  20157943.04949  20157943.75248  20157943.11448
  -8278060.73849  -6450433.53348  19151119.23249  19151119.06449  19151120.47748
 14 11 14 07 52 50.0000000  0  8 01 04 11 14 20 23 31 32
    733900.10248    571872.46148  20337746.37549  20337747.08048  20337750.19348
 -12255755.88548  -9549936.83348  20718244.89549  20718245.38348  20718246.54748
  -6975610.08248  -5435536.31048  22210011.16648  22210011.25048  22210011.44948
  -3157596.62547  -2460462.77347  20709364.54948  20709364.67047  20709364.76547
  -7943554.37847  -6189777.43247  22280522.56848  22280522.42847  22280522.95747
   9985719.14646   7781078.14846  25269562.20748  25269562.85546  25269561.79046
  -2880509.87348  -2244550.18048  20166183.59249  20166184.08448  20166183.50848
  -8233976.80249  -6416082.41648  19159508.13349  19159507.95949  19159509.34248
 14 11 14 07 53 00.0000000  0  8 01 04 11 14 20 23 31 32
    922513.90548    718844.26248  20373638.37749  20373639.15648  20373642.19848
 -11962317.21948  -9321283.33248  20774084.37349  20774085.00248  20774086.07548
  -6647835.06948  -5180127.21848  22272384.71248  22272384.69048  22272384.88648
  -3369156.43747  -2625314.57647  20669106.28348  20669106.39247  20669106.64547
  -7883752.50947  -6143178.56247  22291902.41648  22291902.15247  22291902.70247
  10264252.45246   7998117.01946  25322565.16548  25322566.12346  25322565.17446
  -2834467.79648  -2208673.23348  20174945.05849  20174945.65548  20174945.03448
  -8185503.16649  -6378310.75148  19168732.39949  19168732.16649  19168733.60248
 14 11 14 07 53 10.0000000  0  8 01 04 11 14 20 23 31 32
   1115530.64748    869246.92348  20410368.18749  20410368.88948  20410372.02248
 -11665479.42448  -9089981.15548  20830570.77749  20830571.26948  20830572.36348
  -6317447.50247  -4922682.36648  22335255.15048  22335255.73347  22335255.62748
  -3578479.67947  -2788423.59647  20629273.43248  20629273.36747  20629273.61147
  -7821192.91047  -6094430.81347  22303807.44548  22303807.18847  22303807.56047
  10542974.26446   8215302.33046  25375605.19548  25375604.24946  25375604.90046
  -2785680.38048  -2170657.05148  20184228.94449  20184229.59648  20184228.98148
  -8132636.31649  -6337115.80048  19178792.58949  19178792.38949  19178793.77948
 14 11 14 07 53 20.0000000  0  8 01 04 11 14 20 23 31 32
   1312895.89148   1023038.02048  20447925.61549  20447926.36948  20447929.45948
 -11365314.63548  -8856086.52148  20887690.17049  20887690.68648  20887691.84148
  -5984516.54547  -4663255.66048  22398609.94448  22398610.08147  22398610.21348
  -3785555.10247  -2949781.06647  20589868.21648  20589868.36547  20589868.55847
  -7755890.78247  -6043546.02947  22316233.99548  22316233.54447  22316234.31947
  10821853.76846   8432610.39446  25428673.82148  25428674.90746  25428671.67946
  -2734166.59048  -2130516.43048  20194031.71749  20194032.39048  20194031.75848
  -8075399.39849  -6292515.60848  19189684.38949  19189684.17749  19189685.58448
 14 11 14 07 53 30.0000000  0  8 01 04 11 14 20 23 31 32
   1514578.95148   1180193.65548  20486304.64349  20486305.42448  20486308.44248
 -11061870.56848  -8619636.60048  20945433.66149  20945434.26948  20945435.34748
  -5649086.90947  -4401881.92348  22462440.10548  22462440.53447  22462440.54748
  -3990347.13547  -3109359.26747  20550897.47048  20550897.40247  20550898.22647
  -7687837.35247  -5990517.36647  22329183.91448  22329183.82247  22329184.19947
  11100884.68946   8650037.08745  25481771.90448  25481770.77046  25481768.96545
  -2679921.20648  -2088247.28648  20204354.26149  20204354.89548  20204354.22848
  -8013791.97549  -6244509.81548  19201407.89849  19201407.67749  19201409.02248
 14 11 14 07 53 40.0000000  0  8 01 04 11 14 20 23 31 32
   1720528.74148   1340674.00448  20525495.56049  20525496.28848  20525499.37548
 -10755214.68448  -8380683.98048  21003788.42349  21003788.98148  21003790.08148
  -5311222.79547  -4138611.20547  22526733.48248  22526733.70747  22526733.85747
  -4192840.05347  -3267145.95847  20512364.51448  20512364.33747  20512364.96747
  -7617044.03747  -5935353.74447  22342655.61848  22342655.21447  22342655.75647
  11380041.24446   8867560.37946  25534893.36648  25534895.59846  25534892.80046
  -2622959.13248  -2043861.25348  20215193.82049  20215194.44248  20215193.82648
  -7947834.27149  -6193114.20948  19213959.16949  19213958.98149  19213960.39248
 14 11 14 07 53 50.0000000  0  8 01 04 11 14 20 23 31 32
   1930698.49748   1504442.65248  20565489.54649  20565490.29748  20565493.32348
 -10445409.37648  -8139277.24548  21062742.31349  21062742.83948  21062744.15148
  -4970983.44347  -3873489.64247  22591478.77748  22591479.22847  22591479.17847
  -4393013.34447  -3423125.14747  20474272.86448  20474272.84847  20474273.09847
  -7543517.65547  -5878060.45247  22356647.22048  22356647.03447  22356647.39747
  11659302.89146   9085167.02045  25588034.67148  25588036.03146  25588033.66345
  -2563290.56148  -1997366.24648  20226548.39149  20226548.95048  20226548.35848
  -7877542.46349  -6138341.36848  19227335.29349  19227335.07549  19227336.53448
 14 11 14 07 54 00.0000000  0  8 01 04 11 14 20 23 31 32
   2145048.92748   1671468.95748  20606279.08649  20606279.79648  20606282.91548
 -10132509.02348  -7895458.79448  21122285.40549  21122285.87748  21122286.97048
  -4628419.60147  -3606556.79847  22656666.53648  22656666.70847  22656667.00347
  -4590838.36447  -3577274.51247  20436628.03948  20436627.92047  20436628.39047
  -7467257.23747  -5818636.74547  22371159.13648  22371158.91347  22371159.29547
  11938657.45746   9302842.65445  25641194.90848  25641196.52246  25641195.02745
  -2500917.76548  -1948764.05748  20238417.38949  20238418.08748  20238417.50848
  -7802925.33949  -6080198.15848  19241534.43949  19241534.25049  19241535.68848
 14 11 14 07 54 10.0000000  0  8 01 04 11 14 20 23 31 32
   2363561.75848   1841738.69948  20647860.67649  20647861.40948  20647864.48448
  -9816546.38248  -7649254.14148  21182410.85849  21182411.60348  21182412.59248
  -4283560.36747  -3337835.32447  22722291.08048  22722291.30247  22722291.48447
  -4786264.95547  -3729554.96847  20399439.65848  20399439.63847  20399439.88947
  -7388240.73047  -5757065.43747  22386195.34348  22386195.03047  22386195.60247
  12218113.93346   9520600.78446  25694373.59948  25694375.12246  25694370.97446
  -2435821.78848  -1898039.90948  20250804.83849  20250805.40548  20250804.83148
  -7723971.10949  -6018675.37648  19256558.92849  19256558.71249  19256560.13748
 14 11 14 07 54 20.0000000  0  8 01 04 11 14 20 23 31 32
   2586160.54448   2015192.29748  20690219.86349  20690220.57048  20690223.59648
  -9497611.64648  -7400733.57148  21243102.36448  21243102.79548  21243103.85948
  -3936492.26747  -3067392.66047  22788336.02948  22788336.03747  22788336.38447
  -4979300.67747  -3879972.41647  20362706.01948  20362706.17647  20362706.57747
  -7306504.07047  -5693374.53447  22401749.46048  22401749.10047  22401749.46947
  12497624.48146   9738399.61745  25747562.88248  25747564.27146  25747561.46245
  -2368041.63548  -1845224.19848  20263702.94949  20263703.62648  20263702.85648
  -7640726.27849  -5953809.27648  19272399.88449  19272399.68849  19272401.05048
 14 11 14 07 54 30.0000000  0  8 01 04 11 14 20 23 31 32
   2812824.26448   2191813.37848  20733352.52549  20733353.22848  20733356.22248
  -9175739.16048  -7149923.84048  21304352.62748  21304353.16348  21304354.12748
  -3587245.45347  -2795252.30547  22854795.74648  22854795.55747  22854795.65847
  -5169897.34248  -4028489.30647  20326436.64848  20326436.65548  20326436.84747
  -7222027.54347  -5627548.67447  22417824.69848  22417824.64147  22417824.70647
  12777197.02546   9956249.23645  25800764.50348  25800762.02446  25800760.45445
  -2297560.55248  -1790303.87148  20277114.98549  20277115.80048  20277115.01948
  -7553182.32349  -5885593.21148  19289058.95249  19289058.83449  19289060.11248
 14 11 14 07 54 40.0000000  0  8 01 04 11 14 20 23 31 32
   3043463.32048   2371532.12048  20777241.57749  20777242.31848  20777245.45848
  -8851031.16148  -6896904.63048  21366142.45548  21366142.95548  21366143.98248
  -3235918.02247  -2521490.69447  22921651.06348  22921651.06747  22921651.32647
  -5358074.75148  -4175121.05547  20290627.73048  20290627.89948  20290628.19847
  -7134859.83347  -5559625.79147  22434412.07548  22434411.96447  22434412.30347
  13056771.72846  10174099.36445  25853964.68747  25853967.46346  25853966.38445
  -2224430.19648  -1733319.17748  20291031.35649  20291031.92748  20291031.29948
  -7461399.52149  -5814074.14848  19306524.63049  19306524.47249  19306525.84348
 14 11 14 07 54 50.0000000  0  8 01 04 11 14 20 23 31 32
   3278084.31548   2554353.67948  20821888.59049  20821889.25848  20821892.36748
  -8523492.83848  -6641679.96248  21428470.97648  21428471.31848  21428472.69148
  -2882511.19547  -2246108.75847  22988902.08848  22988902.29747  22988902.32247
  -5543756.26948  -4319807.95047  20255293.69648  20255293.82448  20255293.95647
  -7044953.50247  -5489568.91147  22451520.76348  22451520.60747  22451520.89347
  13336385.44846  10391978.86645  25907173.99547  25907173.48146  25907171.88245
  -2148605.79048  -1674235.21648  20305460.24749  20305460.88248  20305460.18048
  -7365342.42349  -5739224.46248  19324803.66749  19324803.48849  19324804.95148
 14 11 14 07 55 00.0000000  0  8 01 04 11 14 20 23 31 32
   3516592.47548   2740204.19348  20867275.16549  20867275.86048  20867278.96748
  -8193230.45448  -6384332.65948  21491317.78648  21491318.43848  21491319.40548
  -2527126.89947  -1969185.94347  23056529.41448  23056529.38247  23056529.83947
  -5726966.32248  -4462569.03547  20220429.96848  20220430.09748  20220430.36147
  -6952362.29047  -5417419.92147  22469140.35848  22469140.04847  22469140.47747
  13615974.63646  10609840.38245  25960377.47347  25960377.18046  25960376.91145
  -2070143.69448  -1613095.91548  20320391.06149  20320391.67848  20320391.01648
  -7265077.15049  -5661095.68248  19343883.61749  19343883.37249  19343884.78748
 14 11 14 07 55 10.0000000  0  8 01 04 11 14 20 23 31 32
   3758981.50848   2929078.76248  20913400.19449  20913400.90548  20913404.09248
  -7860261.31248  -6124876.20848  21554679.70448  21554680.35848  21554681.24648
  -2169777.78047  -1690732.10347  23124530.82748  23124531.07047  23124530.98747
  -5907640.50248  -4603354.12247  20186048.80448  20186048.97848  20186049.16447
  -6857051.50547  -5343151.78247  22487277.28748  22487277.28147  22487277.47947
  13895564.17846  10827694.06844  26013579.73047  26013582.47446  26013579.77644
  -1989011.66048  -1549876.15248  20335829.99249  20335830.63448  20335829.92348
  -7160581.72749  -5579670.68848  19363768.37949  19363768.20549  19363769.62648
 14 11 14 07 55 20.0000000  0  8 01 04 11 14 20 23 31 32
   4005162.57848   3120908.16448  20960246.89049  20960247.64448  20960250.75848
  -7524684.27448  -5863387.61448  21618537.88048  21618538.58648  21618539.40848
  -1810558.46547  -1410820.96647  23192888.13948  23192888.06947  23192887.89647
  -6085796.64548  -4742177.09247  20152146.70148  20152146.89848  20152147.12247
  -6759068.73647  -5266801.57947  22505922.87548  22505922.53447  22505922.90647
  14175097.51746  11045484.22545  26066770.82747  26066771.07046  26066769.44245
  -1905259.86948  -1484615.01248  20351767.40249  20351768.06948  20351767.42648
  -7051917.05449  -5494996.92448  19384446.59849  19384446.40249  19384447.81448
 14 11 14 07 55 30.0000000  0  7 01 04 11 14 20 31 32
   4255169.93348   3315719.09048  21007821.79249  21007822.48448  21007825.60648
  -7186474.83348  -5599847.78948  21682896.97048  21682897.42648  21682898.54048
  -1449439.60847  -1129429.66247  23261606.58848  23261606.85747  23261606.68547
  -6261329.26148  -4878955.76147  20118744.15548  20118744.39548  20118744.50147
  -6658338.59147  -5188310.56147  22525091.17948  22525091.27047  22525091.41547
  -1818815.27948  -1417255.58748  20368217.21849  20368217.83548  20368217.25048
  -6939021.37049  -5407026.26748  19405929.98649  19405929.70949  19405931.13948
 14 11 14 07 55 35.0000000  0  1 17
         0.88556         0.07256  23999586.15058  23999586.49556  23999585.99256
 14 11 14 07 55 36.0000000  0  1 17
         0.75846         0.88946  23999930.13648  23999930.24446  23999945.14146
 14 11 14 07 55 37.0000000  0  1 17
         0.36346         0.88044  24000279.83648  24000279.02046  24000307.26544
 14 11 14 07 55 38.0000000  0  1 17
      1865.58046      1453.12045  24000634.69448  24000635.46246  24000678.27945
 14 11 14 07 55 39.0000000  0  1 17
      3762.04646      2934.39546  24000995.70848  24000997.62346  24000992.08446
 14 11 14 07 55 40.0000000  0  8 01 04 11 14 17 20 31 32
   4508964.48558   3513481.07158  21056117.28959  21056117.96458  21056121.16758
  -6845681.10258  -5334294.23558  21747747.83758  21747748.41958  21747749.42458
  -1086464.69557   -846592.10457  23330678.34158  23330678.29357  23330678.56057
  -6434206.03158  -5013664.93157  20085846.78958  20085846.73758  20085847.11057
      5679.71246      4428.48146  24001360.58448  24001363.34046  24001360.88546
  -6554859.07057  -5107677.18757  22544782.59458  22544782.56357  22544783.15057
  -1729678.03158  -1347797.99358  20385179.57959  20385180.19158  20385179.40458
  -6821906.58959  -5315768.00558  19428216.11159  19428215.96859  19428217.38358
 14 11 14 07 55 41.0000000  0  1 17
      7618.59846      5939.29246  24001729.09348  24001730.32646  24001728.82346
 14 11 14 07 55 42.0000000  0  1 17
      9591.73646      7476.79346  24002105.78848  24002106.75646  24002104.15946
 14 11 14 07 55 43.0000000  0  1 17
     11601.47546      9042.81146  24002487.32148  24002488.22146  24002486.92646
 14 11 14 07 55 44.0000000  0  1 17
     13636.90146     10628.86446  24002875.17548  24002875.47546  24002874.01646
 14 11 14 07 55 45.0000000  0  1 17
     15694.72346     12232.35346  24003265.53248  24003266.75246  24003266.64546
 14 11 14 07 55 46.0000000  0  1 17
     17788.11046     13863.57446  24003664.03848  24003665.47846  24003664.12846
 14 11 14 07 55 47.0000000  0  1 17
     19919.32846     15524.23546  24004070.18248  24004070.45646  24004071.64546
 14 11 14 07 55 48.0000000  0  1 17
     22076.34446     17205.06146  24004480.67148  24004480.52846  24004479.63346
 14 11 14 07 55 49.0000000  0  1 17
     24255.91346     18903.41846  24004894.52348  24004894.85446  24004895.48146
 14 11 14 07 55 50.0000000  0  8 01 04 11 14 17 20 31 32
   4766319.04158   3714017.08658  21105090.15559  21105090.89358  21105094.15858
  -6502538.95458  -5066910.75258  21813045.65158  21813046.09858  21813047.29158
   -721864.67257   -562488.21057  23400059.47958  23400059.65257  23400059.88057
  -6604582.64358  -5146425.93557  20053425.18958  20053425.09958  20053425.44857
     26470.51546     20629.05846  24005317.00248  24005317.21346  24005317.05746
  -6448816.33357  -5025046.50357  22564961.96358  22564961.97657  22564961.92257
  -1638036.37158  -1276388.89758  20402618.32459  20402619.02558  20402618.37158
  -6700773.16059  -5221378.32958  19451267.13259  19451266.90559  19451268.34558
 14 11 14 07 55 51.0000000  0  1 17
     28723.11246     22384.33446  24005744.68648  24005746.44746  24005745.81346
 14 11 14 07 55 52.0000000  0  1 17
     31001.26846     24159.51846  24006179.10848  24006179.16346  24006179.48946
 14 11 14 07 55 53.0000000  0  1 17
     33302.39846     25952.62446  24006616.57248  24006617.84746  24006616.99146
 14 11 14 07 55 54.0000000  0  1 17
     35638.50846     27772.94646  24007061.20748  24007062.43746  24007062.31546
 14 11 14 07 55 55.0000000  0  1 17
     38011.62746     29622.11746  24007512.90948  24007513.10246  24007512.90846
 14 11 14 07 55 56.0000000  0  1 17
     40409.82546     31490.84446  24007969.38248  24007969.09546  24007970.53646
 14 11 14 07 55 57.0000000  0  1 17
     42829.69146     33376.45446  24008429.41248  24008430.81346  24008430.96146
 14 11 14 07 55 58.0000000  0  1 17
     45284.29446     35289.10746  24008897.00648  24008898.46146  24008896.45946
 14 11 14 07 55 59.0000000  0  1 17
     47777.46446     37231.85746  24009371.60448  24009372.21046  24009372.54646
 14 11 14 07 56 00.0000000  0  8 01 04 11 14 17 20 31 32
   5027304.14158   3917382.09558  21154753.96959  21154754.76758  21154757.93858
  -6156985.77158  -4797648.54358  21878802.16158  21878802.88758  21878803.88458
   -355572.08356   -277065.42956  23469762.77758  23469762.88056  23469763.18556
  -6772316.75258  -5277127.84857  20021506.42258  20021506.48258  20021506.81857
     50295.33046     39193.84746  24009850.40548  24009850.34446  24009850.94346
  -6340098.79157  -4940331.55557  22585650.30058  22585650.17557  22585650.58257
  -1543780.61658  -1202942.85758  20420554.61059  20420555.25758  20420554.47858
  -6575524.14859  -5123781.70758  19475101.24659  19475101.04359  19475102.42558
 14 11 14 07 56 01.0000000  0  1 17
     52835.15546     41172.91846  24010334.07548  24010333.54746  24010333.30946
 14 11 14 07 56 02.0000000  0  1 17
     55410.25846     43179.49346  24010823.52148  24010823.88746  24010824.10446
 14 11 14 07 56 03.0000000  0  1 17
     58023.10646     45215.47446  24011321.43548  24011320.66546  24011321.43046
 14 11 14 07 56 04.0000000  0  1 17
     60660.68946     47270.69746  24011822.21048  24011822.43746  24011821.88046
 14 11 14 07 56 05.0000000  0  1 17
     63320.58546     49343.36546  24012329.19048  24012330.43046  24012329.58746
 14 11 14 07 56 06.0000000  0  1 17
     66015.45446     51443.24346  24012842.09548  24012842.41446  24012841.21246
 14 11 14 07 56 07.0000000  0  1 17
     68747.69246     53572.28146  24013362.33948  24013361.63246  24013361.94646
 14 11 14 07 56 08.0000000  0  1 17
     71505.23746     55720.99546  24013885.07948  24013886.68946  24013886.62946
 14 11 14 07 56 09.0000000  0  1 17
     74284.37246     57886.55546  24014415.24048  24014415.45546  24014416.24746
 14 11 14 07 56 10.0000000  0  8 01 04 11 14 17 20 31 32
   5291857.40158   4123527.48658  21205096.74158  21205097.46658  21205100.75758
  -5809091.36858  -4526562.01157  21945004.54758  21945004.98358  21945006.04057
     12348.17556      9625.64956  23539775.57358  23539775.65756  23539775.90556
  -6937398.89558  -5405763.28757  19990092.33858  19990092.36858  19990092.55457
     77097.62046     60078.72046  24014950.24448  24014950.14546  24014950.40046
  -6228727.83257  -4853549.00957  22606843.25358  22606843.19257  22606843.70257
  -1446934.09058  -1127478.03158  20438983.89259  20438984.43958  20438983.76458
  -6446195.95959  -5023006.50158  19499711.58359  19499711.34559  19499712.74658
 14 11 14 07 56 11.0000000  0  1 17
     79949.79546     62301.17246  24015492.22448  24015491.33546  24015492.72346
 14 11 14 07 56 12.0000000  0  1 17
     82827.06946     64543.20146  24016040.42648  24016039.78646  24016041.26746
 14 11 14 07 56 13.0000000  0  1 17
     85726.42646     66802.41746  24016592.90748  24016593.42946  24016593.77446
 14 11 14 07 56 14.0000000  0  1 17
     88659.60746     69088.00846  24017150.55648  24017150.99646  24017151.75146
 14 11 14 07 56 15.0000000  0  1 17
     91629.60446     71402.30046  24017716.72948  24017717.51746  24017716.12146
 14 11 14 07 56 16.0000000  0  1 17
     94625.59246     73736.82746  24018285.74248  24018286.94346  24018286.78246
 14 11 14 07 56 17.0000000  0  1 17
     97644.69846     76089.39446  24018860.40848  24018861.19546  24018861.57946
 14 11 14 07 56 18.0000000  0  1 17
    100697.96946     78468.56046  24019441.18648  24019442.25446  24019441.45146
 14 11 14 07 56 19.0000000  0  1 17
    103789.19246     80877.28946  24020030.14148  24020030.30346  24020030.09946
 14 11 14 07 56 20.0000000  0  8 01 04 11 14 17 20 31 32
   5559919.58358   4332407.09758  21256107.46158  21256108.07758  21256111.38558
  -5458922.05857  -4253702.82357  22011639.39358  22011639.84557  22011640.86757
    381834.98656    297537.41556  23610086.35858  23610086.94656  23610087.15256
  -7099816.46758  -5532322.44057  19959185.16858  19959185.41458  19959185.62257
    106904.51846     83304.82046  24020622.06448  24020623.19446  24020623.45746
  -6114721.79357  -4764713.17457  22628538.19158  22628537.89557  22628538.25557
  -1347516.78858  -1050010.00458  20457902.36959  20457903.09358  20457902.27458
  -6312822.32059  -4919079.00458  19525091.76059  19525091.53259  19525092.92458
 14 11 14 07 56 21.0000000  0  1 17
    110041.98446     85749.61246  24021219.97648  24021220.82646  24021219.78346
 14 11 14 07 56 22.0000000  0  1 17
    113213.85446     88221.15846  24021823.39348  24021823.59146  24021824.21246
 14 11 14 07 56 23.0000000  0  1 17
    116422.65346     90721.51946  24022433.64148  24022434.94146  24022434.16546
 14 11 14 07 56 24.0000000  0  1 17
    119656.00946     93241.05246  24023049.89148  24023050.42846  24023049.04846
 14 11 14 07 56 25.0000000  0  1 17
    122912.86846     95778.85146  24023669.63048  24023670.18946  24023669.55346
 14 11 14 07 56 26.0000000  0  1 17
    126203.61546     98343.07446  24024295.64648  24024295.71946  24024295.70246
 14 11 14 07 56 27.0000000  0  1 17
    129531.76346    100936.40946  24024928.52748  24024928.73546  24024929.94346
 14 11 14 07 56 28.0000000  0  1 17
    132884.80746    103549.16646  24025566.24948  24025567.43846  24025566.17046
 14 11 14 07 56 29.0000000  0  1 17
    136259.52646    106178.83546  24026208.54348  24026209.48146  24026209.40546
 14 11 14 07 56 30.0000000  0  8 01 04 11 14 17 20 31 32
   5831440.90658   4543982.14658  21307776.08158  21307776.82258  21307780.07358
  -5106533.94157  -3979114.68657  22078696.52358  22078697.34957  22078698.17157
    752837.24056    586630.07756  23680685.96758  23680686.13756  23680686.51756
  -7259547.14958  -5656787.91357  19928789.44558  19928789.58758  19928790.10257
    139670.16146    108836.45146  24026858.46648  24026857.73546  24026858.89346
  -5998089.80557  -4673831.12557  22650732.30858  22650732.19957  22650732.99357
  -1245539.43158   -970547.12558  20477308.03559  20477308.69858  20477307.94758
  -6175427.82059  -4812018.36458  19551237.03759  19551236.80159  19551238.23558
 14 11 14 07 56 31.0000000  0  1 17
    143117.91446    111522.99446  24027513.29048  24027515.28046  24027516.11546
 14 11 14 07 56 32.0000000  0  1 17
    146591.15646    114229.41846  24028175.35948  24028175.08946  24028175.81446
 14 11 14 07 56 33.0000000  0  1 17
    150086.22146    116952.86446  24028840.46148  24028841.49446  24028839.46646
 14 11 14 07 56 34.0000000  0  1 17
    153616.50946    119703.71546  24029511.62148  24029512.84746  24029512.16946
 14 11 14 07 56 35.0000000  0  1 17
    157184.38546    122483.87246  24030190.79248  24030190.20946  24030191.36846
 14 11 14 07 56 36.0000000  0  1 17
    160776.98446    125283.31246  24030874.40848  24030874.82446  24030874.65246
 14 11 14 07 56 37.0000000  0  1 17
    164391.66546    128099.94646  24031562.07648  24031562.28646  24031563.24046
 14 11 14 07 56 38.0000000  0  1 17
    168040.96846    130943.55946  24032256.19648  24032256.50746  24032258.16446
 14 11 14 07 56 39.0000000  0  1 17
    171726.42246    133815.33446  24032958.55248  24032958.86846  24032958.77846
 14 11 14 07 56 40.0000000  0  8 01 04 11 14 17 20 31 32
   6106381.54958   4758221.58958  21360095.68458  21360096.38458  21360099.54758
  -4751972.71557  -3702833.24057  22146167.41758  22146168.01757  22146169.23857
   1125314.27756    876871.87456  23751566.03358  23751566.45656  23751566.28556
  -7416558.85158  -5779134.71057  19898911.32658  19898911.30058  19898911.59957
    175437.86246    136707.39746  24033663.63748  24033664.32346  24033664.58746
  -5878830.93357  -4580902.16557  22673426.55658  22673426.39557  22673426.96657
  -1141002.73658   -889089.96458  20497200.67459  20497201.25358  20497200.58558
  -6034027.63159  -4701836.41958  19578144.57659  19578144.39659  19578145.83758
 14 11 14 07 56 41.0000000  0  1 17
    179171.08446    139616.34346  24034375.11148  24034375.90946  24034374.43746
 14 11 14 07 56 42.0000000  0  1 17
    182939.06146    142552.41046  24035091.26348  24035093.78346  24035091.17746
 14 11 14 07 56 43.0000000  0  1 17
    186744.34046    145517.58346  24035815.74248  24035815.78146  24035815.73546
 14 11 14 07 56 44.0000000  0  1 17
    190573.97646    148501.72946  24036543.47548  24036546.81446  24036545.84346
 14 11 14 07 56 45.0000000  0  1 17
    194426.18746    151503.45146  24037276.60848  24037278.56946  24037278.28546
 14 11 14 07 56 46.0000000  0  1 17
    198312.53646    154531.74346  24038016.44448  24038017.21446  24038017.48246
 14 11 14 07 56 47.0000000  0  1 17
    202235.94646    157588.93946  24038764.13848  24038765.23346  24038763.63346
 14 11 14 07 56 48.0000000  0  1 17
    206184.88546    160666.04946  24039515.00448  24039517.51346  24039516.63846
 14 11 14 07 56 49.0000000  0  1 17
    210154.85146    163759.52146  24040269.90748  24040270.37546  24040270.83846
 14 11 14 07 56 50.0000000  0  8 01 04 11 14 17 20 31 32
   6384687.88958   4975083.66258  21413055.47158  21413056.26058  21413059.58658
  -4395297.58157  -3424904.57257  22214040.48158  22214040.99057  22214042.12357
   1499212.18456   1168220.88256  23822716.46858  23822716.72856  23822716.98056
  -7570833.20958  -5899348.50158  19869553.72458  19869554.03458  19869554.14958
    214159.56446    166880.04346  24041033.57348  24041032.10646  24041033.50146
  -5756958.18557  -4485936.41757  22696618.09758  22696618.17057  22696618.74257
  -1033921.14558   -805649.76458  20517577.65759  20517578.28658  20517577.53758
  -5888651.06359  -4588555.98358  19605808.83659  19605808.70359  19605810.10958
 14 11 14 07 56 51.0000000  0  1 17
    218202.04146    170030.02146  24041802.78448  24041801.74546  24041801.71046
 14 11 14 07 56 52.0000000  0  1 17
    222269.24646    173199.33546  24042575.64948  24042574.16546  24042576.32146
 14 11 14 07 56 53.0000000  0  1 17
    226358.89746    176386.03946  24043354.56448  24043354.51946  24043355.16546
 14 11 14 07 56 54.0000000  0  1 17
    230482.13546    179598.95846  24044138.20548  24044138.05446  24044140.15446
 14 11 14 07 56 55.0000000  0  1 17
    234643.85146    182841.84346  24044930.65748  24044930.15346  24044931.33246
 14 11 14 07 56 56.0000000  0  1 17
    238830.78946    186104.38746  24045728.11448  24045727.77446  24045728.08946
 14 11 14 07 56 57.0000000  0  1 17
    243038.60846    189383.20746  24046528.02048  24046526.85446  24046528.43246
 14 11 14 07 56 58.0000000  0  1 17
    247282.72646    192690.33646  24047335.21248  24047334.40146  24047336.05946
 14 11 14 07 56 59.0000000  0  1 17
    251564.32846    196026.64646  24048150.09048  24048149.60046  24048151.70346
 14 11 14 07 57 00.0000000  0  8 01 04 11 14 17 20 31 32
   6666309.76158   5194529.25758  21466646.47958  21466647.22058  21466650.49858
  -4036563.54657  -3145371.58457  22282305.56458  22282306.03057  22282307.14357
   1874481.27656   1460638.30556  23894127.66158  23894128.02856  23894127.82156
  -7722348.39058  -6017412.29058  19840721.40458  19840721.59458  19840721.96958
    255868.32646    199380.38646  24048969.68348  24048969.15046  24048972.20646
  -5632481.33757  -4388941.50457  22720305.46458  22720305.22757  22720306.01257
   -924305.75158   -720235.18258  20538436.62659  20538437.44958  20538436.73158
  -5739324.48359  -4472197.62958  19634224.79559  19634224.61759  19634226.05458
 14 11 14 07 57 01.0000000  0  1 17
    260193.38746    202750.54446  24049792.62348  24049792.83946  24049793.54946
 14 11 14 07 57 02.0000000  0  1 17
    264552.93246    206147.59746  24050622.31248  24050623.33446  24050623.27546
 14 11 14 07 57 03.0000000  0  1 17
    268949.74946    209573.68746  24051459.37648  24051458.86746  24051461.00446
 14 11 14 07 57 10.0000000  0  8 01 04 11 14 17 20 31 32
   6951187.74658   5416512.08358  21520856.90358  21520857.62958  21520860.86058
  -3675834.52957  -2864284.05857  22350949.86458  22350950.24457  22350951.30157
   2251062.84756   1754078.46456  23965789.09258  23965789.18556  23965789.32156
  -7871091.90958  -6133316.33858  19812416.53158  19812416.54058  19812416.90358
    300511.94646    234167.62746  24057464.97448  24057466.07746  24057465.61246
  -5505419.70057  -4289932.46857  22744484.30058  22744484.21957  22744485.22657
   -812177.02958   -632862.15058  20559774.16559  20559774.79958  20559774.18658
  -5586083.96359  -4352789.44758  19663385.52959  19663385.34559  19663386.84658
 14 11 14 07 57 20.0000000  0  8 01 04 11 14 17 20 31 32
   7239287.35448   5641005.26248  21575680.39048  21575681.23048  21575684.39348
  -3313149.03147  -2581672.00947  22419966.53348  22419967.22347  22419968.45347
   2628923.76946   2048515.50046  24037693.64348  24037693.96346  24037694.15046
  -8017026.48748  -6247031.61348  19784646.03848  19784646.02248  19784646.54348
    348119.97346    271264.76046  24066524.29148  24066525.09946  24066524.86046
  -5375767.76247  -4188905.01447  22769156.58848  22769156.46147  22769156.96247
   -697530.53348   -543527.23048  20581590.68349  20581591.35148  20581590.60148
  -5428941.01349  -4230340.42048  19693288.83649  19693288.60849  19693290.12148
 14 11 14 07 57 30.0000000  0  8 01 04 11 14 17 20 31 32
   7530552.53048   5867965.11648  21631106.46148  21631107.04648  21631110.49148
  -2948566.64547  -2297581.86747  22489344.20248  22489344.57747  22489345.76247
   3008009.76846   2343907.13246  24109831.39048  24109831.12646  24109831.74346
  -8160136.47548  -6358545.89648  19757413.13248  19757413.12348  19757413.61848
    398673.39346    310657.02346  24076144.01448  24076145.09246  24076145.50946
  -5243541.90947  -4085871.90247  22794318.17348  22794318.33247  22794318.57347
   -580383.49948   -452243.83448  20603882.93149  20603883.50848  20603883.00648
  -5267929.21049  -4104876.69648  19723928.41249  19723928.15349  19723929.65648
 14 11 14 07 57 40.0000000  0  8 01 04 11 14 17 20 31 32
   7824923.73948   6097345.25148  21687123.34548  21687123.99748  21687127.44648
  -2582150.07447  -2012062.48947  22559071.00648  22559071.62747  22559072.53947
   3388263.59646   2640208.76146  24182191.10848  24182191.19646  24182191.62446
  -8300409.94448  -6467849.91048  19730719.98948  19730720.03048  19730720.48748
    452154.70246    352330.74246  24086321.57448  24086321.85946  24086322.03546
  -5108762.02147  -3980848.64947  22819965.95148  22819965.87947  22819966.55047
   -460756.73748   -359028.18648  20626647.20049  20626647.83848  20626647.12748
  -5103086.00249  -3976427.46448  19755297.03849  19755296.81449  19755298.33948
 14 11 14 07 57 50.0000000  0  8 01 04 11 14 17 20 31 32
   8122352.64848   6329108.00548  21743722.24648  21743723.00048  21743726.25948
  -2213950.21347  -1725153.53847  22629137.12548  22629137.56947  22629138.68147
   3769639.62846   2937384.87446  24254764.72048  24254764.52546  24254765.05546
  -8437823.87248  -6574925.70348  19704570.98148  19704571.03748  19704571.53148
    508557.25646    396280.77846  24097054.69048  24097054.97846  24097055.45346
  -4971436.98147  -3873842.14247  22846098.27648  22846098.06147  22846098.53147
   -338659.93148   -263887.82948  20649881.35549  20649882.02548  20649881.41848
  -4934438.17149  -3845013.59048  19787389.62949  19787389.41749  19787390.97148
 14 11 14 07 58 00.0000000  0  8 01 04 11 14 17 20 31 32
   8422777.48848   6563205.24748  21800891.20548  21800891.99648  21800895.28048
  -1844031.16847  -1436904.95847  22699530.19048  22699530.64047  22699531.99147
   4152079.30846   3235389.76046  24327540.88648  24327541.17446  24327541.03246
  -8572368.78248  -6679765.90348  19678968.03848  19678967.97548  19678968.45748
    567860.40646    442490.99746  24108339.96948  24108339.68746  24108340.13646
  -4831589.54447  -3764870.14247  22872710.52448  22872710.10347  22872710.81347
   -214116.40048   -166840.93648  20673581.36449  20673581.95148  20673581.30648
  -4762026.44249  -3710666.81648  19820198.51049  19820198.31549  19820199.83748
 14 11 14 07 58 10.0000000  0  8 01 04 11 14 17 20 31 32
   8726168.04648   6799613.44348  21858624.67848  21858625.37748  21858628.69348
  -1472425.01446  -1147341.75447  22770244.57048  22770245.11146  22770246.61547
   4535555.99346   3534202.69946  24400513.73948  24400514.43046  24400513.81046
  -8704003.95948  -6782338.77248  19653918.62448  19653918.79248  19653919.17348
    630074.70346    490969.66746  24120179.06548  24120179.20146  24120179.22446
  -4689210.93647  -3653925.78347  22899804.21848  22899803.84247  22899804.53847
    -87117.99148    -67881.14148  20697748.22649  20697748.96248  20697748.27148
  -4585860.26249  -3573394.49048  19853721.85249  19853721.63749  19853723.17148
 14 11 14 07 58 20.0000000  0  8 01 04 11 14 17 20 31 32
   9032446.67648   7038272.07648  21916907.53748  21916908.30348  21916911.56448
  -1099210.85546   -856525.57747  22841264.88348  22841265.31346  22841266.53747
   4919996.02546   3833766.28846  24473670.14848  24473670.00746  24473670.92046
  -8832736.37848  -6882649.75648  19629421.53348  19629421.73248  19629422.15848
    695162.91446    541687.72646  24132564.68048  24132564.91346  24132565.36246
  -4544340.39547  -3541039.66647  22927372.02248  22927371.80547  22927372.31447
     42295.84848     32960.79948  20722374.86349  20722375.61248  20722375.02948
  -4405997.12849  -3433241.42748  19887948.57249  19887948.48949  19887950.02748
 14 11 14 07 58 30.0000000  0  8 01 04 11 14 17 20 31 32
   9341571.97748   7279148.89948  21975732.15148  21975732.80848  21975736.29348
   -724431.18146   -564489.50346  22912583.23648  22912584.03346  22912585.12246
   5305362.43646   4134051.72446  24547003.20648  24547002.34546  24547003.41146
  -8958537.02548  -6980676.23248  19605482.55648  19605482.59148  19605483.00148
    763123.30346    594643.87346  24145497.48148  24145497.47546  24145498.02446
  -4396981.10947  -3426214.25947  22955413.73948  22955413.25547  22955413.77947
    174121.65648    135682.19148  20747460.55249  20747461.17948  20747460.67448
  -4222458.62449  -3290224.43148  19922874.81749  19922874.70849  19922876.30448
 14 11 14 07 58 40.0000000  0  8 01 04 11 14 17 20 31 32
   9653481.90448   7522195.55948  22035086.55348  22035087.39648  22035090.51148
   -348148.72646   -271282.45046  22984187.25048  22984187.66546  22984188.79346
   5691597.86346   4435014.36146  24620501.46048  24620500.82246  24620501.70846
  -9081397.88948  -7076411.97448  19582102.95948  19582103.12448  19582103.49148
    833933.14646    649820.37846  24158972.11048  24158971.90646  24158972.17346
  -4247157.14947  -3309468.31347  22983924.47848  22983923.96047  22983924.63347
    308335.27848    240264.22048  20773000.53149  20773001.18848  20773000.58848
  -4035287.60249  -3144376.90848  19958492.32549  19958492.18749  19958493.80648
 14 11 14 07 58 50.0000000  0  8 01 04 11 14 17 20 31 32
   9968135.78147   7767380.35848  22094963.31948  22094963.83447  22094967.28648
     29595.51346     23063.67746  23056069.58148  23056070.10046  23056071.55346
   6078666.95046   4736626.55146  24694158.26848  24694158.80046  24694158.63346
  -9201289.80148  -7169834.23848  19559288.22348  19559288.32248  19559288.75648
    907590.60346    707215.78346  24172988.33948  24172988.51746  24172988.92846
  -4094871.61647  -3190804.28047  23012903.31548  23012902.88347  23012903.19547
    444933.57848    346704.44048  20798994.36648  20798995.06048  20798994.40348
  -3844505.91648  -2995715.87148  19994796.91249  19994796.69148  19994798.36248
 14 11 14 07 59 00.0000000  0  8 01 04 11 14 17 20 31 32
  10285475.31347   8014657.86048  22155350.92648  22155351.84947  22155355.16248
    408743.34346    318503.49946  23128218.91248  23128220.10146  23128220.96346
   6466516.82946   5038847.16846  24767963.62248  24767963.72046  24767964.51846
  -9318201.66548  -7260934.39048  19537040.66448  19537040.75748  19537041.19148
    984075.61346    766814.46146  24187543.13148  24187543.95146  24187543.80946
  -3940145.40847  -3070238.40247  23042346.63148  23042346.33747  23042346.82647
    583895.69448    454986.58748  20825438.05048  20825438.63048  20825438.14748
  -3650153.41448  -2844272.38948  20031781.02249  20031780.77748  20031782.42848
 14 11 14 07 59 10.0000000  0  8 01 04 11 14 17 20 31 32
  10605444.03147   8263984.08148  22216238.80448  22216239.84047  22216243.12148
    789238.57146    614993.22946  23200625.27548  23200625.51746  23200627.28346
   6855096.91346   5341636.72946  24841908.07048  24841908.99246  24841908.81246
  -9432120.95848  -7349702.65948  19515362.56049  19515362.61248  19515362.99648
   1063369.60346    828601.98546  24202632.31748  24202632.78046  24202632.45346
  -3782997.98447  -2947785.86247  23072250.58648  23072250.40147  23072250.99647
    725202.30148    565095.60348  20852327.76748  20852328.47248  20852327.86548
  -3452268.73548  -2690076.57648  20069437.15749  20069437.00148  20069438.79248
 14 11 14 07 59 20.0000000  0  8 01 04 11 14 17 20 31 32
  10927990.17947   8515318.70048  22277617.57048  22277618.39747  22277621.61848
   1171030.23146    912493.17146  23273277.60848  23273277.90046  23273279.21446
   7244361.47746   5644959.68446  24915982.50848  24915982.99746  24915982.73046
  -9543030.80448  -7436125.90648  19494257.11849  19494257.20248  19494257.54848
   1145457.86646    892566.86446  24218252.94048  24218253.69846  24218253.53646
  -3623444.49247  -2823458.44947  23102612.48648  23102612.43147  23102613.23147
    868838.56948    677019.94948  20879660.78648  20879661.49648  20879660.94648
  -3250886.10548  -2533155.04248  20107759.05149  20107758.84748  20107760.47648
 14 11 14 07 59 30.0000000  0  8 01 04 11 14 17 20 31 32
  11253071.62747   8768628.89048  22339478.39148  22339479.16847  22339482.48248
   1554077.08246   1210971.21446  23346169.15948  23346170.08546  23346171.03846
   7634274.93646   5948788.25146  24990181.44848  24990179.55546  24990180.90346
  -9650905.02748  -7520183.72748  19473729.26749  19473729.32148  19473729.76548
   1230335.00346    958704.89446  24234404.72648  24234405.58946  24234405.37146
  -3461490.75147  -2697260.71047  23133431.40448  23133431.13147  23133431.77947
   1014799.10348    790755.41648  20907436.26948  20907436.91848  20907436.35648
  -3046030.67948  -2373527.44048  20146741.71549  20146741.51748  20146743.27148
 14 11 14 07 59 40.0000000  0  8 01 04 11 14 17 20 31 32
  11580622.14447   9023863.02148  22401809.22148  22401809.97047  22401813.49448
   1938314.45546   1510376.88946  23419287.15148  23419287.86346  23419288.91546
   8024777.83846   6253076.14346  25064491.31848  25064491.89646  25064491.48646
  -9755742.12348  -7601874.95848  19453779.51749  19453779.58648  19453779.85048
   1317970.90846   1026992.58046  24251081.41348  24251081.64046  24251081.46846
  -3297167.13847  -2569216.33547  23164700.95148  23164701.21847  23164701.27747
   1163054.03048    906278.70848  20935648.28348  20935648.75248  20935648.30948
  -2837752.07648  -2211232.39348  20186375.78149  20186375.59148  20186377.30748
 14 11 14 07 59 50.0000000  0  8 01 04 11 14 17 20 31 32
  11910590.00647   9280980.81048  22464600.15548  22464600.72047  22464604.15748
   2323692.05946   1810671.08046  23492622.14548  23492623.26346  23492624.02346
   8415825.53346   6557788.55946  25138905.05248  25138905.25846  25138905.85046
  -9857526.37048  -7681187.33748  19434410.58549  19434410.60948  19434410.91148
   1408349.44546   1097417.41946  24268279.95148  24268280.24846  24268279.76946
  -3130489.83447  -2439337.91747  23196418.74748  23196418.61047  23196419.06647
   1313587.90348   1023577.81748  20964293.88148  20964294.66548  20964294.04348
  -2626085.96648  -2046297.71548  20226654.51249  20226654.31148  20226655.95548
