     2              OBSERVATION DATA    GPS                 RINEX VERSION / TYPE
BJrnx               Jason               2008-10-24 21:31:53 PGM / RUN BY / DATE
RECNUM              RECTYPE             RECVERS             REC # / TYPE / VERS
ANTNUM              ANTTYPE                                 ANT # / TYPE
        0.0000        0.0000        0.0000                  APPROX POSITION XYZ
        0.0000        0.0000        0.0000                  ANTENNA: DELTA H/E/N
     1     1     0                                          WAVELENGTH FACT L1/2
     5    L1    L2    C1    P1    P2                        # / TYPES OF OBSERV
    10                                                      INTERVAL
  2008    10    24    19    03   50.000000      GPS         TIME OF FIRST OBS
SNR is mapped to signal strength [0,1,2-9]                  COMMENT
 SNR: >500 >100  >50  >10   >5   >3  >1  >0  bad  n/a       COMMENT
 sig:    9    8    7    6    5    4   3   2    1    0       COMMENT
                                                            END OF HEADER
 08 10 24 19 03 50.0000000  0  2 11 28
 -15350994.81358 -11961813.92658  19127556.67359  19127556.69258  19127556.76658
  -4010898.62958  -3125374.86558  20505554.76759  20505554.69658  20505555.19458
 08 10 24 19 04 00.0000000  0  5 11 17 19 22 28
 -15339867.60248 -11953143.37148  19129674.11749  19129674.08748  19129674.20848
  16485277.88957  12845672.32557  22837801.84858  22837802.05257  22837802.37657
  -2233028.37256  -1740022.10056  22494051.38058  22494050.86856  22494050.65356
  -3340771.73556  -2603184.97556  23319572.04058  23319571.38556  23319571.74556
  -3769550.93448  -2937311.72348  20551481.73449  20551481.60848  20551482.21848
 08 10 24 19 04 10.0000000  0  6 09 11 17 19 22 28
     -7680.48356     -5984.18656  23243330.56357  23243330.03456  23243331.32856
 -15324814.89248 -11941413.98848  19132538.61049  19132538.51248  19132538.57448
  16770923.48147  13068253.31247  22892158.29048  22892158.50747  22892159.10547
  -2462764.62346  -1919037.37246  22450334.14748  22450333.67246  22450331.82746
  -3540032.69246  -2758453.26046  23281653.77548  23281654.11346  23281653.92846
  -3524375.65748  -2746266.05548  20598137.05349  20598136.84748  20598137.43548
 08 10 24 19 04 20.0000000  0  6 09 11 17 19 22 28
    -24221.12946    -18871.93846  23240186.14347  23240187.70946  23240188.51646
 -15305731.55648 -11926543.85548  19136169.93649  19136169.97048  19136170.05848
  17058569.30647  13292392.91447  22946895.50748  22946895.84647  22946896.15347
  -2690266.76546  -2096311.76546  22407041.66648  22407040.60146  22407040.34646
  -3736306.95746  -2911394.25146  23244304.29048  23244302.88646  23244303.43546
  -3275309.98048  -2552188.90248  20645532.65849  20645532.55848  20645533.11448
 08 10 24 19 04 30.0000000  0  6 09 11 17 19 22 28
    -37571.46246    -29238.44146  23237642.30948  23237641.89346  23237644.61546
 -15283396.53648 -11909139.94548  19140420.25849  19140420.17848  19140420.25248
  17347411.60347  13517464.83047  23001860.16948  23001860.56947  23001860.99847
  -2916290.84946  -2272434.43746  22364030.50848  22364030.18246  22364029.16046
  -3930350.00946  -3062596.68446  23207379.36748  23207377.81246  23207378.26746
  -3023174.90948  -2355720.01748  20693512.39149  20693512.26248  20693512.68748
 08 10 24 19 04 40.0000000  0  6 09 11 17 19 22 28
    -47798.00946    -37205.47646  23235696.67448  23235696.23646  23235698.67146
 -15257884.25048 -11889260.23948  19145274.94949  19145275.04648  19145275.12648
  17637351.88247  13743392.32347  23057034.07548  23057034.37947  23057034.58347
  -3140888.03546  -2447445.23146  22321291.67848  22321290.91246  22321288.86846
  -4122212.71446  -3212098.02646  23170868.76748  23170868.67646  23170866.90046
  -2768086.66048  -2156949.95048  20742054.10749  20742053.98448  20742054.35048
 08 10 24 19 04 50.0000000  0  6 09 11 17 19 22 28
    -54841.55946    -42694.09946  23234356.41648  23234354.79846  23234356.96146
 -15229143.54948 -11866864.88948  19150744.12949  19150744.20048  19150744.29048
  17928417.90147  13970197.01247  23112422.17748  23112422.33247  23112422.99347
  -3363983.20846  -2621285.64146  22278837.98148  22278837.05646  22278835.82846
  -4311820.09946  -3359844.04046  23134787.80648  23134787.61546  23134787.10546
  -2510035.34548  -1955871.00348  20791159.57049  20791159.42048  20791159.87348
 08 10 24 19 05 00.0000000  0  6 09 11 17 19 22 28
    -58683.62746    -45687.66946  23233624.83148  23233624.05546  23233627.48946
 -15197163.71048 -11841945.53348  19156829.67649  19156829.73648  19156829.87348
  18220597.42247  14197869.35947  23168021.92648  23168022.52047  23168022.71847
  -3585541.32346  -2793928.31046  22236676.48148  22236675.99546  22236674.55046
  -4499137.22346  -3505805.45546  23099142.46948  23099141.39746  23099141.01746
  -2249051.29248  -1752506.80248  20840823.22949  20840823.07548  20840823.49348
 08 10 24 19 05 10.0000000  0  6 09 11 17 19 22 28
    -59319.80246    -46184.60446  23233504.10348  23233503.50346  23233505.49546
 -15161947.95948 -11814504.68848  19163531.06649  19163531.01848  19163531.21048
  18513864.91147  14426389.48747  23223829.10248  23223829.63647  23223829.62547
  -3805540.74646  -2965356.45646  22194812.05548  22194811.99746  22194811.36546
  -4684142.87246  -3649965.73046  23063937.06348  23063936.43046  23063935.13546
  -1985178.46548  -1546891.61248  20891036.46549  20891036.37148  20891036.98048
 08 10 24 19 05 20.0000000  0  6 09 11 17 19 22 28
    -56746.25146    -44178.29446  23233992.94648  23233993.42846  23233992.88146
 -15123499.95948 -11784545.20648  19170847.41749  19170847.40748  19170847.70248
  18808195.07747  14655737.67247  23279838.30748  23279838.66147  23279838.59947
  -4023959.77946  -3135553.09146  22153248.49448  22153247.43246  22153247.44646
  -4866816.34346  -3792308.67546  23029175.78248  23029173.55446  23029175.02846
  -1718460.72148  -1339059.60448  20941791.19949  20941791.07848  20941791.47148
 08 10 24 19 05 30.0000000  0  6 09 11 17 19 22 28
    -50959.38746    -39671.30446  23235094.92648  23235095.63246  23235096.60446
 -15081823.28848 -11752069.87948  19178778.20849  19178778.29348  19178778.43448
  19103563.25046  14885894.69047  23336044.83748  23336045.32446  23336045.41647
  -4240776.08646  -3304500.88246  22111989.20848  22111989.18546  22111988.81146
  -5047136.15046  -3932817.62646  22994861.81548  22994860.45246  22994860.62946
  -1448941.52248  -1129044.64048  20993078.93549  20993078.81448  20993079.33648
 08 10 24 19 05 40.0000000  0  6 09 11 17 19 22 28
    -41956.96146    -32653.48046  23236807.80148  23236808.04946  23236808.68946
 -15036922.85348 -11717082.52648  19187322.57049  19187322.58148  19187322.70448
  19399943.99546  15116840.71547  23392444.35748  23392444.73246  23392444.82447
  -4455968.36546  -3472183.17946  22071040.02148  22071039.10146  22071038.40846
  -5225082.26546  -4071476.95746  22960999.72048  22960999.84946  22960998.70346
  -1176665.26848   -916881.32448  21044891.43749  21044891.25348  21044891.76148
 08 10 24 19 05 50.0000000  0  6 09 11 17 19 22 28
    -29735.48446    -23128.94646  23239133.58448  23239134.45646  23239134.58146
 -14988802.19348 -11679585.90648  19196479.57949  19196479.61648  19196479.81648
  19697313.72346  15348557.39547  23449031.83348  23449032.41346  23449032.23447
  -4669513.48646  -3638581.97246  22030403.51148  22030403.20446  22030402.46546
  -5400632.96846  -4208269.73046  22927593.88048  22927594.06246  22927592.01746
   -901674.73748   -702602.98448  21097220.51349  21097220.27148  21097220.75348
 08 10 24 19 06 00.0000000  0  6 09 11 17 19 22 28
    -14294.95046    -11097.31346  23242072.31548  23242072.41946  23242074.25746
 -14937467.89548 -11639585.15448  19206248.17549  19206248.28248  19206248.41748
  19995646.55146  15581024.53147  23505802.69448  23505802.79346  23505803.39547
  -4881390.77046  -3803681.17646  21990084.83548  21990084.42146  21990083.56946
  -5573769.46146  -4343181.25546  22894646.67048  22894645.95546  22894646.02246
   -624015.02048   -486244.76448  21150057.33749  21150057.12148  21150057.73348
 08 10 24 19 06 10.0000000  0  6 09 11 17 19 22 28
      4365.23046      3442.87146  23245622.37748  23245622.21646  23245621.45146
 -14882926.20948 -11597085.13848  19216627.18549  19216627.21248  19216627.31048
  20294917.56646  15814222.71847  23562752.09548  23562751.98946  23562752.84547
  -5091578.73746  -3967464.02646  21950087.38748  21950086.98146  21950086.11446
  -5744472.43546  -4476196.57546  22862162.87248  22862162.52046  22862161.86646
   -343730.39748   -267841.16548  21203393.71949  21203393.55248  21203394.00248
 08 10 24 19 06 20.0000000  0  6 09 11 17 19 22 28
     26243.73446     20488.25846  23249785.71048  23249785.24046  23249786.86346
 -14825184.75748 -11552091.79748  19227614.97849  19227615.02748  19227615.16748
  20595100.94946  16048131.85447  23619875.23248  23619875.56446  23619875.78747
  -5300056.96046  -4129914.59046  21910415.04748  21910414.74646  21910414.12446
  -5912723.78246  -4607301.50046  22830145.86048  22830146.16646  22830144.99246
    -60866.17448    -47427.48548  21257221.00949  21257220.86048  21257221.18748
 08 10 24 19 06 30.0000000  0  6 09 11 17 19 22 28
     51340.27646     40045.27846  23254561.49048  23254561.74846  23254561.44546
 -14764250.04448 -11504610.20448  19239210.46449  19239210.53348  19239210.70448
  20896172.62146  16282733.16747  23677167.18448  23677167.43846  23677167.86147
  -5506803.47146  -4291015.77246  21871072.68648  21871071.67146  21871071.35146
  -6078504.14546  -4736480.98346  22798599.01248  22798599.92546  22798597.25646
    224533.83548    174962.13848  21311530.79848  21311530.63348  21311531.11148
 08 10 24 19 06 40.0000000  0  6 09 11 17 19 22 28
     79651.39846     62098.69946  23259948.98748  23259948.75946  23259952.57046
 -14700131.67248 -11454647.83648  19251411.81449  19251411.79148  19251411.99448
  21198105.95246  16518005.87947  23734623.28748  23734623.00446  23734623.45947
  -5711798.87947  -4450752.46647  21832063.48848  21832062.76847  21832062.10447
  -6241797.02246  -4863722.20746  22767525.45348  22767525.78346  22767523.32846
    512423.17648    399291.49448  21366314.31048  21366314.21048  21366314.71148
 08 10 24 19 06 50.0000000  0  7 09 11 17 19 20 22 28
    111174.65646     86663.23546  23265947.57748  23265948.41746  23265948.87646
 -14632837.92348 -11402211.15048  19264217.36949  19264217.43848  19264217.57148
  21500876.29746  16753930.82947  23792238.23648  23792238.47346  23792239.17747
  -5915022.08647  -4609108.21747  21793391.25148  21793390.36247  21793390.21347
     -7542.30456     -5876.56056  23752210.36558  23752210.59556  23752211.38956
  -6402584.47146  -4989011.12446  22736928.24948  22736928.91746  22736927.61646
    802757.34148    625525.90748  21421563.10248  21421562.89648  21421563.44248
 08 10 24 19 07 00.0000000  0  7 09 11 17 19 20 22 28
    145905.73646    113731.91846  23272555.95448  23272553.12946  23272558.22146
 -14562378.74648 -11347307.89648  19277625.35549  19277625.30148  19277625.51748
  21804457.82946  16990487.86347  23850008.00248  23850008.26046  23850008.66647
  -6116453.26347  -4766067.58947  21755060.48048  21755059.51047  21755059.05047
    -32840.49646    -25589.48046  23747341.14048  23747341.75746  23747343.49046
  -6560850.07946  -5112334.99346  22706811.34548  22706812.38246  22706810.79246
   1095490.45548    853629.63248  21477268.40448  21477268.16248  21477268.75148
 08 10 24 19 07 10.0000000  0  7 09 11 17 19 20 22 28
    183841.37146    143294.22946  23279775.99548  23279773.31346  23279778.73046
 -14488762.85849 -11289944.86848  19291633.95949  19291633.92949  19291634.06448
  22108826.56246  17227658.30547  23907927.64348  23907927.68146  23907927.97847
  -6316070.98047  -4921613.86547  21717074.27948  21717073.43647  21717073.16347
    -56543.19246    -44059.10246  23742830.19448  23742831.09446  23742832.77146
  -6716576.14946  -5233679.96446  22677177.73348  22677178.24746  22677176.57646
   1390578.47848   1083568.35248  21533421.71248  21533421.48948  21533422.11548
 08 10 24 19 07 20.0000000  0  7 09 11 17 19 20 22 28
    224975.99646    175346.17546  23287602.84447  23287602.59846  23287604.59446
 -14412001.01949 -11230130.44948  19306241.32649  19306241.29549  19306241.42448
  22413957.08646  17465422.36647  23965991.91348  23965992.17346  23965992.69247
  -6513855.31447  -5075731.53147  21679437.52548  21679435.80447  21679436.10047
    -78877.65246    -61462.56846  23738580.32848  23738579.00446  23738581.89246
  -6869746.88546  -5353033.79946  22648030.54948  22648029.84946  22648029.19246
   1687975.90648   1315306.60548  21590014.64548  21590014.55248  21590014.87148
 08 10 24 19 07 30.0000000  0  8 09 11 14 17 19 20 22 28
    269305.41146    209890.99946  23296039.46747  23296041.74346  23296039.40746
 -14332102.59349 -11167871.93448  19321445.47249  19321445.39049  19321445.52048
    -92526.32256    -72097.87756  22125885.77458  22125884.51856  22125886.38156
  22719825.89746  17703761.69247  24024196.95448  24024196.51946  24024197.66447
  -6709784.69747  -5228403.78847  21642153.04048  21642152.80047  21642151.73347
    -99831.11546    -77789.96446  23734593.42948  23734592.54846  23734593.50746
  -7020344.95446  -5470382.96346  22619372.37448  22619372.12646  22619371.56346
   1987639.01048   1548810.32648  21647038.50248  21647038.56248  21647038.95048
 08 10 24 19 07 40.0000000  0  8 09 11 14 17 19 20 22 28
    316824.86146    246923.19546  23305081.17447  23305083.20146  23305080.29846
 -14249077.21649 -11103176.83848  19337244.57649  19337244.67049  19337244.85648
   -411679.45346   -320788.70946  22064479.43548  22064478.61346  22064478.86046
  23026409.77246  17942658.20047  24082537.78248  24082537.84446  24082538.14947
  -6903837.47947  -5379613.75647  21605226.18148  21605225.50447  21605224.84447
   -119390.76146    -93031.21646  23730871.41048  23730870.25146  23730872.75846
  -7168353.42346  -5585714.21846  22591207.48548  22591207.17246  22591206.08146
   2289524.46048   1784045.73948  21704485.49748  21704485.37448  21704485.87948
 08 10 24 19 07 50.0000000  0  8 09 11 14 17 19 20 22 28
    367528.52646    286430.28346  23314730.50647  23314729.31546  23314732.64846
 -14162935.29849 -11036053.26648  19353636.89349  19353636.90349  19353637.05448
   -725097.39946   -565010.50246  22004837.55648  22004837.08446  22004838.39646
  23333685.39946  18182093.77546  24141009.89848  24141010.48846  24141011.18346
  -7095992.36247  -5529344.84447  21568660.24048  21568659.09947  21568659.38447
   -137544.20946   -107176.78546  23727416.48148  23727415.06646  23727417.60746
  -7313755.74846  -5699014.73546  22563538.52148  22563538.83046  22563537.73746
   2593588.54648   2020978.79948  21762346.98748  21762346.73848  21762347.25048
 08 10 24 19 08 00.0000000  0  8 09 11 14 17 19 20 22 28
    421410.96946    328417.84546  23324982.98047  23324982.22146  23324984.05946
 -14073686.75249 -10966508.94348  19370620.27949  19370620.35649  19370620.52748
  -1035620.72546   -806976.73046  21945747.31048  21945746.55546  21945748.17546
  23641630.49146  18422050.98046  24199610.35748  24199610.87146  24199611.07746
  -7286227.12947  -5677579.74147  21532459.91248  21532458.97247  21532459.03647
   -154278.34246   -120216.37446  23724232.61248  23724231.79146  23724233.51946
  -7456534.93146  -5810271.23646  22536368.30648  22536368.78746  22536367.53346
   2899788.58548   2259576.23148  21820614.75348  21820614.79348  21820615.26848
 08 10 24 19 08 10.0000000  0  8 09 11 14 17 19 20 22 28
    478465.42546    372875.81646  23335840.68147  23335842.07146  23335842.30646
 -13981342.67649 -10894552.52148  19388192.89249  19388192.81549  19388193.07148
  -1343194.11846  -1046644.33346  21887217.84948  21887217.23146  21887218.78646
  23950221.95346  18662511.84746  24258333.61748  24258334.02946  24258334.25646
  -7474520.60347  -5824301.94047  21496628.72448  21496628.21747  21496627.80347
   -169580.89346   -132140.46846  23721320.06848  23721320.93746  23721321.45846
  -7596675.25346  -5919471.47746  22509700.28148  22509700.33046  22509699.73446
   3208081.22248   2499804.26048  21879280.91048  21879281.02348  21879281.48048
 08 10 24 19 08 20.0000000  0  8 09 11 14 17 19 20 22 28
    538685.36846    419797.55046  23347300.72947  23347300.00246  23347301.47446
 -13885913.57949 -10820192.18648  19406352.37649  19406352.40849  19406352.56348
  -1647761.29246  -1283969.41046  21829260.39848  21829260.64446  21829261.00746
  24259437.98346  18903459.42246  24317175.33448  24317175.34646  24317176.28346
  -7660850.55347  -5969494.11447  21461171.27248  21461170.62047  21461170.02647
   -183438.62946   -142938.65846  23718682.92248  23718683.42446  23718683.95146
  -7734160.13346  -6026602.56546  22483537.86948  22483538.18546  22483537.17646
   3518424.33048   2741630.05948  21938337.50348  21938337.21348  21938337.63548
 08 10 24 19 08 30.0000000  0  8 09 11 14 17 19 20 22 28
    602064.08146    469184.54446  23359360.41248  23359361.11146  23359363.03146
 -13787409.96049 -10743436.12148  19425097.02949  19425097.03849  19425097.26348
  -1949265.87146  -1518908.06746  21771886.35348  21771886.31446  21771886.85946
  24569257.23746  19144877.01346  24376131.79348  24376132.12846  24376132.26746
  -7845194.35647  -6113138.65047  21426091.71748  21426090.96847  21426091.04447
   -195838.09446   -152600.62946  23716323.84748  23716323.42046  23716325.51746
  -7868973.11046  -6131651.63246  22457884.09948  22457884.65246  22457882.89846
   3830776.22548   2985021.14248  21997775.91248  21997775.63248  21997776.07148
 08 10 24 19 08 40.0000000  0  8 09 11 14 17 19 20 22 28
    668594.18646    521024.96046  23372021.81448  23372022.11946  23372024.11546
 -13685842.83849 -10664292.91148  19444424.63749  19444424.64649  19444424.73548
  -2247651.43646  -1751416.32246  21715105.41248  21715105.34246  21715106.28246
  24879658.50646  19386748.14846  24435199.61448  24435200.58246  24435199.75546
  -8027529.60347  -6255218.07147  21391394.80348  21391393.90347  21391393.69947
   -206766.22346   -161116.02246  23714243.90648  23714243.22446  23714245.65046
  -8001098.12046  -6234606.19046  22432741.64048  22432741.35046  22432740.48546
   4145095.27148   3229945.07848  22057588.69048  22057588.60748  22057589.24948
 08 10 24 19 08 50.0000000  0  8 09 11 14 17 19 20 22 28
    738265.58446    575316.46646  23385278.83248  23385280.70646  23385280.49346
 -13581225.70249 -10582773.06548  19464332.55349  19464332.59949  19464332.76448
  -2542863.73646  -1981451.88846  21658928.42148  21658928.05846  21658928.87346
  25190618.55646  19629054.65846  24494372.99148  24494372.68046  24494373.82146
  -8207836.16147  -6395716.70347  21357083.51048  21357082.65747  21357082.46647
   -216211.94746   -168476.35346  23712447.20748  23712447.06246  23712448.41946
  -8130521.63946  -6335455.67346  22408112.79548  22408113.44746  22408112.26946
   4461337.97447   3476367.96948  22117767.77548  22117767.66347  22117768.08048
 08 10 24 19 09 00.0000000  0  8 09 11 14 17 19 20 22 28
    811068.10946    632045.75946  23399133.18348  23399133.49446  23399133.12746
 -13473571.93349 -10498887.01348  19484818.48649  19484818.44949  19484818.56148
  -2834848.15847  -2208972.22246  21603365.78448  21603365.78447  21603366.23946
  25502114.87246  19871779.04246  24553648.50348  24553648.50146  24553649.42746
  -8386093.42348  -6534618.47947  21323162.20148  21323161.58448  21323161.28647
   -224163.82746   -174672.64446  23710933.98048  23710933.48246  23710933.09646
  -8257230.07946  -6434189.54446  22384000.87448  22384001.25946  22384000.23046
   4779461.47047   3724256.40447  22178304.81048  22178304.41847  22178305.16247
 08 10 24 19 09 10.0000000  0  8 09 11 14 17 19 20 22 28
    886990.76946    691207.30346  23413580.20448  23413581.89346  23413583.62446
 -13362895.47049 -10412645.61648  19505879.48249  19505879.43349  19505879.59448
  -3123550.38447  -2433935.01546  21548427.45248  21548427.37647  21548427.99046
  25814124.87746  20114903.72346  24613022.55048  24613023.04646  24613022.61346
  -8562281.04748  -6671907.54947  21289634.87748  21289634.16848  21289633.65747
   -230610.83246   -179696.39846  23709707.13848  23709706.51146  23709706.35646
  -8381210.20146  -6530797.43846  22360408.61948  22360408.02446  22360407.28346
   5099422.87447   3973576.97747  22239191.34448  22239191.16947  22239191.71147
 08 10 24 19 09 20.0000000  0  8 09 11 14 17 19 20 22 28
    966021.70446    752790.21046  23428619.68348  23428620.31846  23428621.15546
 -13249210.91849 -10324060.25348  19527512.86949  19527512.90849  19527513.06048
  -3408916.63647  -2656298.32646  21494124.06248  21494124.48447  21494124.63946
  26126625.74346  20358410.90046  24672489.10248  24672489.29946  24672490.08146
  -8736379.21648  -6807568.47247  21256505.06648  21256504.28348  21256503.91947
   -235542.33146   -183537.02846  23708768.13748  23708767.80446  23708770.08946
  -8502449.58046  -6625269.66946  22337337.61748  22337337.44046  22337336.70846
   5421179.11747   4224296.12747  22300419.44248  22300419.48347  22300420.08847
 08 10 24 19 09 30.0000000  0  8 09 11 14 17 19 20 22 28
   1048148.05646    816783.39946  23444248.02748  23444245.94946  23444248.59846
 -13132533.60549 -10233142.86948  19549715.89049  19549715.81049  19549715.99948
  -3690893.55047  -2876020.62046  21440465.73448  21440465.51947  21440466.28746
  26439594.55146  20602282.69946  24732044.75448  24732044.37846  24732045.43546
  -8908368.37948  -6941586.01647  21223776.63048  21223775.89248  21223775.28847
   -238948.17646   -186190.91546  23708120.19048  23708118.60046  23708122.03146
  -8620936.54946  -6717597.19846  22314789.83748  22314789.59346  22314789.23346
   5744687.01647   4476380.20247  22361980.96948  22361980.54647  22361981.59447
 08 10 24 19 09 40.0000000  0  8 09 11 14 17 19 20 22 28
   1133357.44546    883181.08246  23460462.65048  23460463.08246  23460461.74946
 -13012878.26049 -10139904.94148  19572485.50349  19572485.55549  19572485.64148
  -3969427.09847  -3093059.75947  21387462.27448  21387462.17447  21387463.19847
  26753009.45046  20846502.11946  24791686.18148  24791686.61246  24791687.43746
  -9078228.22148  -7073944.34447  21191453.52448  21191452.62048  21191452.20147
   -240817.43046   -187647.53446  23707764.81048  23707763.62846  23707765.24846
  -8736659.05246  -6807770.58446  22292769.23248  22292769.25446  22292767.98746
   6069904.48547   4729796.40647  22423867.91548  22423867.59447  22423868.15347
 08 10 24 19 09 50.0000000  0  8 09 11 14 17 19 20 22 28
   1221634.53346    951967.11846  23477261.41948  23477261.75946  23477262.43946
 -12890262.32649 -10044360.06048  19595818.52149  19595818.59049  19595818.69448
  -4244465.86547  -3307375.70647  21335124.57748  21335124.33847  21335125.14347
  27066846.25246  21091050.25946  24851407.52348  24851406.73246  24851408.20746
  -9245940.97048  -7204629.61647  21159539.01748  21159537.78948  21159537.41547
   -241141.88746   -187900.32246  23707702.64548  23707703.24346  23707704.08846
  -8849607.54746  -6895782.41946  22271275.78548  22271275.57846  22271274.32846
   6396787.24747   4984510.24647  22486071.92548  22486071.39747  22486071.82447
 08 10 24 19 10 00.0000000  0  8 09 11 14 17 19 20 22 28
   1312965.08946   1023134.60046  23494640.60348  23494641.30546  23494641.87546
 -12764701.65349  -9946520.58048  19619711.86849  19619711.99349  19619712.06248
  -4515956.76547  -3518927.06947  21283461.37448  21283461.19247  21283461.61647
  27381082.95246  21335910.04746  24911204.61948  24911205.36146  24911205.12446
  -9411487.08148  -7333626.59947  21128036.43248  21128035.57748  21128035.10547
   -239911.19046   -186941.38146  23707936.89948  23707935.52946  23707937.63046
  -8959771.17046  -6981624.21946  22250312.15948  22250312.05846  22250311.16446
   6725293.17347   5240488.88647  22548584.11848  22548583.95047  22548584.55647
 08 10 24 19 10 10.0000000  0  8 09 11 14 17 19 20 22 28
   1407334.43546   1096663.66446  23512598.68348  23512599.91046  23512602.11646
 -12636212.66849  -9846399.29948  19644162.59249  19644162.63549  19644162.79648
  -4783847.04547  -3727672.75647  21232483.69048  21232483.42747  21232484.08047
  27695697.55346  21581064.25546  24971073.06448  24971076.01746  24971073.88346
  -9574847.29548  -7460920.28347  21096950.05148  21096949.32048  21096948.67547
   -237115.57746   -184762.96446  23708469.18748  23708467.61646  23708469.02746
  -9067139.66046  -7065287.97346  22229880.61348  22229880.25546  22229879.60946
   7055380.25847   5497699.60647  22611397.65248  22611397.43047  22611398.20647
 08 10 24 19 10 20.0000000  0  8 09 11 14 17 19 20 22 28
   1504726.57346   1172551.58046  23531131.73047  23531129.35246  23531132.98946
 -12504812.86049  -9744009.84448  19669167.21649  19669167.19349  19669167.30748
  -5048085.13147  -3933572.57447  21182200.66448  21182200.73047  21182201.15347
  28010667.28846  21826495.19446  25031010.01648  25031009.29846  25031010.94246
  -9736003.17448  -7586496.31147  21066283.08648  21066282.13948  21066281.94847
   -232745.98846   -181358.11746  23709300.79048  23709300.08546  23709301.70746
  -9171703.81846  -7146766.56246  22209982.60148  22209982.67846  22209981.60146
   7387005.80447   5756109.12547  22674504.12148  22674503.74347  22674504.30147
 08 10 24 19 10 30.0000000  0  8 09 11 14 17 19 20 22 28
   1605125.18846   1250780.35646  23550237.68947  23550235.87846  23550239.13846
 -12370519.55749  -9639365.71848  19694722.29049  19694722.38449  19694722.43348
  -5308619.13147  -4136586.09747  21132622.87148  21132622.60747  21132623.31047
  28325970.13646  22072185.73746  25091010.74048  25091012.33346  25091012.28946
  -9894936.00148  -7710340.08947  21036039.15748  21036038.23348  21036038.07547
   -226793.25646   -176720.75146  23710435.11748  23710433.75846  23710438.10346
  -9273454.44946  -7226052.77646  22190620.16148  22190620.11846  22190619.27646
   7720127.81247   6015684.71047  22737894.67948  22737895.01347  22737895.63947
 08 10 24 19 10 40.0000000  0  8 09 11 14 17 19 20 22 28
   1708513.65846   1331328.15546  23569913.51647  23569912.48746  23569911.90146
 -12233350.36849  -9532480.64348  19720824.74549  19720824.76449  19720824.85148
  -5565397.58047  -4336673.22347  21083759.47248  21083759.14247  21083759.98247
  28641584.28346  22318118.81846  25151070.11048  25151068.70646  25151071.49246
 -10051627.20348  -7832437.14747  21006221.84948  21006220.98148  21006220.86847
   -219248.26346   -170802.86446  23711866.63048  23711864.94046  23711871.30746
  -9372382.73746  -7303139.76146  22171794.99248  22171794.87746  22171793.72046
   8054704.67347   6276393.94747  22801562.78748  22801562.69547  22801563.29947
 08 10 24 19 10 50.0000000  0  8 09 11 14 17 19 20 22 28
   1814873.81346   1414208.41246  23590147.88547  23590147.94546  23590149.13146
 -12093324.11449  -9423369.28248  19747470.91649  19747470.93649  19747471.03048
  -5818370.22647  -4533794.78947  21035620.33748  21035620.34947  21035620.98247
  28957486.94246  22564276.74746  25211184.27448  25211184.65246  25211184.52846
 -10206059.21948  -7952773.80247  20976834.49148  20976833.49848  20976833.28047
   -210102.87146   -163676.81946  23713609.10048  23713608.10946  23713610.01146
  -9468481.31147  -7378021.78646  22153507.89948  22153507.53547  22153506.60046
   8390694.02747   6538203.83247  22865499.44948  22865498.82047  22865499.86647
 08 10 24 19 11 00.0000000  0  7 11 14 17 19 20 22 28
 -11950460.23949  -9312046.79148  19774657.00749  19774657.01149  19774657.11148
  -6067487.40947  -4727912.09247  20988215.01648  20988214.76847  20988215.77247
  29273655.48946  22810641.41146  25271348.68148  25271349.19446  25271349.48746
 -10358214.85748  -8071336.65047  20947880.13848  20947879.47448  20947878.97147
   -199349.56246   -155297.95746  23715655.98948  23715655.06346  23715656.94646
  -9561743.34346  -7450693.51046  22135760.60448  22135760.45146  22135759.81746
   8728053.50646   6801081.33947  22929696.96948  22929696.87946  22929697.30147
 08 10 24 19 11 10.0000000  0  7 11 14 17 19 20 22 28
 -11804778.78549  -9198528.78348  19802379.27949  19802379.29049  19802379.32848
  -6312700.37747  -4918987.14647  20941552.41248  20941552.10447  20941553.19647
  29590066.83246  23057195.14146  25331559.93948  25331559.95446  25331561.11646
 -10508077.53948  -8188112.78447  20919362.21248  20919361.51248  20919361.23547
   -186981.15146   -145660.34046  23718009.48148  23718007.82846  23718009.59146
  -9652162.90647  -7521150.32647  22118554.48548  22118554.53447  22118553.23247
   9066740.50046   7064993.27547  22994146.72148  22994146.63846  22994147.55447
 08 10 24 19 11 20.0000000  0  7 11 14 17 19 20 22 28
 -11656298.96548  -9082830.23248  19830634.09349  19830634.10548  19830634.11048
  -6553959.67847  -5106981.43747  20895642.41548  20895642.13147  20895643.15547
  29906699.33546  23303921.75246  25391813.34248  25391812.74846  25391813.67946
 -10655629.64448  -8303088.46747  20891283.93848  20891283.21848  20891282.83847
   -172989.71646   -134757.00146  23720671.56348  23720671.20146  23720671.60146
  -9739733.37847  -7589387.07147  22101890.31048  22101890.44147  22101889.67347
   9406713.86146   7329907.57747  23058841.63748  23058841.37846  23058841.88347
 08 10 24 19 11 30.0000000  0  7 11 14 17 19 20 22 28
 -11505043.00448  -8964968.45248  19859417.11649  19859417.12448  19859417.18448
  -6791218.90547  -5291858.77847  20850493.47648  20850493.33547  20850494.02047
  30223528.73346  23550802.82046  25452104.00948  25452103.88746  25452105.04246
 -10800856.49248  -8416252.26547  20863648.18648  20863647.46248  20863647.04747
   -157369.89646   -122585.73346  23723644.40948  23723642.86246  23723644.72746
  -9824451.36447  -7655401.10847  22085769.04348  22085768.88847  22085768.25347
   9747930.03446   7595790.29647  23123772.53248  23123772.73946  23123773.10847
 08 10 24 19 11 40.0000000  0  7 11 14 17 19 20 22 28
 -11351032.92348  -8844960.60748  19888724.26649  19888724.27448  19888724.31648
  -7024431.67847  -5473583.03347  20806114.61748  20806114.49847  20806115.15947
  30540531.35546  23797814.86146  25512427.98548  25512429.23146  25512428.16746
 -10943743.16848  -8527592.55847  20836457.70948  20836456.97448  20836456.68347
   -140116.39246   -109141.49546  23726926.63248  23726926.13646  23726927.11346
  -9906313.33347  -7719189.67847  22070191.21148  22070190.86147  22070190.08947
  10090346.12046   7862608.02346  23188932.21848  23188932.48246  23188932.98146
 08 10 24 19 11 50.0000000  0  7 11 14 17 19 20 22 28
 -11194293.58848  -8722826.06948  19918550.79549  19918550.81048  19918550.90048
  -7253554.81847  -5652120.56447  20762513.87048  20762513.73747  20762514.54347
  30857681.06246  24044944.45246  25572779.39448  25572778.22646  25572778.70046
 -11084277.45748  -8637099.81747  20809714.95348  20809714.20148  20809713.77047
   -121226.45346    -94423.05046  23730522.03948  23730523.16946  23730523.06546
  -9985318.76447  -7780752.36947  22055156.95048  22055157.00447  22055156.27247
  10433916.83946   8130325.45146  23254311.67548  23254311.66246  23254312.44346
 08 10 24 19 12 00.0000000  0  7 11 14 17 19 20 22 28
 -11034849.07148  -8598583.59848  19948892.08049  19948892.07948  19948892.16548
  -7478544.55947  -5827437.26747  20719699.91448  20719699.51447  20719700.44047
  31174953.04246  24292169.40046  25633154.41148  25633152.34146  25633154.64646
 -11222446.27148  -8744763.85247  20783422.30048  20783421.54848  20783421.35947
   -100696.50646    -78426.01346  23734428.72448  23734428.45346  23734429.93846
 -10061466.66747  -7840088.43047  22040666.74348  22040666.42147  22040665.94447
  10778598.28046   8398908.38946  23319902.41648  23319902.30346  23319902.83546
 08 10 24 19 12 10.0000000  0  7 11 14 17 19 20 22 28
 -10872722.67048  -8472251.34648  19979743.66949  19979743.70648  19979743.91248
  -7699356.71248  -5999498.70547  20677680.63048  20677680.61048  20677681.34847
  31492323.57146  24539471.05246  25693547.96848  25693548.86146  25693547.25046
 -11358235.68448  -8850573.80748  20757582.50848  20757581.66248  20757581.33948
    -78521.96246    -61146.66646  23738648.07348  23738647.39346  23738651.40346
 -10134755.35147  -7897196.51147  22026720.29248  22026719.83647  22026719.37647
  11124347.76346   8668323.56946  23385696.15148  23385696.26346  23385696.98146
 08 10 24 19 12 20.0000000  0  7 11 14 17 19 20 22 28
 -10707936.70548  -8343846.70948  20011101.37149  20011101.41148  20011101.59348
  -7915946.47048  -6168269.95847  20636465.14048  20636464.93648  20636465.85547
  31809770.24446  24786830.84346  25753955.43048  25753957.91746  25753955.72446
 -11491630.75648  -8954518.03648  20732198.20648  20732197.47048  20732197.35448
    -54697.70146    -42582.39546  23743182.05548  23743180.41646  23743182.91946
 -10205182.44647  -7952074.77347  22013318.37248  22013318.18547  22013317.35547
  11471124.16246   8938538.95246  23451685.88448  23451685.36246  23451686.43446
 08 10 24 19 12 30.0000000  0  7 11 14 17 19 20 22 28
 -10540514.06148  -8213387.51648  20042960.81749  20042960.88248  20042961.05748
  -8128269.81048  -6333716.73947  20596061.16948  20596061.08948  20596061.79147
  32127270.53046  25034233.54846  25814373.51748  25814374.44046  25814374.59246
 -11622617.11848  -9056585.35348  20707272.52648  20707271.58348  20707271.22048
    -29218.87446    -22728.75946  23748030.43948  23748031.13046  23748032.63846
 -10272746.47547  -8004722.08947  22000461.48448  22000462.29847  22000460.66947
  11818886.30546   9209522.41946  23517862.57348  23517862.25546  23517863.09146
 08 10 24 19 12 40.0000000  0  7 11 14 17 19 20 22 28
 -10370477.33848  -8080891.38248  20075317.76349  20075317.84248  20075317.98648
  -8336282.99348  -6495804.94547  20556477.61148  20556477.55848  20556478.57647
  32444802.59246  25281661.94146  25874798.00248  25874798.73646  25874797.49546
 -11751180.06748  -9156764.28248  20682807.72448  20682807.11248  20682806.54048
     -2080.06146     -1581.82346  23753195.26248  23753193.73546  23753196.43946
 -10337445.69347  -8055137.08447  21988149.26448  21988149.02647  21988148.68547
  12167593.72046   9481242.47646  23584219.32348  23584219.60446  23584220.02446
 08 10 24 19 12 50.0000000  0  7 11 14 17 19 20 22 28
 -10197845.95148  -7946373.42648  20108168.43149  20108168.53348  20108168.73848
  -8539939.45548  -6654498.31047  20517723.15248  20517722.79848  20517723.93747
  32762348.00846  25529100.56146  25935225.66948  25935226.88246  25935225.59946
 -11877301.70448  -9255040.89648  20658807.67048  20658807.04948  20658806.51348
     26727.30346     20865.55346  23758676.78548  23758676.85246  23758675.83446
 -10399275.44447  -8103316.13747  21976383.76948  21976383.97247  21976383.08147
  12517209.59946   9753670.40446  23650749.43148  23650748.55846  23650749.78346
 08 10 24 19 13 00.0000000  0  7 11 14 17 19 20 22 28
 -10023099.86048  -7810207.65448  20141421.59549  20141421.62348  20141421.80948
  -8739653.72648  -6810119.82848  20479718.67048  20479718.43348  20479719.45548
  33079428.30546  25776177.99646  25995564.79448  25995564.44146  25995564.12346
 -12001424.74948  -9351760.16648  20635187.90348  20635187.07848  20635186.69448
     56750.93746     44257.41546  23764390.24448  23764389.19546  23764390.89546
 -10458691.97347  -8149614.76447  21965077.20648  21965077.43647  21965076.20047
  12867237.03446  10026419.05846  23717357.62548  23717356.99646  23717357.43146
 08 10 24 19 13 10.0000000  0  7 11 14 17 19 20 22 28
  -9846727.49448  -7672774.65148  20174984.03549  20174984.09748  20174984.35948
  -8935849.34148  -6962999.54448  20442384.02348  20442383.76848  20442384.82348
  33395556.82546  26022511.87246  26055721.56548  26055722.43646  26055719.29846
 -12124000.37448  -9447273.65848  20611862.45148  20611861.59648  20611861.50348
     87530.33646     68237.66746  23770247.29048  23770246.97946  23770250.16646
 -10516160.41347  -8194395.38247  21954141.53948  21954141.49547  21954140.38947
  13217171.33946  10299095.11646  23783947.54648  23783947.22646  23783947.69546
 08 10 24 19 13 20.0000000  0  7 11 14 17 19 20 22 28
  -9667849.51648  -7533389.23148  20209023.44449  20209023.51448  20209023.63248
  -9127582.54148  -7112402.05148  20405898.38848  20405898.16648  20405899.18548
  33711615.15246  26268791.33246  26115864.99748  26115866.06146  26115866.02246
 -12244111.92148  -9540867.09048  20589005.89148  20589005.27348  20589005.04448
    119972.78246     93518.32746  23776421.51748  23776419.33346  23776422.14746
 -10570777.89447  -8236954.50047  21943747.73148  21943748.01547  21943747.15747
  13567875.88546  10572371.37846  23850684.57548  23850684.85146  23850684.13746
 08 10 24 19 13 30.0000000  0  7 11 14 17 19 20 22 28
  -9486456.62248  -7392044.13248  20243541.31849  20243541.37248  20243541.59748
  -9314780.22848  -7258270.39248  20370275.95848  20370275.79248  20370276.58048
  34027614.96846  26515025.36846  26175998.14448  26175997.33246  26175996.94446
 -12361712.87148  -9632504.21348  20566627.35248  20566626.55848  20566626.13148
    154115.46346    120123.03646  23782917.47648  23782918.88346  23782918.88546
 -10622512.21447  -8277266.96847  21933903.33348  21933903.25847  21933902.10547
  13919344.53846  10846243.07046  23917566.47248  23917566.28946  23917567.25146
 08 10 24 19 13 40.0000000  0  7 11 14 17 19 20 22 28
  -9302564.38548  -7248751.48948  20278534.82949  20278534.93648  20278535.18748
  -9497394.79248  -7400567.46948  20335525.46148  20335525.16748  20335526.20748
  34343543.47646  26761206.73046  26236116.88048  26236118.06646  26236118.02546
 -12476781.74748  -9722168.28648  20544730.50348  20544729.58048  20544729.39548
    189970.66246    148061.88046  23789740.84148  23789739.04446  23789740.94746
 -10671356.29447  -8315327.31747  21924608.62848  21924609.00347  21924607.68447
  14271546.83646  11120686.37246  23984588.76248  23984587.74946  23984588.75946
 08 10 24 19 13 50.0000000  0  7 11 14 17 19 20 22 28
  -9116208.84048  -7103539.39348  20313997.20149  20313997.20548  20313997.41748
  -9675399.67848  -7539272.58948  20301652.22648  20301652.08548  20301653.11248
  34659367.76346  27007303.04646  26296216.62748  26296215.71146  26296218.19946
 -12589317.52148  -9809858.51448  20523315.68548  20523314.78448  20523314.56148
    227530.09146    177327.12046  23796888.64248  23796887.48646  23796889.46646
 -10717323.90247  -8351146.24947  21915861.32248  21915861.75247  21915860.20547
  14624432.04446  11395661.83946  24051740.26148  24051741.04946  24051740.58446
 08 10 24 19 14 00.0000000  0  8 03 11 14 17 19 20 22 28
   -253933.32556   -197871.00156  23505631.70857  23505632.08856  23505634.07856
  -8927413.39648  -6956426.07348  20349923.72649  20349923.82148  20349924.09748
  -9848756.41448  -7674355.77948  20268663.62748  20268663.46448  20268664.33748
  34975067.83946  27253305.15346  26356292.78647  26356292.51246  26356294.67246
 -12699306.50748  -9895564.23448  20502385.18048  20502384.54448  20502384.44748
    266798.20846    207926.61046  23804360.98648  23804359.94846  23804363.24746
 -10760416.25847  -8384724.74247  21907661.17048  21907661.14847  21907660.25447
  14977962.84246  11671140.38846  24119014.65048  24119015.40246  24119015.54846
 08 10 24 19 14 10.0000000  0  8 03 11 14 17 19 20 22 28
   -483867.27346   -377036.87146  23461876.05447  23461876.10546  23461878.15846
  -8736200.17948  -6807428.77848  20386310.41049  20386310.55548  20386310.72648
 -10017426.12648  -7805786.73348  20236566.81548  20236566.61548  20236567.75248
  35290625.22846  27499199.57746  26416340.61247  26416341.72846  26416340.75546
 -12806733.92448  -9979273.93248  20481942.75748  20481941.86448  20481941.60548
    307780.54646    239862.82846  23812159.31048  23812159.00146  23812160.17046
 -10800633.80547  -8416063.13747  21900008.06248  21900007.88147  21900006.78947
  15332103.43446  11947094.07746  24186406.06648  24186405.21946  24186406.08046
 08 10 24 19 14 20.0000000  0  8 03 11 14 17 19 20 22 28
   -712908.56646   -555506.22946  23418291.67648  23418291.55946  23418294.24046
  -8542589.98948  -6656563.70848  20423153.27849  20423153.27548  20423153.43848
 -10181369.15248  -7933534.56348  20205369.65848  20205369.41748  20205370.42648
  35606023.25146  27744962.21946  26476359.22947  26476359.70946  26476360.73246
 -12911583.99548 -10060975.30748  20461990.32348  20461989.56648  20461989.31348
    350484.12746    273138.55346  23820285.89648  23820286.58946  23820287.27046
 -10837975.84547  -8445160.85347  21892902.26448  21892901.98447  21892901.18247
  15686819.79346  12223496.41946  24253905.84048  24253906.19146  24253906.54046
 08 10 24 19 14 30.0000000  0  7 03 11 14 19 20 22 28
   -941033.80546   -733273.64046  23374881.70348  23374881.36846  23374883.64546
  -8346601.99248  -6503845.80448  20460448.50949  20460448.59248  20460448.91348
 -10340545.03448  -8057567.73548  20175079.44948  20175079.24648  20175080.19148
 -13013839.10448 -10140654.63548  20442531.82048  20442531.01548  20442530.78948
    394917.30546    307765.99246  23828740.65648  23828740.29246  23828740.94246
 -10872440.30247  -8472016.30347  21886344.02048  21886343.40847  21886342.98947
  16042080.05646  12500322.57846  24321509.80848  24321510.15746  24321509.82346
 08 10 24 19 14 40.0000000  0  7 03 11 14 19 20 22 28
  -1168217.96546   -910299.37246  23331648.59448  23331649.23646  23331649.97946
  -8148254.03848  -6349288.97548  20498192.94449  20498192.99448  20498193.28948
 -10494912.87948  -8177854.38748  20145704.27848  20145703.98748  20145705.10348
 -13113480.54948 -10218297.33348  20423570.81048  20423570.05148  20423569.70248
    441089.73146    343744.22446  23837527.44448  23837525.61946  23837528.39946
 -10904024.30947  -8496627.24147  21880333.53348  21880333.45547  21880332.51647
  16397853.79246  12777548.84946  24389211.88248  24389210.95746  24389212.11346
 08 10 24 19 14 50.0000000  0  7 03 11 14 19 20 22 28
  -1394436.15646  -1086574.69646  23288600.91148  23288599.75546  23288603.08346
  -7947564.02348  -6192907.16348  20536382.96149  20536383.01148  20536383.31648
 -10644432.48648  -8294363.19448  20117251.49548  20117251.39448  20117252.49548
 -13210489.92048 -10293889.07448  20405110.49248  20405109.64248  20405109.49548
    489011.03946    381084.69546  23846647.55548  23846647.25546  23846648.37646
 -10932725.27547  -8518991.66947  21874872.21448  21874872.04147  21874870.97747
  16754111.42546  13055152.19946  24457004.79748  24457005.01246  24457005.24546
 08 10 24 19 15 00.0000000  0  7 03 11 14 19 20 22 28
  -1619666.94146  -1262082.27046  23245741.47548  23245738.61446  23245744.69646
  -7744553.85248  -6034717.43648  20575014.52649  20575014.59348  20575014.89148
 -10789068.65148  -8407066.72548  20089728.18848  20089728.09948  20089728.98948
 -13304852.80448 -10367418.61948  20387153.78448  20387153.01348  20387152.68148
    538686.63146    419795.09746  23856099.80248  23856099.11346  23856100.79346
 -10958544.76947  -8539110.79347  21869958.62248  21869958.90747  21869957.59747
  17110819.60646  13333106.58946  24524883.87148  24524885.48246  24524885.22746
 08 10 24 19 15 10.0000000  0  7 03 11 14 19 20 22 28
  -1843893.69146  -1436821.68746  23203074.03648  23203072.82146  23203076.64346
  -7539250.29348  -5874740.65748  20614082.53149  20614082.60548  20614082.75348
 -10928792.05548  -8515942.12548  20063139.70348  20063139.62748  20063140.72448
 -13396559.93948 -10438878.74548  20369702.63748  20369701.81748  20369701.62248
    590117.09646    459872.21246  23865886.28648  23865885.81946  23865887.69746
 -10981489.89347  -8556990.15047  21865592.55448  21865592.32547  21865591.79247
  17467940.28746  13611382.42446  24592842.32848  24592842.93546  24592841.82346
 08 10 24 19 15 20.0000000  0  7 03 11 14 19 20 22 28
  -2067101.78346  -1610755.55846  23160596.98248  23160594.72346  23160599.25746
  -7331682.10248  -5712999.22948  20653581.50749  20653581.55648  20653581.62048
 -11063576.27648  -8620968.81748  20037491.00548  20037491.07948  20037492.19648
 -13485604.19948 -10508263.90048  20352758.03348  20352757.21848  20352757.07048
    643300.58146    501314.03646  23876007.13248  23876006.11546  23876007.94946
 -11001569.95647  -8572636.99147  21861771.26148  21861771.27847  21861770.55247
  17825434.11346  13889949.09746  24660871.18148  24660869.89646  24660871.64346
 08 10 24 19 15 30.0000000  0  7 03 11 14 19 20 22 28
  -2289279.13946  -1783884.95746  23118318.44048  23118318.50646  23118321.20246
  -7121880.76848  -5549517.69248  20693505.40349  20693505.37348  20693505.67748
 -11193398.54348  -8722129.05148  20012787.08148  20012786.79748  20012787.72148
 -13571981.48948 -10575570.90148  20336320.93148  20336320.18948  20336320.11748
    698232.68346    544117.20046  23886460.15048  23886461.37946  23886462.15546
 -11018797.35747  -8586060.98547  21858493.00148  21858492.95747  21858492.16547
  18183259.22346  14168771.71446  24728962.63148  24728961.75446  24728963.12146
 08 10 24 19 15 40.0000000  0  7 03 11 14 19 20 22 28
  -2510411.69746  -1956195.97346  23076237.53748  23076237.23646  23076239.51746
  -6909876.41448  -5384319.51448  20733848.36149  20733848.45248  20733848.63648
 -11318235.63248  -8819404.72348  19989031.19748  19989031.09748  19989032.01548
 -13655686.39148 -10640795.51548  20320392.55448  20320391.72848  20320391.55648
    754910.35346    588282.62146  23897246.24248  23897246.30446  23897248.44546
 -11033183.40947  -8597270.92147  21855755.50848  21855755.57247  21855754.74147
  18541375.54746  14447823.39346  24797110.49848  24797109.65646  24797111.12946
 08 10 24 19 15 50.0000000  0  7 03 11 14 19 20 22 28
  -2730483.34346  -2127681.43946  23034359.40348  23034357.43846  23034361.90846
  -6695696.97948  -5217426.47148  20774605.43649  20774605.46448  20774605.65848
 -11438063.17048  -8912776.84748  19966228.79648  19966228.62448  19966229.77348
 -13736711.41348 -10703931.91748  20304973.90948  20304973.11848  20304973.10448
    813332.48646    633804.82946  23908363.02548  23908364.14446  23908365.15546
 -11044737.52847  -8606274.16347  21853557.17548  21853557.30847  21853556.06047
  18899745.75446  14727072.92246  24865305.28548  24865305.47346  24865305.06246
 08 10 24 19 16 00.0000000  0  7 03 11 14 19 20 22 28
  -2949477.68646  -2298326.40046  22992686.15248  22992687.12546  22992687.52446
  -6479370.19148  -5048860.16248  20815771.05649  20815771.05848  20815771.41648
 -11552857.64848  -9002227.10348  19944384.12848  19944384.02648  19944385.18248
 -13815049.20148 -10764974.37048  20290066.74348  20290066.08448  20290065.90648
    873497.91746    680686.42146  23919812.42848  23919810.40346  23919812.38446
 -11053469.49547  -8613078.32547  21851895.41048  21851895.66447  21851894.41147
  19258332.97746  15006492.50946  24933542.88248  24933541.74246  24933543.88346
 08 10 24 19 16 10.0000000  0  7 03 11 14 19 20 22 28
  -3167376.60546  -2468117.06046  22951220.86348  22951221.94246  22951224.99946
  -6260922.47648  -4878641.18748  20857340.44249  20857340.39448  20857340.54848
 -11662595.44348  -9087737.08648  19923501.65648  19923501.55648  19923502.69648
 -13890691.41748 -10823916.37048  20275672.48549  20275671.75548  20275671.59548
    935406.70946    728930.05846  23931593.74148  23931593.84046  23931594.15246
 -11059388.04047  -8617690.20347  21850769.24548  21850769.07747  21850768.27047
  19617101.89146  15286053.67246  25001813.62247  25001812.82846  25001815.04946
 08 10 24 19 16 20.0000000  0  7 03 11 14 19 20 22 28
  -3384161.55546  -2637034.54546  22909968.81548  22909968.26146  22909971.22046
  -6040379.63948  -4706789.65048  20899308.27749  20899308.35748  20899308.58648
 -11767253.18148  -9169288.58148  19903586.07848  19903585.87648  19903586.97048
 -13963629.32448 -10880751.11948  20261792.88049  20261792.16848  20261792.09948
    999059.11246    778527.36046  23943706.03148  23943706.31346  23943706.01646
 -11062501.68247  -8620116.44847  21850176.70948  21850177.15647  21850175.88347
  19976018.17846  15565726.52246  25070114.05947  25070112.90346  25070112.98646
 08 10 24 19 16 30.0000000  0  7 03 11 14 19 20 22 28
  -3599813.32946  -2805068.73746  22868931.58348  22868933.25346  22868932.81746
  -5817766.91948  -4533325.21448  20941670.11649  20941670.13848  20941670.46548
 -11866808.47048  -9246864.13748  19884641.27149  19884641.11348  19884642.25048
 -14033853.83648 -10935471.52948  20248429.66049  20248428.90648  20248428.76448
   1064456.36346    829485.49346  23956153.15748  23956154.51646  23956154.69146
 -11062818.77647  -8620363.56347  21850116.34848  21850116.40547  21850115.34547
  20335048.62646  15845478.49846  25138436.15947  25138434.40946  25138434.30946
 08 10 24 19 16 40.0000000  0  6 03 11 14 19 22 28
  -3814313.07446  -2972210.09046  22828113.29748  22828113.52046  22828116.48746
  -5781327.28548  -4504930.71348  20981516.30649  20981516.41448  20981516.43248
 -11961240.53348  -9320447.56448  19866671.44949  19866671.32148  19866672.42948
 -14101356.92048 -10988071.34848  20235584.22149  20235583.56848  20235583.37248
 -11060348.80347  -8618438.93747  21850586.20448  21850586.36247  21850585.69447
  20694159.69146  16125311.32046  25206773.93147  25206776.23346  25206775.43046
 08 10 24 19 16 50.0000000  0  6 03 11 14 19 22 28
  -4027641.21646  -3138436.84346  22787518.53348  22787518.88646  22787519.94746
  -5674435.25048  -4421638.24248  21027555.69949  21027555.77648  21027555.93048
 -12050529.06648  -9390023.05048  19849680.38249  19849680.29048  19849681.29848
 -14166129.87448 -11038543.79548  20223258.41449  20223257.65548  20223257.50448
 -11055100.71747  -8614349.55047  21851585.08248  21851585.31747  21851584.10347
  21053318.60346  16405192.65846  25275116.11847  25275115.84346  25275116.79646
 08 10 24 19 17 00.0000000  0  6 03 11 14 19 22 28
  -4239777.93446  -3303738.08646  22747150.40048  22747149.46046  22747152.52546
  -5445766.83248  -4243455.08148  21071069.92749  21071069.82448  21071070.05148
 -12134654.93648  -9455575.68348  19833671.62749  19833671.58448  19833672.71248
 -14228164.51048 -11086882.48348  20211453.64749  20211452.79748  20211452.69848
 -11047084.02047  -8608102.79547  21853110.52848  21853110.88147  21853109.91047
  21412492.50446  16685067.83446  25343464.32647  25343463.31046  25343466.34846
 08 10 24 19 17 10.0000000  0  5 03 11 14 19 22
  -4450703.39146  -3468095.57846  22707012.83748  22707012.24646  22707015.01346
  -5215130.29948  -4063738.32348  21114958.49448  21114958.48548  21114958.96848
 -12213600.09348  -9517091.39448  19818648.93249  19818648.75548  19818649.99548
 -14287452.76848 -11133081.13648  20200171.44049  20200170.63648  20200170.59248
 -11036308.45947  -8599706.27747  21855161.01348  21855161.15647  21855160.39647
 08 10 24 19 17 20.0000000  0  5 03 11 14 19 22
  -4660397.95946  -3631493.93646  22667109.06148  22667108.63546  22667110.61946
  -4982551.02948  -3882507.74348  21159216.90748  21159217.02448  21159217.24848
 -12287348.00548  -9574557.30348  19804615.26049  19804615.00448  19804616.26148
 -14343987.09248 -11177133.86448  20189413.33549  20189412.46548  20189412.45648
 -11022784.46647  -8589168.11947  21857734.53648  21857734.73947  21857733.98847
 08 10 24 19 17 30.0000000  0  5 03 11 14 19 22
  -4868841.70046  -3793917.64946  22627443.67848  22627443.00646  22627445.77346
  -4748054.23348  -3699782.99148  21203840.20348  21203840.13848  21203840.71148
 -12355883.33048  -9627961.45848  19791573.44949  19791573.27848  19791574.43848
 -14397760.26948 -11219035.05648  20179180.65149  20179179.87248  20179179.83448
 -11006522.85847  -8576496.76447  21860829.22148  21860828.99147  21860828.34147
 08 10 24 19 17 40.0000000  0  5 03 11 14 19 22
  -5076015.76046  -3955351.93546  22588019.54648  22588019.85346  22588021.20146
  -4511666.32648  -3515584.63948  21248823.32848  21248823.38948  21248823.61148
 -12419193.03548  -9677293.70748  19779526.01949  19779525.81548  19779527.04148
 -14448766.24048 -11258779.98148  20169474.53749  20169473.71748  20169473.74248
 -10987535.46447  -8561701.41147  21864442.15048  21864442.23947  21864441.70547
 08 10 24 19 17 50.0000000  0  5 03 11 14 19 22
  -5281907.52846  -4115787.09646  22548839.79948  22548839.23146  22548840.82546
  -4273420.16348  -3329938.30348  21294160.02648  21294159.98848  21294160.57748
 -12477271.87348  -9722549.95048  19768474.01449  19768473.95048  19768475.02348
 -14497005.92248 -11296369.35348  20160294.64449  20160293.96748  20160294.06348
 -10965841.31647  -8544796.90047  21868570.62648  21868570.46947  21868570.06747
 08 10 24 19 18 00.0000000  0  5 03 11 14 19 22
  -5486507.01646  -4275215.24346  22509905.82048  22509906.13546  22509908.24346
  -4033350.99948  -3142871.43648  21339843.70848  21339843.59648  21339844.08848
 -12530118.35448  -9763729.03348  19758417.61849  19758417.51048  19758418.64048
 -14542482.86248 -11331805.94048  20151640.80449  20151640.03448  20151640.12248
 -10941462.19047  -8525800.20047  21873209.73348  21873209.95647  21873209.12847
 08 10 24 19 18 10.0000000  0  5 03 11 14 19 22
  -5689804.15346  -4433628.58846  22471219.60548  22471219.31846  22471221.90846
  -3791494.20048  -2954411.61148  21385867.46048  21385867.57548  21385867.85448
 -12577732.38548  -9800830.88448  19749356.90749  19749356.70748  19749357.84148
 -14585201.15148 -11365092.92548  20143511.79949  20143511.01248  20143511.07948
 -10914420.39747  -8504728.69247  21878355.60348  21878355.64647  21878355.18547
 08 10 24 19 18 20.0000000  0  6 03 06 11 14 19 22
  -5891787.34246  -4591018.09246  22432783.43948  22432783.05546  22432785.75046
   -254185.00756   -198073.20956  22912212.50157  22912212.69956  22912214.41456
  -3547883.79148  -2764585.34048  21432224.97248  21432225.04848  21432225.56448
 -12620113.79848  -9833855.37048  19741292.04549  19741291.91648  19741293.07948
 -14625163.73148 -11396232.60348  20135907.13049  20135906.46148  20135906.38248
 -10884737.26347  -8481598.99247  21884004.07648  21884004.11547  21884003.70347
 08 10 24 19 18 30.0000000  0  6 03 06 11 14 19 22
  -6092442.63246  -4747372.84546  22394600.08948  22394599.69746  22394602.39546
   -507467.79246   -395438.52946  22864014.07647  22864013.49546  22864015.32046
  -3302551.27748  -2573417.16948  21478910.23648  21478910.22248  21478910.82348
 -12657261.29748  -9862801.48148  19734223.04749  19734223.00748  19734224.12248
 -14662371.51948 -11425225.69148  20128826.75149  20128826.03748  20128825.97548
 -10852431.92247  -8456426.02947  21890151.61748  21890151.68847  21890151.10947
 08 10 24 19 18 40.0000000  0  5 03 11 14 19 22
  -6291751.18246  -4902678.19646  22356672.69048  22356672.74446  22356674.44346
  -3055523.35848  -2380927.90148  21525918.13048  21525918.12548  21525918.58748
 -12689170.21048  -9887665.57748  19728151.16249  19728150.96348  19728152.08948
 -14696820.95348 -11452069.41448  20122271.27949  20122270.58148  20122270.56348
 -10817519.18447  -8429221.32547  21896795.37848  21896795.93347  21896794.90847
 08 10 24 19 18 50.0000000  0  5 03 11 14 19 22
  -6489691.44246  -5056917.35446  22319005.85648  22319006.61246  22319008.34046
  -2806823.96748  -2187136.18748  21573244.02248  21573243.96148  21573244.65948
 -12715834.45148  -9908442.91748  19723077.00349  19723076.88548  19723078.24148
 -14728506.14048 -11476759.17948  20116241.65449  20116241.01048  20116241.02548
 -10780011.40647  -8399994.50547  21903932.90648  21903933.23147  21903932.35447
 08 10 24 19 19 00.0000000  0  5 03 11 14 19 22
  -6686239.83446  -5210071.93246  22281604.15748  22281604.36446  22281606.40146
  -2556475.09348  -1992059.16348  21620883.87748  21620883.97448  21620884.43248
 -12737247.26248  -9925128.23848  19719002.31349  19719002.23648  19719003.42448
 -14757419.54948 -11499289.11648  20110739.72649  20110739.05948  20110738.99248
 -10739919.40647  -8368754.01347  21911562.22448  21911562.44647  21911561.52347
 08 10 24 19 19 10.0000000  0  5 03 11 14 19 22
  -6881371.77846  -5362122.78046  22244471.80748  22244472.67146  22244473.87346
  -2304497.75148  -1795713.19748  21668833.64348  21668833.57048  21668834.20448
 -12753402.31448  -9937716.60048  19715928.11449  19715928.00448  19715929.23348
 -14783553.08448 -11519652.91248  20105766.78549  20105765.98548  20105765.99848
 -10697253.49547  -8335507.86647  21919681.08248  21919681.40447  21919680.42447
 08 10 24 19 19 20.0000000  0  5 03 11 14 19 22
  -7075063.99746  -5513051.76646  22207613.22748  22207612.88446  22207615.58046
  -2050914.07648  -1598115.54748  21717089.05448  21717089.11848  21717089.52448
 -12764295.93748  -9946205.15348  19713855.13449  19713855.04548  19713856.12048
 -14806900.16148 -11537845.45048  20101323.84049  20101323.13348  20101323.20348
 -10652025.49347  -8300265.29447  21928287.94948  21928287.99647  21928287.17747
 08 10 24 19 19 30.0000000  0  5 03 11 14 19 22
  -7267296.22846  -5662843.10946  22171032.95748  22171032.18546  22171035.25746
  -1795749.22148  -1399285.80748  21765645.07548  21765645.33048  21765646.00648
 -12769928.80848  -9950594.41648  19712783.21249  19712783.11048  19712784.29448
 -14827457.59148 -11553864.23448  20097411.87249  20097411.19948  20097411.24848
 -10604250.51547  -8263038.06547  21937379.06648  21937379.25647  21937378.43847
 08 10 24 19 19 40.0000000  0  5 03 11 14 19 22
  -7458045.88046  -5811479.20346  22134734.11848  22134734.26446  22134736.13346
  -1539026.15948  -1199241.87648  21814498.04848  21814497.98348  21814498.55548
 -12770300.84248  -9950884.31848  19712712.42849  19712712.33148  19712713.53148
 -14845220.34848 -11567705.34848  20094031.72949  20094031.08448  20094031.03648
 -10553941.76147  -8223836.45447  21946952.68948  21946952.67247  21946951.84347
 08 10 24 19 19 50.0000000  0  5 03 11 14 19 22
  -7647292.29746  -5958943.91246  22098722.24548  22098722.26746  22098724.04346
  -1280769.69548   -998003.09148  21863642.69648  21863642.57948  21863643.21048
 -12765415.26048  -9947077.37648  19713642.19649  19713642.02448  19713643.12448
 -14860185.70348 -11579366.66448  20091183.93249  20091183.31648  20091183.26348
 -10501114.88947  -8182672.67747  21957005.19348  21957005.20147  21957004.52547
 08 10 24 19 20 00.0000000  0  5 03 11 14 19 22
  -7835015.15046  -6105221.46846  22062999.25648  22062998.94446  22063001.31246
  -1021004.79448   -795588.90148  21913074.21448  21913074.28848  21913074.70248
 -12755276.70748  -9939177.21448  19715571.39849  19715571.32748  19715572.47148
 -14872351.53448 -11588846.53448  20088868.98549  20088868.23848  20088868.26248
 -10445785.98047  -8139559.26147  21967534.17148  21967534.07247  21967533.48947
 08 10 24 19 20 10.0000000  0  5 03 11 14 19 22
  -8021194.55347  -6250296.31846  22027570.73148  22027570.24747  22027572.92146
   -759757.06247   -592019.25347  21962788.27248  21962788.24347  21962788.59447
 -12739891.84048  -9927189.01648  19718499.18049  19718499.14248  19718500.21848
 -14881716.68348 -11596144.05748  20087086.85249  20087085.99848  20087086.13248
 -10387972.20247  -8094509.57947  21978535.69248  21978535.70947  21978535.08047
 08 10 24 19 20 20.0000000  0  6 03 06 11 14 19 22
  -8205810.21047  -6394152.66646  21992439.60448  21992438.95747  21992441.39946
   -241766.61856   -188390.42856  22346470.81958  22346470.97056  22346471.92756
   -497051.50347   -387313.63847  22012779.25148  22012779.33647  22012779.74847
 -12719268.17448  -9911118.63548  19722423.76549  19722423.63648  19722424.85448
 -14888279.77748 -11601258.15948  20085837.93149  20085837.14448  20085837.19948
 -10327690.34247  -8047536.72947  21990007.06148  21990007.20247  21990006.46147
 08 10 24 19 20 30.0000000  0  6 03 06 11 14 19 22
  -8388842.32447  -6536775.08446  21957609.63748  21957609.57147  21957611.80946
   -482343.59646   -375853.00046  22300690.34848  22300690.16046  22300692.56046
   -232913.55047   -181491.87647  22063043.04748  22063043.20747  22063043.79047
 -12693415.17148  -9890973.44448  19727343.41749  19727343.28048  19727344.41648
 -14892040.49748 -11604188.59248  20085122.29449  20085121.58848  20085121.60348
 -10264958.17147  -7998654.52847  22001944.54148  22001944.60547  22001943.85047
 08 10 24 19 20 40.0000000  0  6 03 06 11 14 19 22
  -8570269.45947  -6678146.87046  21923085.46248  21923084.91147  21923087.80946
   -721706.12046   -562369.25746  22255141.12748  22255141.05046  22255142.45546
     32633.17047     25427.63247  22113575.04348  22113575.17647  22113575.60947
 -12662341.90348  -9866760.51748  19733256.61249  19733256.35248  19733257.41048
 -14892997.02148 -11604933.93748  20084940.25249  20084939.46348  20084939.59048
 -10199791.93047  -7947875.66247  22014345.35848  22014345.22147  22014344.72647
 08 10 24 19 20 50.0000000  0  6 03 06 11 14 19 22
  -8750067.32147  -6818249.09046  21888870.97348  21888870.83847  21888873.02346
   -959826.67846   -747917.70446  22209828.14448  22209827.20146  22209830.38746
    299567.77747    233428.61547  22164370.82848  22164371.26847  22164371.64047
 -12626055.82848  -9838485.66548  19740161.52249  19740161.35948  19740162.52948
 -14891145.23648 -11603490.98848  20085292.67849  20085291.89348  20085291.97248
 -10132205.50047  -7895210.93147  22027206.69148  22027206.55347  22027205.78447
 08 10 24 19 21 00.0000000  0  6 03 06 11 14 19 22
  -8928212.78647  -6957063.73246  21854970.87048  21854970.78647  21854973.13746
  -1196678.47946   -932477.51846  22164756.86548  22164757.24146  22164759.31646
    567868.44347    442494.04947  22215426.81348  22215426.82647  22215427.57447
 -12584566.97148  -9806156.69248  19748056.51149  19748056.40748  19748057.65848
 -14886482.34248 -11599857.56148  20086179.96549  20086179.26548  20086179.30448
 -10062214.04847  -7840672.16247  22040525.66248  22040525.43947  22040524.91847
 08 10 24 19 21 10.0000000  0  6 03 06 11 14 19 22
  -9104682.62247  -7094572.67846  21821389.79448  21821389.12847  21821391.67146
  -1432234.54246  -1116027.69446  22119931.74148  22119932.75346  22119933.98046
    837513.59447    652607.13447  22266738.95148  22266738.56547  22266739.17747
 -12537886.40948  -9769782.23648  19756939.66949  19756939.42748  19756940.68748
 -14879005.62948 -11594031.55548  20087602.75549  20087601.97248  20087601.99448
  -9989832.87547  -7784271.26847  22054299.17148  22054299.40647  22054298.58947
 08 10 24 19 21 20.0000000  0  6 03 06 11 14 19 22
  -9279453.76847  -7230757.96846  21788131.96748  21788131.89547  21788133.41546
  -1666468.28246  -1298547.44546  22075358.79748  22075358.40446  22075361.79746
   1108481.42347    863750.87747  22318302.12948  22318302.21447  22318302.67547
 -12486026.85348  -9729372.20248  19766808.11649  19766807.96148  19766809.23148
 -14868713.31748 -11586011.57248  20089561.29949  20089560.52148  20089560.54448
  -9915077.78647  -7726020.57647  22068524.65148  22068524.66747  22068523.83047
 08 10 24 19 21 30.0000000  0  6 03 06 11 14 19 22
  -9452504.05247  -7365602.34346  21755201.51648  21755201.10247  21755203.59846
  -1899353.65646  -1480016.59046  22031042.19048  22031042.11146  22031044.22946
   1380749.43147   1075907.75547  22370112.96948  22370113.30647  22370113.65247
 -12429002.98648  -9684938.03048  19777659.44449  19777659.31448  19777660.42248
 -14855604.56648 -11575796.96148  20092055.81949  20092055.03148  20092055.20248
  -9837965.64747  -7665933.20447  22083198.56448  22083198.81447  22083197.99747
 08 10 24 19 21 40.0000000  0  6 03 06 11 14 19 22
  -9623811.00647  -7499088.26646  21722602.96948  21722602.83247  21722604.78146
  -2130864.16446  -1660414.37046  21986987.16948  21986987.63746  21986988.93246
   1654295.54447   1289060.55447  22422167.31048  22422167.37347  22422167.80247
 -12366830.57348  -9636492.00248  19789490.39049  19789490.33448  19789491.55548
 -14839678.57448 -11563387.09548  20095086.42649  20095085.68148  20095085.75048
  -9758513.25247  -7604022.27747  22098317.72048  22098317.99947  22098317.52147
 08 10 24 19 21 50.0000000  0  6 03 06 11 14 19 22
  -9793353.95347  -7631199.65446  21690339.92848  21690339.62347  21690341.40846
  -2360975.16746  -1839721.64746  21943198.23448  21943198.81046  21943200.51646
   1929095.98647   1503190.74847  22474460.05948  22474459.83447  22474460.53047
 -12299528.36948  -9584048.73648  19802297.59849  19802297.44048  19802298.67348
 -14820936.76748 -11548783.09348  20098652.80549  20098652.08848  20098652.08948
  -9676739.47547  -7540302.47247  22113878.85748  22113878.60247  22113878.43247
 08 10 24 19 22 00.0000000  0  6 03 06 11 14 19 22
  -9961112.37447  -7761920.49346  21658416.53548  21658416.19547  21658418.63946
  -2589662.16046  -2017919.27446  21899680.96648  21899681.27646  21899682.76046
   2205126.91647   1718279.77247  22526987.00948  22526986.83147  22526987.53847
 -12227116.61048  -9527623.99948  19816077.12249  19816077.07348  19816078.26348
 -14799381.16448 -11531986.51948  20102754.76549  20102753.96948  20102754.06248
  -9592663.63747  -7474788.83747  22129877.86548  22129877.68447  22129877.48847
 08 10 24 19 22 10.0000000  0  6 03 06 11 14 19 22
 -10127066.03047  -7891235.01546  21626836.86148  21626836.37447  21626838.83646
  -2816900.49046  -2194988.08646  21856438.79148  21856438.58546  21856441.17146
   2482364.32947   1934308.90147  22579743.61448  22579743.34647  22579743.93247
 -12149616.82948  -9467234.57148  19830824.87749  19830824.77048  19830825.96348
 -14775014.26948 -11512999.32648  20107391.62949  20107390.78848  20107390.99048
  -9506305.45347  -7407496.75447  22146311.23148  22146311.29047  22146310.86947
 08 10 24 19 22 20.0000000  0  6 03 06 11 14 19 22
 -10291193.83947  -8019126.81046  21595604.09748  21595604.03847  21595605.97446
  -3042664.71146  -2370908.23646  21813476.98048  21813478.02146  21813479.54646
   2760785.38847   2151260.35247  22632725.47048  22632725.42147  22632725.96847
 -12067050.76748  -9402897.38748  19846536.70149  19846536.60948  19846537.77848
 -14747837.78848 -11491822.85148  20112563.11149  20112562.36648  20112562.51448
  -9417683.83847  -7338440.95547  22163175.45348  22163175.59047  22163174.93347
 08 10 24 19 22 30.0000000  0  6 03 06 11 14 19 22
 -10453476.99147  -8145581.20946  21564722.59548  21564722.61347  21564724.42446
  -3266931.62346  -2545661.66246  21770800.74848  21770801.13446  21770802.60446
   3040364.98347   2369114.57647  22685927.64048  22685927.79347  22685928.08247
 -11979443.78948  -9334632.21948  19863207.65549  19863207.63548  19863208.86048
 -14717856.28248 -11468460.64048  20118268.46049  20118267.67448  20118267.72148
  -9326820.33747  -7267638.23447  22180466.32648  22180466.31147  22180465.70947
 08 10 24 19 22 40.0000000  0  6 03 06 11 14 19 22
 -10613895.24847  -8270582.42846  21534195.99848  21534195.78547  21534198.00546
  -3489676.27346  -2719228.90346  21728413.64848  21728413.74546  21728415.94346
   3321079.63647   2587853.24747  22739345.79848  22739346.07647  22739346.32747
 -11886820.75048  -9262458.42648  19880833.29149  19880833.30548  19880834.43148
 -14685073.09748 -11442915.30248  20124506.91949  20124506.04948  20124506.18048
  -9233735.02147  -7195104.23847  22198179.71948  22198179.71747  22198179.21847
 08 10 24 19 22 50.0000000  0  6 03 06 11 14 19 22
 -10772428.21847  -8394114.62146  21504028.25448  21504028.20647  21504030.08846
  -3710873.71746  -2891590.53246  21686321.31648  21686320.90246  21686323.55646
   3602906.04747   2807458.22647  22792975.71248  22792975.10647  22792975.90447
 -11789207.75448  -9186396.35848  19899408.49649  19899408.40548  19899409.47348
 -14649491.82748 -11415189.64148  20131277.83949  20131276.94448  20131277.06148
  -9138448.23547  -7120854.80147  22216312.33248  22216312.13547  22216311.86547
 08 10 24 19 23 00.0000000  0  7 03 06 11 14 19 22 31
 -10929057.09647  -8516163.08546  21474222.91848  21474222.54447  21474224.87146
  -3930500.30446  -3062728.11546  21644527.88748  21644527.21446  21644530.07246
   3885819.81547   3027910.48647  22846812.55448  22846812.05047  22846812.61247
 -11686633.29048  -9106468.20448  19918927.76049  19918927.66548  19918928.83148
 -14611117.72148 -11385287.74348  20138580.14249  20138579.37248  20138579.50748
  -9040981.91247  -7044907.02147  22234859.36348  22234859.31447  22234858.94647
   -327830.36756   -255452.99756  22544096.57558  22544097.70556  22544096.54256
 08 10 24 19 23 10.0000000  0  7 03 06 11 14 19 22 31
 -11083762.33747  -8636712.60846  21444783.19948  21444783.06947  21444785.29446
  -4148531.58546  -3232622.59946  21603037.52548  21603037.52446  21603039.84846
   4169797.19046   3249191.54847  22900851.56248  22900851.28446  22900851.87647
 -11579126.27248  -9022696.50948  19939385.68049  19939385.61648  19939386.71748
 -14569955.76248 -11353213.49148  20146413.05949  20146412.34648  20146412.29248
  -8941357.31747  -6967277.49047  22253817.46148  22253817.26147  22253817.03147
   -690214.12546   -537829.94046  22475137.28548  22475137.76546  22475137.37546
 08 10 24 19 23 20.0000000  0  8 03 06 11 14 19 20 22 31
 -11236525.60547  -8755748.91946  21415713.27648  21415713.01647  21415715.39746
  -4364944.04846  -3401255.68546  21561855.66548  21561855.50046  21561857.94346
   4454813.51646   3471282.17547  22955088.33648  22955088.70646  22955088.75647
 -11466717.68748  -8935105.41248  19960776.28349  19960776.24548  19960777.33148
 -14526012.21348 -11318971.76748  20154775.11549  20154774.45448  20154774.49748
    120937.18256     94237.82356  24745729.60757  24745727.23956  24745732.54956
  -8839596.97447  -6887983.72147  22273181.93948  22273181.93547  22273181.52047
  -1050574.02846   -818629.83646  22406563.07248  22406563.01246  22406563.67546
 08 10 24 19 23 30.0000000  0  7 03 06 11 14 19 22 31
 -11387322.69047  -8873253.13046  21387017.51648  21387017.35847  21387019.64146
  -4579708.43846  -3568604.54247  21520987.24648  21520987.46246  21520989.42047
   4740850.17446   3694167.86646  23009518.92148  23009518.82946  23009519.89546
 -11349433.72348  -8843715.31848  19983094.67449  19983094.57548  19983095.72648
 -14479287.76948 -11282563.11048  20163666.62149  20163665.75548  20163665.93448
  -8735717.69147  -6807038.83747  22292949.41048  22292949.40747  22292948.98447
  -1408848.68046  -1097804.89346  22338385.48548  22338386.25646  22338385.99346
 08 10 24 19 23 40.0000000  0  7 03 06 11 14 19 22 31
 -11536126.14847  -8989203.87147  21358701.45248  21358701.08247  21358703.28647
  -4792792.00046  -3734643.65547  21480439.03848  21480438.76046  21480441.28247
   5027892.17246   3917836.94646  23064141.50048  23064141.23746  23064142.32246
 -11227298.21948  -8748544.79848  20006336.29349  20006336.12048  20006337.35148
 -14429780.13248 -11243985.73448  20173087.46849  20173086.76448  20173086.83348
  -8629733.11747  -6724453.44947  22313117.64348  22313117.84847  22313117.19147
  -1764973.27446  -1375304.53346  22270617.21848  22270617.39446  22270618.09846
 08 10 24 19 23 50.0000000  0  7 03 06 11 14 19 22 31
 -11682906.54547  -9103578.20547  21330769.71048  21330769.49647  21330771.55947
  -5004160.12646  -3899346.07847  21440217.06548  21440216.77746  21440219.19647
   5315926.21946   4142279.03846  23118952.70548  23118952.75746  23118953.12646
 -11100334.42948  -8649611.98448  20030496.68049  20030496.57148  20030497.78748
 -14377485.71348 -11203236.83848  20183038.82049  20183038.17848  20183038.20248
  -8521655.41847  -6640237.06547  22333684.19948  22333684.25047  22333683.34547
  -2118880.88746  -1651076.67846  22203270.69948  22203270.08346  22203271.62646
 08 10 24 19 24 00.0000000  0  7 03 06 11 14 19 22 31
 -11827639.06647  -9216356.77547  21303228.09248  21303228.00647  21303230.19047
  -5213782.44946  -4062688.12847  21400327.17848  21400327.64046  21400329.41747
   5604934.89046   4367480.58246  23173949.14648  23173949.18746  23173949.48346
 -10968570.61448  -8546938.88748  20055570.53649  20055570.40048  20055571.53748
 -14322405.28948 -11160317.02948  20193520.33149  20193519.59348  20193519.66748
  -8411500.87247  -6554402.34547  22354645.68148  22354646.12047  22354645.50247
  -2470508.63546  -1925072.32546  22136358.52148  22136358.15546  22136358.62146
 08 10 24 19 24 10.0000000  0  7 03 06 11 14 19 22 31
 -11970304.30247  -9327524.48247  21276079.92448  21276079.45547  21276082.13647
  -5421633.70647  -4224650.11947  21360774.29348  21360774.51647  21360776.39347
   5894895.85046   4593424.18146  23229126.58548  23229127.79446  23229127.04046
 -10832041.22548  -8440552.35548  20081551.19149  20081551.07548  20081552.24548
 -14264545.08148 -11115231.15448  20204530.77849  20204529.95448  20204530.10848
  -8299291.25447  -6466966.26547  22375998.58448  22375998.78347  22375998.01647
  -2819798.53446  -2197246.26146  22069890.62248  22069890.91946  22069891.03546
 08 10 24 19 24 20.0000000  0  7 03 06 11 14 19 22 31
 -12110884.91947  -9437067.81147  21249328.47648  21249328.31347  21249330.10347
  -5627690.94147  -4385214.18347  21321562.94348  21321562.98847  21321564.92947
   6185784.57346   4820090.70146  23284480.99848  23284480.73546  23284481.60246
 -10690784.00048  -8330481.79948  20108431.52549  20108431.47848  20108432.49848
 -14203914.01548 -11067986.17048  20216068.47349  20216067.66548  20216067.89748
  -8185050.68547  -6377947.63247  22397737.76348  22397738.32147  22397737.41647
  -3166694.62346  -2467554.88746  22003878.57848  22003878.94746  22003878.92346
 08 10 24 19 24 30.0000000  0  7 03 06 11 14 19 22 31
 -12249366.63547  -9544975.63147  21222976.17248  21222976.07947  21222978.07947
  -5831934.03147  -4544364.63047  21282696.75048  21282696.40447  21282699.13347
   6477573.92846   5047459.01146  23340006.99748  23340006.61546  23340007.77346
 -10544840.40248  -8216759.52248  20136203.75449  20136203.63348  20136204.74048
 -14140524.18348 -11018591.49648  20228131.11349  20228130.41148  20228130.48748
  -8068806.27147  -6287367.55447  22419858.48248  22419858.68947  22419857.67647
  -3511143.77247  -2735956.80346  21938331.88348  21938332.18047  21938332.56946
 08 10 24 19 24 40.0000000  0  7 03 06 11 14 19 22 31
 -12385737.66947  -9651238.76647  21197025.56148  21197025.29547  21197027.66747
  -6034345.53647  -4702087.87547  21244179.21848  21244179.22447  21244181.72847
   6770234.20646   5275505.96846  23395698.10148  23395698.30146  23395698.56746
 -10394255.34848  -8099420.53948  20164859.05449  20164859.06748  20164860.12448
 -14074390.40348 -10967058.68448  20240715.98849  20240715.24848  20240715.38948
  -7950587.88147  -6195249.34047  22442354.91448  22442354.47147  22442353.98247
  -3853095.15447  -3002412.41546  21873260.92048  21873261.04547  21873261.22646
 08 10 24 19 24 50.0000000  0  7 03 06 11 14 19 22 31
 -12519987.26348  -9755848.83347  21171478.82848  21171478.66848  21171480.79747
  -6234908.39247  -4858370.61047  21206013.33348  21206013.35947  21206015.17447
   7063735.19146   5504208.00646  23451549.25148  23451549.66946  23451550.01546
 -10239075.32748  -7978501.05948  20194388.90549  20194388.75948  20194389.98248
 -14005528.74348 -10913400.24748  20253819.92349  20253819.15048  20253819.24648
  -7830426.16247  -6101616.82947  22465220.90048  22465220.62247  22465220.24947
  -4192498.29847  -3266882.37547  21808674.57848  21808674.61547  21808675.10247
 08 10 24 19 25 00.0000000  0  7 03 06 11 14 19 22 31
 -12652102.95648  -9858796.12347  21146337.94148  21146337.82348  21146340.02247
  -6433604.07347  -5013198.39447  21168202.73248  21168202.62047  21168205.11347
   7358048.58046   5733543.10246  23507555.72548  23507555.13546  23507556.21946
 -10079345.86348  -7854036.55448  20224784.32749  20224784.31448  20224785.45548
 -13933953.65248 -10857627.45248  20267440.25149  20267439.43948  20267439.56448
  -7708350.00747  -6006492.54847  22488451.01948  22488450.81747  22488450.22347
  -4529300.94347  -3529325.99047  21744583.07948  21744583.46047  21744583.64847
 08 10 24 19 25 10.0000000  0  7 03 06 11 14 19 22 31
 -12782072.87348  -9960071.37547  21121605.50948  21121605.32148  21121607.48147
  -6630414.41847  -5166557.09547  21130751.02648  21130750.78747  21130753.11847
   7653145.69946   5963488.90346  23563710.51048  23563710.79846  23563710.93846
  -9915113.79748  -7726063.52848  20256036.79649  20256036.68448  20256037.84248
 -13859680.39248 -10799752.18748  20281574.03649  20281573.26548  20281573.31548
  -7584388.91447  -5909899.48747  22512040.38248  22512039.88447  22512039.32147
  -4863451.10547  -3789702.73147  21680996.18548  21680996.62047  21680996.63347
 08 10 24 19 25 20.0000000  0  7 03 06 11 14 19 22 31
 -12909882.04948 -10059662.93747  21097284.22148  21097284.17848  21097286.27747
  -6825318.02847  -5318430.02347  21093662.07948  21093662.11047  21093664.40747
   7949001.21046   6194025.65346  23620010.30748  23620009.18546  23620010.74646
  -9746423.57948  -7594616.61648  20288137.39649  20288137.27848  20288138.58548
 -13782721.34948 -10739784.10648  20296218.82349  20296218.11448  20296218.13848
  -7458569.28347  -5811858.21447  22535982.72648  22535982.90647  22535982.11847
  -5194893.58847  -4047969.57647  21617925.15048  21617925.13747  21617925.27847
 08 10 24 19 25 30.0000000  0  7 03 06 11 14 19 22 31
 -13035514.68548 -10157558.49247  21073377.07248  21073376.86548  21073379.15347
  -7018292.58347  -5468799.80547  21056940.46048  21056940.22447  21056942.49447
   8245590.97346   6425134.56146  23676449.07948  23676448.01746  23676450.42546
  -9573319.33348  -7459730.20148  20321078.12149  20321078.03848  20321079.30848
 -13703088.08848 -10677732.21648  20311372.49849  20311371.75948  20311371.79348
  -7330916.62147  -5712388.59247  22560274.20148  22560273.76547  22560273.55347
  -5523572.03047  -4304082.64147  21555379.57748  21555379.71547  21555379.90747
 08 10 24 19 25 40.0000000  0  7 03 06 11 14 19 22 31
 -13158954.90248 -10253745.67147  21049887.12348  21049887.00348  21049889.24647
  -7209315.62247  -5617648.91747  21020589.93248  21020589.68847  21020591.90647
   8542891.21446   6656797.05646  23733023.92048  23733022.53146  23733024.01546
  -9395845.82748  -7321439.16448  20354850.17949  20354850.00448  20354851.38548
 -13620792.35448 -10613605.67448  20327032.81649  20327032.14048  20327032.19648
  -7201456.32747  -5611510.44047  22584909.51548  22584909.89747  22584909.10547
  -5849429.67947  -4557997.66847  21493370.71248  21493370.94347  21493371.56747
 08 10 24 19 25 50.0000000  0  7 03 06 11 14 19 22 31
 -13280186.94048 -10348212.18647  21026817.43548  21026817.42348  21026819.36447
  -7398364.62247  -5764959.81647  20984614.94948  20984614.99747  20984616.80847
   8840878.17146   6888994.66446  23789728.66948  23789728.25746  23789729.91646
  -9214048.55848  -7179778.96648  20389445.03849  20389444.95548  20389446.21848
 -13535846.21848 -10547413.88248  20343197.49349  20343196.94148  20343196.87148
  -7070213.97146  -5509243.66547  22609884.31348  22609883.84646  22609884.10447
  -6172409.73647  -4809670.42647  21431909.63348  21431910.05247  21431910.30147
 08 10 24 19 26 00.0000000  0  7 03 06 11 14 19 22 31
 -13399193.80748 -10440944.80547  21004171.17648  21004171.14348  21004173.28747
  -7585415.90547  -5910714.06047  20949020.53948  20949020.25747  20949022.24247
   9139529.60946   7121710.04046  23846559.79748  23846559.76046  23846560.83846
  -9027972.13948  -7034784.36248  20424854.17149  20424854.16648  20424855.40748
 -13448260.51548 -10479165.28648  20359864.54849  20359863.85248  20359863.86048
  -6937213.69646  -5405607.07947  22635193.20448  22635193.21546  22635193.03647
  -6492454.20747  -5059055.71347  21371007.00748  21371007.82447  21371007.78047
 08 10 24 19 26 10.0000000  0  7 03 06 11 14 19 22 31
 -13515958.91748 -10531930.60147  20981951.66348  20981951.53448  20981953.43247
  -7770445.81347  -6054893.20547  20913810.24448  20913810.33347  20913812.29647
   9438823.26946   7354925.88346  23903513.69648  23903514.38846  23903514.44946
  -8837662.24648  -6886490.94348  20461069.03549  20461068.87248  20461070.17448
 -13358046.66848 -10408868.78648  20377031.67749  20377030.98048  20377031.00248
  -6802479.84746  -5300619.67147  22660832.27148  22660832.60146  22660831.87547
  -6809505.07947  -5306108.32447  21310674.15448  21310674.71547  21310675.11247
 08 10 24 19 26 20.0000000  0  7 03 06 11 14 19 22 31
 -13630465.84148 -10621156.77447  20960161.60948  20960161.48048  20960163.34547
  -7953430.74647  -6197478.85747  20878989.46048  20878989.39747  20878991.14247
   9738737.24646   7588625.06046  23960585.67748  23960585.76346  23960585.65246
  -8643165.02748  -6734934.67148  20498080.54049  20498080.37748  20498081.71248
 -13265216.25348 -10336533.39848  20394696.73049  20394695.98348  20394696.15948
  -6666036.82346  -5194300.42647  22686796.77948  22686796.44346  22686796.02047
  -7123504.19147  -5550782.94547  21250922.44248  21250922.51947  21250923.17047
 08 10 24 19 26 30.0000000  0  7 03 06 11 14 19 22 31
 -13742698.63248 -10708610.88747  20938804.48148  20938804.36148  20938806.40947
  -8134347.68247  -6338453.08947  20844562.06048  20844562.04147  20844564.04747
  10039249.04446   7822790.09346  24017770.85848  24017769.64346  24017772.48546
  -8444527.71248  -6580152.35448  20535879.86649  20535879.79148  20535881.17948
 -13169781.80548 -10262168.89548  20412857.36349  20412856.54448  20412856.73448
  -6527909.63846  -5086668.84947  22713081.39048  22713081.85846  22713080.92447
  -7434393.99147  -5793034.72747  21191762.27248  21191762.33547  21191762.57147
 08 10 24 19 26 40.0000000  0  7 03 06 11 14 19 22 31
 -13852641.45248 -10794280.61647  20917883.11548  20917882.82148  20917884.93947
  -8313173.59647  -6477797.94847  20810532.68048  20810532.65447  20810534.63547
  10340336.73046   8057403.84346  24075066.16048  24075066.25746  24075066.89946
  -8241797.96148  -6422181.12448  20574458.15449  20574458.06248  20574459.37948
 -13071755.71048 -10185784.92848  20431511.04349  20431510.28248  20431510.41648
  -6388123.11146  -4977744.28447  22739681.84048  22739681.71946  22739681.13747
  -7742116.62047  -6032818.58447  21133204.53348  21133204.70347  21133204.91347
 08 10 24 19 26 50.0000000  0  7 03 06 11 14 19 22 31
 -13960278.78948 -10878153.86447  20897400.30848  20897400.27948  20897402.32447
  -8489885.45947  -6615495.49947  20776905.55048  20776905.41447  20776907.26147
  10641978.07046   8292449.03746  24132466.50248  24132467.30646  24132467.60446
  -8035024.26948  -6261058.77248  20613805.79448  20613805.74948  20613807.05648
 -12971150.89948 -10107391.57048  20450655.51549  20450654.80248  20450654.92548
  -6246702.35346  -4867546.29046  22766593.29448  22766592.97746  22766593.13046
  -8046614.49047  -6270089.64547  21075260.28948  21075260.40447  21075260.66847
 08 10 24 19 27 00.0000000  0  7 03 06 11 14 19 22 31
 -14065594.80648 -10960218.28747  20877359.33448  20877359.01848  20877361.10047
  -8664459.91548  -6751527.52947  20743684.91648  20743685.10948  20743687.03247
  10944151.70546   8527909.00146  24189968.06448  24189968.66146  24189969.15546
  -7824254.87448  -6096822.88948  20653913.92148  20653913.87848  20653915.20048
 -12867979.93248 -10026998.61148  20470288.26549  20470287.64348  20470287.72048
  -6103671.97046  -4756094.02946  22793811.10748  22793810.93146  22793810.24746
  -8347829.63047  -6504802.73548  21017940.91348  21017941.15847  21017941.58048
 08 10 24 19 27 10.0000000  0  7 03 06 11 14 19 22 31
 -14168573.75048 -11040461.61247  20857762.96648  20857762.90448  20857765.05947
  -8836873.64048  -6885875.88047  20710875.93548  20710875.93448  20710877.75347
  11246836.41846   8763767.19046  24247567.48748  24247568.12546  24247568.07046
  -7609538.66848  -5929511.57248  20694773.24448  20694773.05348  20694774.42548
 -12762255.53948  -9944615.97148  20490407.01249  20490406.30948  20490406.31648
  -5959056.41446  -4643406.60346  22821330.40148  22821330.31246  22821329.73746
  -8645704.11047  -6736912.70448  20961257.29248  20961257.46347  20961258.01548
 08 10 24 19 27 20.0000000  0  7 03 06 11 14 19 22 31
 -14269201.53748 -11118872.86947  20838614.35048  20838614.04248  20838616.30547
  -9007104.94648  -7018523.64547  20678481.62848  20678481.87048  20678483.65347
  11550009.71546   9000006.11446  24305259.81748  24305259.75546  24305260.69946
  -7390926.30548  -5759164.27748  20736373.56048  20736373.54948  20736374.83948
 -12653992.32548  -9860255.02748  20511008.90449  20511008.11148  20511008.11348
  -5812881.58346  -4529504.12746  22849146.53048  22849147.50146  22849145.73746
  -8940181.23247  -6966375.39048  20905220.17148  20905220.42147  20905220.79348
 08 10 24 19 27 30.0000000  0  7 03 06 11 14 19 22 31
 -14367181.95448 -11195221.24047  20819969.12348  20819968.83948  20819971.35247
  -9174849.81748  -7149233.93147  20646560.94748  20646561.01548  20646563.03347
  11853931.44246   9236828.22246  24363093.76548  24363093.39546  24363095.79446
  -7168186.81848  -5585601.04448  20778759.66648  20778759.56148  20778760.78648
 -12542922.90548  -9773707.43248  20532144.63349  20532143.89248  20532143.95448
  -5664891.37846  -4414187.09446  22877308.13648  22877308.48646  22877307.22346
  -9230922.70847  -7192927.17948  20849894.11548  20849893.93647  20849894.49548
 08 10 24 19 27 40.0000000  0  7 03 06 11 14 19 22 31
 -14462335.47448 -11269366.83647  20801861.87548  20801861.87148  20801864.07047
  -9339921.03048  -7277860.84147  20615149.05648  20615149.03848  20615150.95347
  12158745.25146   9474345.41746  24421098.03348  24421097.13946  24421098.86546
  -6941205.97448  -5408732.85748  20821952.50848  20821952.59648  20821953.92348
 -12428896.53448  -9684855.71948  20553843.11549  20553842.39348  20553842.41648
  -5514945.99946  -4297346.53746  22905841.75948  22905841.93646  22905841.52946
  -9517706.59247  -7416395.13048  20795320.66148  20795320.92947  20795321.52348
 08 10 24 19 27 50.0000000  0  7 03 06 11 14 19 22 31
 -14555125.80048 -11341670.97547  20784204.61148  20784204.34848  20784206.54547
  -9502773.93748  -7404759.19747  20584159.15948  20584159.22148  20584161.05847
  12463951.87146   9712168.77546  24479176.92548  24479177.62446  24479176.54946
  -6710512.78748  -5228971.93248  20865852.11748  20865851.89748  20865853.28748
 -12312405.34548  -9594083.36948  20576010.62249  20576009.97548  20576009.92548
  -5363548.39846  -4179374.38546  22934651.49448  22934651.66046  22934651.50646
  -9800953.86847  -7637107.28048  20741420.46548  20741421.04047  20741421.12948
 08 10 24 19 28 00.0000000  0  7 03 06 11 14 19 22 31
 -14645506.55648 -11412097.53547  20767005.67948  20767005.56248  20767007.80147
  -9663354.21848  -7529886.68947  20553601.74848  20553601.73548  20553603.62547
  12769562.44546   9950306.87146  24537332.76548  24537332.41746  24537333.41946
  -6476126.59348  -5046333.34548  20910454.29748  20910454.18948  20910455.44248
 -12193431.76248  -9501376.68748  20598650.66549  20598649.89848  20598649.91548
  -5210691.60746  -4060265.19046  22963739.62748  22963740.11246  22963738.91746
 -10080575.77947  -7854994.47448  20688210.18248  20688210.53947  20688210.95448
 08 10 24 19 28 10.0000000  0  7 03 06 11 14 19 22 31
 -14733462.98448 -11480634.99747  20750268.16148  20750267.89348  20750270.24847
  -9821638.78648  -7653225.30447  20523481.19248  20523481.24648  20523483.04347
  13075556.97546  10188744.14946  24595561.18648  24595562.27646  24595561.74946
  -6238098.29448  -4860856.75348  20955749.53948  20955749.43948  20955750.93848
 -12071989.82248  -9406746.60848  20621760.21149  20621759.51748  20621759.57348
  -5056399.91346  -3940037.91246  22993100.14648  22993100.30846  22993099.92846
 -10356514.96247  -8070012.01348  20635700.63548  20635700.96947  20635701.43748
 08 10 24 19 28 20.0000000  0  8 03 06 11 14 19 22 23 31
 -14818981.87348 -11547273.08747  20733994.35548  20733994.37448  20733996.43647
  -9977606.35248  -7774758.46547  20493801.67648  20493801.49348  20493803.21047
  13381914.04646  10427463.94746  24653859.41748  24653859.34346  24653859.89046
  -5996480.62048  -4672583.24848  21001727.95948  21001727.96548  21001729.03848
 -11948095.00948  -9310205.19948  20645336.51449  20645335.93748  20645335.93048
  -4900698.98846  -3818712.51746  23022729.09648  23022728.48446  23022728.82946
   -149975.44656   -116900.85756  25251594.62457  25251592.70256  25251597.38256
 -10628715.77447  -8282116.53348  20583902.46248  20583902.91247  20583903.35148
 08 10 24 19 28 30.0000000  0  8 03 06 11 14 19 22 23 31
 -14902048.76348 -11612000.52847  20718187.35048  20718187.06548  20718189.34147
 -10131234.00548  -7894468.31447  20464567.11048  20464566.96848  20464569.00347
  13688614.16246  10666451.00646  24712222.14848  24712222.02046  24712222.03646
  -5751325.03748  -4481552.93548  21048379.60048  21048379.45548  21048380.75648
 -11821761.63948  -9211763.61848  20669377.11049  20669376.31748  20669376.42948
  -4743612.98246  -3696307.84246  23052621.48448  23052621.88846  23052621.11246
   -336252.37546   -262059.89746  25216148.43547  25216148.65146  25216146.30446
 -10897121.29747  -8491263.68248  20532826.80248  20532826.89447  20532827.41548
 08 10 24 19 28 40.0000000  0  7 03 06 11 14 19 22 31
 -14982643.73448 -11674801.79648  20702850.62348  20702850.43148  20702852.71248
 -10282493.22548  -8012332.63447  20435783.44848  20435783.59648  20435785.35847
  13995643.54046  10905694.65346  24770648.01748  24770648.87946  24770650.29846
  -5502677.41048  -4287801.54648  21095695.56948  21095695.46348  21095696.79948
 -11692998.26048  -9111428.52348  20693879.99349  20693879.21748  20693879.12248
  -4585160.12446  -3572838.08746  23082774.16548  23082775.01546  23082773.30046
 -11161669.14648  -8697404.85348  20482484.84248  20482485.12548  20482485.77848
 08 10 24 19 28 50.0000000  0  7 03 06 11 14 19 22 31
 -15060744.44848 -11735659.49048  20687988.62348  20687988.65048  20687990.63748
 -10431353.34948  -8128327.52947  20407456.28948  20407456.44648  20407457.94147
  14302991.18546  11145186.30946  24829134.38648  24829134.08046  24829136.28046
  -5250581.59248  -4091363.25548  21143667.80848  21143667.81148  21143668.87848
 -11561811.45348  -9009205.04348  20718844.03749  20718843.27848  20718843.24448
  -4425356.31046  -3448315.64146  23113183.59048  23113183.90446  23113183.04546
 -11422294.92048  -8900489.86248  20432889.57048  20432889.76848  20432890.24148
 08 10 24 19 29 00.0000000  0  7 03 06 11 14 19 22 31
 -15136330.68048 -11794557.84448  20673604.93848  20673604.84248  20673606.90048
 -10577785.43748  -8242430.44948  20379591.17348  20379591.07448  20379593.13048
  14610644.22246  11384915.91446  24887679.01648  24887680.83646  24887678.87146
  -4995083.28648  -3892273.67948  21192287.63048  21192287.46648  21192288.73448
 -11428209.59048  -8905099.70048  20744267.58349  20744266.88548  20744266.81648
  -4264219.20146  -3322754.25246  23143847.17648  23143847.49946  23143846.45946
 -11678936.21348  -9100470.08248  20384052.35448  20384052.55648  20384053.17348
 08 10 24 19 29 10.0000000  0  7 03 06 11 14 19 22 31
 -15209383.67348 -11851482.25248  20659703.40948  20659703.32748  20659705.44848
 -10721762.15348  -8354620.08748  20352193.17248  20352193.32848  20352195.23448
  14918588.93846  11624872.83846  24946278.45048  24946279.79046  24946278.27546
  -4736229.58348  -3690569.50448  21241545.78348  21241545.62348  21241546.98548
 -11292202.49048  -8799120.14748  20770148.92149  20770148.12548  20770148.19248
  -4101767.52846  -3196168.53846  23174760.67248  23174761.21146  23174760.26446
 -11931532.27148  -9297298.17448  20335984.88948  20335985.29248  20335985.74148
 08 10 24 19 29 20.0000000  0  7 03 06 11 14 19 22 31
 -15279895.45148 -11906426.49448  20646285.40348  20646285.34848  20646287.51548
 -10863266.68548  -8464883.35048  20325265.77548  20325266.06548  20325267.85148
  15226801.21446  11865037.21746  25004930.23948  25004931.85646  25004930.65346
  -4474078.49448  -3486295.93848  21291431.46648  21291431.36048  21291432.51748
 -11153810.58248  -8691282.30448  20796483.99149  20796483.20648  20796483.28248
  -3938030.40946  -3068581.19346  23205919.01748  23205919.14846  23205918.52646
 -12180033.32448  -9490935.35248  20288696.67648  20288696.90648  20288697.41648
 08 10 24 19 29 30.0000000  0  7 03 06 11 14 19 22 31
 -15347862.35848 -11959387.71448  20633351.72148  20633351.59548  20633353.92348
 -11002286.45348  -8573210.44148  20298811.27748  20298811.12748  20298813.04248
  15535252.82946  12105389.06946  25063626.28148  25063628.80246  25063626.75846
  -4208692.15748  -3279501.39748  21341932.84748  21341932.88748  21341934.10348
 -11013058.81548  -8581605.60948  20823268.20049  20823267.41248  20823267.45448
  -3773041.28146  -2940018.24746  23237315.18948  23237315.32646  23237314.82146
 -12424394.09348  -9681346.33048  20242196.30848  20242196.55848  20242197.18048
 08 10 24 19 29 40.0000000  0  7 03 06 11 14 19 22 31
 -15413281.94748 -12010364.01648  20620902.86648  20620902.82648  20620904.98148
 -11138810.21048  -8679592.58348  20272831.80748  20272831.54448  20272833.65348
  15843914.90946  12345904.97946  25122362.99448  25122364.46746  25122363.05546
  -3940133.69348  -3070235.07148  21393037.88648  21393037.65548  21393039.01848
 -10869973.06548  -8470110.22948  20850496.53149  20850495.69348  20850495.71248
  -3606834.11146  -2810506.18846  23268943.23948  23268943.59946  23268943.05846
 -12664570.72048  -9868496.93848  20196492.22348  20196492.44748  20196493.11948
 08 10 24 19 29 50.0000000  0  7 03 06 11 14 19 22 31
 -15476151.50148 -12059353.27248  20608939.09248  20608939.00148  20608941.33848
 -11272826.06048  -8784020.50948  20247329.30348  20247329.28548  20247331.26848
  16152759.20846  12586564.85046  25181134.01148  25181133.14846  25181134.40246
  -3668465.72048  -2858545.74848  21444734.49348  21444734.40448  21444735.71948
 -10724578.77848  -8356815.98548  20878164.11049  20878163.39248  20878163.37848
  -3439442.58746  -2680071.22146  23300796.81848  23300797.06246  23300796.22646
 -12900519.21448 -10052352.89948  20151592.86948  20151592.89948  20151593.55648
 08 10 24 19 30 00.0000000  0  8 03 06 11 14 19 22 23 31
 -15536464.09748 -12106350.09848  20597461.99948  20597461.78548  20597464.11648
 -11404318.20948  -8886481.92148  20222307.16748  20222307.29748  20222309.08648
  16461762.14746  12827344.82446  25239935.85648  25239933.16146  25239935.48546
  -3393746.76748  -2644479.04448  21497011.78548  21497011.87948  21497013.05948
 -10576897.27248  -8241739.49448  20906267.03949  20906266.27248  20906266.28648
  -3270895.71246  -2548735.99946  23332870.73948  23332870.26546  23332869.55946
   -120776.44756    -94114.04656  24909611.32458  24909611.07756  24909608.72956
 -13132191.75348 -10232876.94848  20107507.14248  20107507.27948  20107507.89648
 08 10 24 19 30 10.0000000  0  8 03 06 11 14 19 22 23 31
 -15594212.05648 -12151348.50048  20586472.85448  20586472.71848  20586475.12448
 -11533269.59748  -8986963.51148  20197768.49648  20197768.58048  20197770.61248
  16770901.45546  13068234.10646  25298763.01148  25298763.90346  25298762.01446
  -3116034.12848  -2428079.59148  21549858.71648  21549858.60848  21549859.84848
 -10426948.88848  -8124896.60648  20934801.25949  20934800.46948  20934800.42148
  -3101221.39946  -2416522.23546  23365158.49048  23365158.63146  23365158.11246
   -291915.78046   -227507.28446  24877047.38048  24877049.26746  24877046.96046
 -13359539.92548 -10410031.36248  20064244.17848  20064244.35148  20064244.92048
 08 10 24 19 30 20.0000000  0  8 03 06 11 14 19 22 23 31
 -15649383.31648 -12194339.08548  20575974.14148  20575974.00248  20575976.37648
 -11659659.05748  -9085448.79948  20173717.32848  20173717.41748  20173719.24648
  17080159.34046  13309214.18046  25357612.14147  25357613.07346  25357612.69946
  -2835380.50148  -2209388.46648  21603265.30948  21603265.31648  21603266.67348
 -10274749.35548  -8006299.57748  20963763.82149  20963763.06248  20963763.12748
  -2930442.71446  -2283447.95946  23397656.66448  23397656.80346  23397655.93446
   -461380.05646   -359556.15846  24844799.75948  24844800.28746  24844798.77246
 -13582511.31948 -10583775.30348  20021814.11648  20021814.32948  20021814.80448
 08 10 24 19 30 30.0000000  0  8 03 06 11 14 19 22 23 31
 -15701957.80948 -12235306.21648  20565969.55248  20565969.52148  20565971.74248
 -11783457.40648  -9181915.03948  20150159.23248  20150159.39448  20150161.27048
  17389526.62846  13550280.65946  25416483.29247  25416483.37846  25416485.28146
  -2551830.65848  -1988440.54448  21657223.02748  21657223.11548  21657224.53948
 -10120306.57048  -7885954.55748  20993153.31149  20993152.60148  20993152.59048
  -2758574.72646  -2149524.89446  23430361.77448  23430362.04546  23430361.62346
   -629127.33246   -490263.23646  24812878.79548  24812877.01046  24812875.38146
 -13801045.93648 -10754062.01348  19980228.24348  19980228.53248  19980229.13348
 08 10 24 19 30 40.0000000  0  8 03 06 11 14 19 22 23 31
 -15751918.15448 -12274236.35248  20556462.50548  20556462.37948  20556464.55148
 -11904637.90348  -9276341.39048  20127099.62048  20127099.35548  20127101.58248
  17698991.88246  13791422.44146  25475371.94747  25475372.39746  25475371.52746
  -2265431.74347  -1765272.57148  21711722.97348  21711722.68347  21711724.18148
  -9963630.72348  -7763869.48948  21022967.70049  21022967.06848  21022967.07448
  -2585634.64546  -2014766.39146  23463271.38248  23463271.72146  23463270.33946
   -795118.02746   -619604.34246  24781290.81948  24781289.34946  24781287.55346
 -14015086.84148 -10920847.13048  19939497.63448  19939497.80348  19939498.34448
 08 10 24 19 30 50.0000000  0  8 03 06 11 14 19 22 23 31
 -15799248.33148 -12311116.99948  20547455.99148  20547455.68048  20547457.98748
 -12023175.23348  -9368708.13448  20104542.60448  20104542.62848  20104544.42448
  18008542.69646  14032626.33146  25534277.48447  25534277.29746  25534277.63246
  -1976231.87447  -1539922.03648  21766755.78248  21766755.81747  21766757.17248
  -9804733.54248  -7640053.51248  21053204.82149  21053204.12448  21053204.16548
  -2411640.61746  -1879186.60046  23496380.96348  23496381.14346  23496380.68946
   -959313.98446   -747551.30846  24750045.75248  24750044.70546  24750044.46846
 -14224578.84548 -11084087.65048  19899632.54848  19899632.90948  19899633.39748
 08 10 24 19 31 00.0000000  0  8 03 06 11 14 19 22 23 31
 -15843936.91048 -12345939.26548  20538951.96048  20538951.79748  20538953.88948
 -12139048.45148  -9458998.95048  20082492.68248  20082492.57648  20082494.53948
  18318162.58046  14273894.39946  25593193.58947  25593195.73246  25593197.91446
  -1684283.16647  -1312429.55148  21822311.78848  21822312.01547  21822313.17148
  -9643630.81848  -7514518.92848  21083861.69749  21083860.99848  21083861.03648
  -2236614.85746  -1742802.91646  23529687.57848  23529689.11046  23529686.94046
  -1121681.06846   -874070.98546  24719148.69248  24719147.50746  24719148.00846
 -14429471.53548 -11243744.28748  19860642.84948  19860643.12348  19860643.54648
 08 10 24 19 31 10.0000000  0  7 03 06 14 19 22 23 31
 -15885979.80048 -12378699.95148  20530951.47248  20530951.30848  20530953.44948
 -12252243.99948  -9547203.27148  20060952.28248  20060952.31948  20060954.17448
  -1389645.07047  -1082841.43748  21878379.81248  21878379.31747  21878381.18948
  -9480345.63248  -7387283.72648  21114933.78548  21114933.07248  21114933.28748
  -2060586.82646  -1605638.23646  23563184.36848  23563185.17846  23563183.55046
  -1282192.72046   -999145.16146  24688604.18548  24688604.61746  24688602.47246
 -14629722.46148 -11399783.96348  19822536.36448  19822536.58448  19822537.10748
 08 10 24 19 31 20.0000000  0  7 03 06 14 19 22 23 31
 -15925376.40648 -12409398.60248  20523454.42748  20523454.41948  20523456.51848
 -12362751.87848  -9633313.30648  20039923.37448  20039923.36948  20039925.21148
  -1092380.11047   -851206.41548  21934947.38148  21934947.22547  21934948.75048
  -9314904.43348  -7258368.51148  21146416.05848  21146415.46248  21146415.65948
  -1883588.94646  -1467717.80046  23596866.17748  23596866.00146  23596864.95146
  -1440825.46346  -1122752.00846  24658417.42148  24658416.49546  24658416.41846
 -14825293.19648 -11552176.73948  19785320.54248  19785320.77248  19785321.32848
 08 10 24 19 31 30.0000000  0  7 03 06 14 19 22 23 31
 -15962123.37748 -12438032.59848  20516461.81748  20516461.62248  20516463.83348
 -12470559.20248  -9717319.01048  20019408.27648  20019408.20848  20019410.03048
   -792547.61947   -617570.71748  21992003.63348  21992003.47547  21992004.86548
  -9147330.67848  -7127791.56548  21178304.45148  21178303.56948  21178303.91148
  -1705650.42646  -1329064.42346  23630727.14548  23630727.18146  23630726.54746
  -1597553.06246  -1244870.79646  24628592.44548  24628590.90346  24628587.13246
 -15016142.93648 -11700890.81948  19749002.97848  19749003.28048  19749003.77548
 08 10 24 19 31 40.0000000  0  7 03 06 14 19 22 23 31
 -15996210.46548 -12464593.96648  20509975.10548  20509975.16448  20509977.23048
 -12575646.05348  -9799204.86648  19999410.74748  19999410.87548  19999412.73648
   -490199.64747   -381974.90448  22049538.65048  22049538.68347  22049539.73348
  -8977640.68848  -6995565.60748  21210595.31748  21210594.56648  21210594.90848
  -1526793.12046  -1189695.09846  23664762.06148  23664762.36446  23664761.16146
  -1752342.03446  -1365485.29346  24599138.02148  24599139.38746  24599136.62046
 -15202224.41348 -11845889.36748  19713592.81648  19713593.06648  19713593.61148
 08 10 24 19 31 50.0000000  0  7 03 06 14 19 22 23 31
 -16027631.93748 -12489078.23048  20503996.04049  20503995.78148  20503997.99948
 -12677996.96848  -9878958.82648  19979934.11248  19979934.22048  19979935.89048
   -185392.36447   -144462.75148  22107541.44848  22107541.36947  22107542.65848
  -8805855.18948  -6861706.78348  21243284.96848  21243284.29948  21243284.51448
  -1347043.02046  -1049630.11446  23698967.20648  23698967.78246  23698966.75746
  -1905163.32046  -1484564.51646  24570057.17948  24570055.64246  24570056.75246
 -15383495.60348 -11987139.64048  19679097.99749  19679098.29448  19679098.77948
 08 10 24 19 32 00.0000000  0  7 03 06 14 19 22 23 31
 -16056381.74448 -12511480.67548  20498524.94649  20498524.86148  20498527.02648
 -12777596.45248  -9956568.81148  19960981.04948  19960981.00448  19960983.08948
    121818.68347     94922.46148  22166001.63348  22166001.68447  22166002.95248
  -8631994.42948  -6726230.87248  21276369.64448  21276368.83348  21276369.07148
  -1166425.61746   -908889.26046  23733337.78548  23733336.35746  23733337.50046
  -2055987.71646  -1602085.11846  24541355.53148  24541354.47046  24541354.49546
 -15559914.79248 -12124609.13348  19645526.58849  19645526.94948  19645527.42948
 08 10 24 19 32 10.0000000  0  7 03 06 14 19 22 23 31
 -16082457.40248 -12531799.36548  20493562.96049  20493562.74548  20493564.99848
 -12874432.44648 -10032025.42748  19942553.57148  19942553.76148  19942555.73448
    431374.78147    336134.99447  22224908.25648  22224908.72547  22224909.68547
  -8456082.07848  -6589156.31748  21309844.62648  21309843.81548  21309844.26948
   -984969.49346   -767494.89446  23767867.83248  23767867.99546  23767867.58646
  -2204789.37346  -1718035.18246  24513039.45748  24513041.64246  24513036.73946
 -15731444.43048 -12258268.58748  19612885.53549  19612885.93448  19612886.46248
 08 10 24 19 32 20.0000000  0  7 03 06 14 19 22 23 31
 -16105853.97248 -12550030.45948  20489110.73349  20489110.68548  20489112.77948
 -12968490.49948 -10105317.41448  19924655.17548  19924655.00448  19924657.01848
    743220.24447    579131.44747  22284250.42748  22284250.43047  22284252.01447
  -8278139.09248  -6450499.45048  21343706.04148  21343705.39248  21343705.54448
   -802700.27346   -625466.97646  23802552.40248  23802552.24346  23802551.55846
  -2351539.70146  -1832385.43246  24485114.28548  24485114.87046  24485114.63146
 -15898045.14948 -12388087.32548  19581182.50749  19581182.87348  19581183.37248
 08 10 24 19 32 30.0000000  0  7 03 06 14 19 22 23 31
 -16126564.68148 -12566168.67148  20485169.60749  20485169.38548  20485171.69648
 -13059753.97348 -10176431.80448  19907288.17548  19907288.22448  19907290.27248
   1057301.76047    823870.27847  22344018.20048  22344018.12347  22344019.47747
  -8098184.10048  -6310274.78748  21377950.25848  21377949.61248  21377949.88948
   -619641.15846   -482823.48246  23837387.46648  23837388.23146  23837387.30746
  -2496208.17746  -1945111.52146  24457584.57448  24457583.46646  24457584.74946
 -16059676.23548 -12514033.62248  19550425.14249  19550425.56948  19550425.99448
 08 10 24 19 32 40.0000000  0  7 03 06 14 19 22 23 31
 -16144587.10048 -12580212.11048  20481739.93249  20481739.76148  20481742.06048
 -13148210.84748 -10245359.23748  19890455.42149  19890455.46548  19890457.33948
   1373562.08447   1070306.87847  22404200.58648  22404200.18247  22404202.04747
  -7916240.17148  -6168500.30048  21412573.13648  21412572.44348  21412572.62048
   -435819.39846   -339585.77446  23872367.40348  23872366.42646  23872366.79446
  -2638768.57346  -2056177.70946  24430453.94548  24430452.56146  24430452.63846
 -16216302.06148 -12636079.71748  19520620.26949  19520620.54048  19520621.11248
 08 10 24 19 32 50.0000000  0  7 03 06 14 19 22 23 31
 -16159916.84248 -12592157.35648  20478822.82749  20478822.71048  20478825.07448
 -13233846.87048 -10312088.59848  19874159.45749  19874159.41548  19874161.26548
   1691946.53946   1318398.66647  22464787.19648  22464786.81346  22464788.71847
  -7732327.89348  -6025192.04048  21447570.41148  21447569.66748  21447569.99048
   -251259.72546   -195773.03746  23907488.04948  23907487.40746  23907488.55146
  -2779192.27846  -2165599.21246  24403734.84448  24403733.53746  24403733.58346
 -16367885.96248 -12754197.03848  19491774.76349  19491775.11148  19491775.57048
 08 10 24 19 33 00.0000000  0  7 03 06 14 19 22 23 31
 -16172550.65048 -12602001.88048  20476418.66449  20476418.55948  20476420.88448
 -13316649.11148 -10376609.82248  19858402.54749  19858402.60548  19858404.63048
   2012399.72146   1568102.43447  22525767.28948  22525767.29146  22525768.82547
  -7546468.81248  -5880366.78748  21482938.38048  21482937.50748  21482937.75448
    -65987.59746    -51405.12146  23942744.00648  23942743.72646  23942744.79846
  -2917452.25546  -2273334.23446  24377423.79048  24377423.61746  24377423.64646
 -16514392.93348 -12868358.31148  19463895.63749  19463895.81948  19463896.20048
 08 10 24 19 33 10.0000000  0  7 03 06 14 19 22 23 31
 -16182484.89848 -12609742.84648  20474528.36949  20474528.20048  20474530.54548
 -13396604.36748 -10438912.61348  19843187.71349  19843187.70648  19843189.61548
   2334867.15746   1819375.74647  22587130.79048  22587130.52246  22587131.93147
  -7358683.97148  -5734040.94448  21518672.61548  21518671.82448  21518672.06248
    119972.44246     93498.74046  23978131.41548  23978131.38946  23978129.50946
  -3053520.59046  -2379361.44946  24351531.64148  24351529.70346  24351530.50546
 -16655788.38648 -12978536.58648  19436988.82249  19436989.10548  19436989.63748
 08 10 24 19 33 20.0000000  0  7 03 06 14 19 22 23 31
 -16189715.46348 -12615377.04548  20473152.35949  20473152.15948  20473154.57348
 -13473698.74948 -10498986.15648  19828517.16049  19828517.14948  19828519.08048
   2659295.35746   2072176.92947  22648867.53748  22648867.24246  22648868.31447
  -7168993.51648  -5586230.21048  21554769.44948  21554768.76348  21554768.90348
    306596.54746    238920.14246  24013645.20148  24013645.11046  24013643.79646
  -3187369.01946  -2483657.36646  24326061.01048  24326061.24846  24326061.47146
 -16792038.05048 -13084705.15348  19411061.36849  19411061.69448  19411062.08948
 08 10 24 19 33 30.0000000  0  7 03 06 14 19 22 23 31
 -16194237.91348 -12618901.03048  20472291.90449  20472291.74148  20472294.03248
 -13547918.19148 -10556819.48648  19814393.55449  19814393.67248  19814395.59648
   2985631.77446   2326465.04147  22710967.43648  22710968.14346  22710968.80247
  -6977417.11448  -5436949.90148  21591225.17448  21591224.55948  21591224.67048
    493861.81446    384841.13946  24049280.04048  24049278.46546  24049279.33246
  -3318968.89746  -2586204.47046  24301018.77448  24301016.61146  24301016.20746
 -16923108.25348 -13186837.78048  19386119.51549  19386119.90948  19386120.27648
 08 10 24 19 33 40.0000000  0  7 03 06 14 19 22 23 31
 -16196050.51748 -12620313.44948  20471946.97649  20471946.84248  20471948.97348
 -13619251.20848 -10612403.65948  19800819.33749  19800819.36048  19800821.32548
   3313821.75046   2582197.47147  22773419.86048  22773420.11646  22773421.13947
  -6783976.76948  -5286217.17548  21628035.78748  21628035.12448  21628035.27848
    681743.26346    531242.25646  24085032.90248  24085033.94146  24085032.02746
  -3448293.98046  -2686976.12546  24276408.66448  24276407.73946  24276406.96946
 -17048968.77748 -13284910.91648  19362169.13949  19362169.42348  19362169.84148
 08 10 24 19 33 50.0000000  0  7 03 06 14 19 22 23 31
 -16195150.45848 -12619612.10548  20472118.16749  20472118.08348  20472120.26148
 -13687685.46248 -10665729.05248  19787796.83049  19787796.77748  19787798.69048
   3643812.22146   2839332.89747  22836215.06648  22836215.18546  22836216.55447
  -6588693.21748  -5134048.17948  21665196.97148  21665196.20548  21665196.42048
    870217.18246    678105.04546  24120898.17748  24120898.30646  24120898.29946
  -3575317.16546  -2785955.23146  24252236.10148  24252236.60746  24252235.82346
 -17169589.19648 -13378900.85348  19339215.81049  19339216.07348  19339216.58148
 08 10 24 19 34 00.0000000  0  7 03 06 14 19 22 23 31
 -16191534.57048 -12616794.53248  20472806.24049  20472806.28748  20472808.43948
 -13753208.10048 -10716785.64848  19775328.21449  19775328.22348  19775330.20048
   3975551.03046   3097830.67047  22899342.76748  22899343.26746  22899343.89047
  -6391586.51548  -4980458.55648  21702705.01348  21702704.48548  21702704.46848
   1059260.78346    825411.76046  24156871.95148  24156873.39046  24156872.16846
  -3700010.75246  -2883120.09846  24228508.82848  24228508.35346  24228507.33546
 -17284939.58548 -13468784.27248  19317265.30649  19317265.65448  19317266.10748
 08 10 24 19 34 10.0000000  0  7 03 06 14 19 22 23 31
 -16185202.06148 -12611860.11148  20474011.21149  20474011.20048  20474013.34848
 -13815808.73848 -10765565.36848  19763415.65949  19763415.72948  19763417.57348
   4308984.38246   3357648.85847  22962793.02648  22962792.45446  22962794.47947
  -6192678.70748  -4825465.46648  21740555.99248  21740555.24448  21740555.46748
   1248849.66846    973143.23746  24192949.83948  24192949.09546  24192947.98946
  -3822349.44846  -2978448.03346  24205228.30748  24205227.46646  24205226.81746
 -17394993.23848 -13554540.36548  19296322.85849  19296323.25548  19296323.57848
 08 10 24 19 34 20.0000000  0  7 03 06 14 19 22 23 31
 -16176151.39148 -12604807.64448  20475733.57749  20475733.57448  20475735.77148
 -13875476.17948 -10812059.47248  19752061.34549  19752061.48248  19752063.30848
   4644059.77946   3618746.56247  23026555.65248  23026556.61246  23026557.07047
  -5991990.91348  -4669085.37848  21778745.75248  21778744.88448  21778745.03748
   1438960.34246   1121280.46746  24229126.16048  24229127.14446  24229125.64846
  -3942307.16146  -3071921.46546  24182400.89748  24182401.75246  24182399.74946
 -17499723.80748 -13636148.60048  19276393.26949  19276393.55948  19276393.99448
 08 10 24 19 34 30.0000000  0  7 03 06 14 19 22 23 31
 -16164381.18548 -12595636.05648  20477973.26549  20477973.16848  20477975.45948
 -13932199.70848 -10856259.62348  19741267.29749  19741267.28148  19741269.25748
   4980725.05746   3881083.13947  23090621.16148  23090621.28946  23090622.57247
  -5789544.13448  -4511334.65548  21817270.17748  21817269.29048  21817269.33948
   1629569.61746   1269807.21746  24265398.12148  24265397.73546  24265398.69846
  -4059858.09446  -3163519.60046  24160031.48948  24160031.77246  24160028.32146
 -17599106.12048 -13713589.36448  19257481.48449  19257481.75748  19257482.24448
 08 10 24 19 34 40.0000000  0  8 03 06 14 19 21 22 23 31
 -16149891.16248 -12584345.13148  20480730.56949  20480730.65648  20480732.88048
 -13985969.47448 -10898158.13848  19731035.21849  19731035.15148  19731037.21748
   5318927.73046   4144617.66947  23154979.06548  23154978.66246  23154980.35447
  -5585360.05848  -4352230.19248  21856125.09648  21856124.13848  21856124.20548
   -142275.79856   -110860.95556  22180406.12958  22180404.39456  22180406.27756
   1820653.95046   1418704.05046  24301760.31748  24301759.02546  24301760.19846
  -4174977.21546  -3253222.73946  24138125.50848  24138125.40946  24138126.44746
 -17693116.80648 -13786844.44548  19239591.77449  19239592.09848  19239592.52248
 08 10 24 19 34 50.0000000  0  8 03 06 14 19 21 22 23 31
 -16132680.49248 -12570934.22248  20484005.78549  20484005.72848  20484007.90248
 -14036775.13748 -10937746.95948  19721367.23249  19721367.18248  19721369.26648
   5658616.57546   4409310.27346  23219619.29348  23219619.70546  23219620.47146
  -5379459.47948  -4191788.19448  21895306.66548  21895305.86748  21895305.91648
   -378441.96346   -294829.95646  22135462.36948  22135460.02446  22135459.62146
   2012190.62946   1567954.41946  24338208.57648  24338209.22746  24338208.86146
  -4287639.07646  -3341011.25546  24116686.00848  24116685.14546  24116685.85746
 -17781733.07048 -13855896.07848  19222728.67749  19222729.01248  19222729.54348
 08 10 24 19 35 00.0000000  0  8 03 06 14 16 19 22 23 31
 -16112749.71748 -12555403.74448  20487798.38249  20487798.29448  20487800.67448
 -14084607.95248 -10975019.27448  19712264.95349  19712265.01948  19712266.90948
   5999739.40246   4675120.27646  23284532.95448  23284533.66146  23284534.05246
   -178788.61356   -139315.83556  22111913.27658  22111913.32256  22111913.04556
  -5171864.35548  -4030025.77348  21934810.80548  21934809.95448  21934810.00548
   2204156.19946   1717537.99046  24374738.31948  24374736.85046  24374738.87746
  -4397819.86046  -3426866.37846  24095719.81848  24095719.22146  24095718.82446
 -17864934.54348 -13920728.39448  19206896.02949  19206896.40248  19206896.75348
 08 10 24 19 35 10.0000000  0  8 03 06 14 16 19 22 23 31
 -16090361.78048 -12537958.59548  20492058.63949  20492058.65948  20492060.89748
 -14129721.46748 -11010172.65648  19703680.00249  19703680.25348  19703682.10648
   6341982.32346   4941803.05946  23349659.87048  23349659.81746  23349660.91146
   -475783.96146   -370740.77146  22055396.39948  22055397.12546  22055397.57546
  -4962858.75448  -3867164.27948  21974583.28048  21974582.35648  21974582.42448
   2396265.26146   1867233.32646  24411295.53748  24411296.07146  24411295.47646
  -4505757.76646  -3510973.85046  24075179.25448  24075180.70846  24075178.50846
 -17942964.30648 -13981530.80948  19192047.46749  19192047.89948  19192048.14348
 08 10 24 19 35 20.0000000  0  8 03 06 14 16 19 22 23 31
 -16066224.75348 -12519150.52548  20496651.78649  20496651.76948  20496654.12448
 -14172814.51648 -11043751.65848  19695479.70749  19695479.84448  19695481.79048
   6684587.11246   5208767.83046  23414855.37448  23414855.56746  23414856.32346
   -772154.38946   -601678.72746  21998999.00448  21998999.19246  21999000.44746
  -4753171.38048  -3703771.53148  22014485.26348  22014484.56848  22014484.61148
   2587787.84046   2016471.72546  24447741.00048  24447741.82346  24447741.44246
  -4612136.30546  -3593866.25046  24054936.17348  24054936.17946  24054935.15446
 -18016511.54448 -14038840.35148  19178051.78549  19178052.24148  19178052.58848
 08 10 24 19 35 30.0000000  0  8 03 06 14 16 19 22 23 31
 -16039472.36148 -12498304.49848  20501742.65849  20501742.60148  20501744.88648
 -14213011.45948 -11075073.94548  19687830.51449  19687830.56548  19687832.51648
   7028370.62346   5476651.08246  23480275.20948  23480275.55146  23480276.15346
  -1066991.60546   -831422.04346  21942893.68348  21942892.82246  21942894.35046
  -4541956.09748  -3539188.20548  22054678.36148  22054677.60448  22054677.73748
   2779568.94446   2165915.08246  24484235.35348  24484237.27646  24484235.25346
  -4716064.56446  -3674849.28546  24035159.74048  24035158.51946  24035157.77246
 -18084692.12648 -14091968.07149  19165077.49949  19165077.86348  19165078.29949
 08 10 24 19 35 40.0000000  0  8 03 06 14 16 19 22 23 31
 -16010032.54448 -12475364.38148  20507344.86349  20507344.76248  20507347.19148
 -14250231.16048 -11104076.30648  19680747.88049  19680747.89748  19680749.81448
   7373355.92546   5745470.76646  23545923.64548  23545923.65046  23545924.95146
  -1360181.49146  -1059881.68146  21887101.49348  21887101.58546  21887101.97046
  -4329161.14348  -3373373.97248  22095171.78148  22095171.27548  22095171.10248
   2971659.43946   2315597.42346  24520789.55448  24520793.04646  24520790.79646
  -4817446.06946  -3753847.84646  24015867.31748  24015867.11246  24015866.26946
 -18147417.39648 -14140844.90949  19153141.23449  19153141.55448  19153142.07149
 08 10 24 19 35 50.0000000  0  8 03 06 14 16 19 22 23 31
 -15977829.52548 -12450271.12048  20513472.92849  20513472.88348  20513475.05748
 -14284388.80548 -11130692.65548  19674247.90449  19674247.89848  19674249.84848
   7719570.53746   6015248.40046  23611806.03748  23611805.37546  23611807.48046
  -1651605.39746  -1286965.20646  21831645.51848  21831644.59246  21831646.11646
  -4114730.52148  -3206285.19348  22135976.65348  22135975.88848  22135975.94248
   3164114.66446   2465562.49246  24557412.61548  24557414.43346  24557411.36946
  -4916180.63846  -3830783.83146  23997078.54848  23997077.82746  23997076.80346
 -18204595.88348 -14185399.57349  19142260.57649  19142260.85648  19142261.33349
 08 10 24 19 36 00.0000000  0  9 03 06 14 16 19 21 22 23 31
 -15942895.74048 -12423049.98848  20520120.55149  20520120.42048  20520122.73248
 -14315507.65748 -11154941.11048  19668326.05149  19668326.14648  19668328.16748
   8066934.59246   6285921.66846  23677907.38448  23677907.48446  23677908.04346
  -1941252.24746  -1512664.07746  21776527.40148  21776527.30146  21776528.24346
  -3898715.91248  -3037962.13548  22177082.85148  22177082.28148  22177082.23248
   -136938.70356   -106705.77356  21826286.60258  21826285.55156  21826286.08756
   3356882.56046   2615771.07346  24594095.03448  24594097.14746  24594094.62146
  -5012276.06146  -3905663.35946  23978792.80148  23978793.70046  23978791.02546
 -18256245.38348 -14225645.93849  19132432.01249  19132432.34148  19132432.80149
 08 10 24 19 36 10.0000000  0  9 03 06 14 16 19 21 22 23 31
 -15905230.55048 -12393700.49048  20527288.10849  20527288.00348  20527290.26648
 -14343578.20948 -11176814.26248  19662984.44149  19662984.49248  19662986.52948
   8415401.82446   6557454.55446  23744218.49148  23744218.47546  23744219.56546
  -2229077.60846  -1736943.54246  21721755.87548  21721756.06846  21721757.21246
  -3681135.72648  -2868419.15248  22218487.05348  22218486.06348  22218486.19948
   -364057.93446   -283681.82946  21783066.95748  21783066.67846  21783067.31346
   3549944.23446   2766206.02146  24630834.04948  24630834.63246  24630831.98346
  -5105707.47546  -3978467.04846  23961013.26248  23961013.25346  23961012.24846
 -18302351.95948 -14261573.14249  19123658.26549  19123658.51648  19123658.99649
 08 10 24 19 36 20.0000000  0  9 03 06 14 16 19 21 22 23 31
 -15864837.48448 -12362225.37748  20534974.63349  20534974.50848  20534976.75348
 -14368595.18448 -11196308.02148  19658223.87049  19658224.02248  19658225.90348
   8764922.38746   6829808.20846  23810730.04548  23810729.69046  23810730.72146
  -2515040.72746  -1959771.94246  21667339.09848  21667339.62546  21667339.87846
  -3462012.20248  -2697673.56248  22260184.88448  22260184.30548  22260184.31348
   -589769.63046   -459561.07246  21740115.32648  21740115.23046  21740114.72546
   3743277.19346   2916854.97746  24667623.51948  24667624.33846  24667622.79146
  -5196454.09646  -4049178.72046  23943744.38248  23943744.06946  23943743.64546
 -18342906.85148 -14293174.36049  19115940.93649  19115941.20148  19115941.62149
 08 10 24 19 36 30.0000000  0  9 03 06 14 16 19 21 22 23 31
 -15821717.92348 -12328625.72148  20543180.13149  20543179.96248  20543182.10548
 -14390551.08448 -11213416.52148  19654045.91949  19654045.88948  19654047.92748
   9115449.58046   7102946.25546  23877433.28348  23877432.77446  23877434.81346
  -2799097.96846  -2181115.23946  21613284.73348  21613284.37946  21613284.97846
  -3241364.93348  -2525740.64148  22302172.54648  22302171.87248  22302171.95148
   -814050.21246   -634325.17446  21697436.46348  21697435.63946  21697436.53146
   3936861.80846   3067698.16746  24704461.96347  24704461.71646  24704461.61946
  -5284493.22146  -4117780.60446  23926991.47248  23926991.01746  23926990.11346
 -18377900.19348 -14320441.90349  19109281.87849  19109282.16948  19109282.67049
 08 10 24 19 36 40.0000000  0  9 03 06 14 16 19 21 22 23 31
 -15775875.66248 -12292904.48348  20551903.55849  20551903.38048  20551905.62548
 -14409441.11748 -11228136.03048  19650451.25549  19650451.26648  19650453.23948
   9466934.66346   7376829.69346  23944318.85048  23944318.16246  23944320.56146
  -3081207.93046  -2400941.18146  21559601.09248  21559600.88346  21559601.69146
  -3019215.74848  -2352637.39648  22344446.20448  22344445.62248  22344445.59148
  -1036878.45546   -807957.50946  21655032.85548  21655033.41346  21655034.42546
   4130676.32846   3218723.14246  24741344.43447  24741345.95546  24741343.49346
  -5369804.50946  -4184256.92946  23910757.22848  23910757.70246  23910756.69646
 -18407325.86848 -14343371.00749  19103682.32249  19103682.65948  19103683.14849
 08 10 24 19 36 50.0000000  0  9 03 06 14 16 19 21 22 23 31
 -15727315.56048 -12255065.44348  20561144.22949  20561144.07748  20561146.34048
 -14425261.56148 -11240463.65448  19647440.79049  19647440.70148  19647442.84548
   9819328.74046   7651421.99646  24011376.67148  24011376.50046  24011377.89246
  -3361329.75046  -2619217.90546  21506295.62648  21506295.25246  21506296.12646
  -2795587.12148  -2178381.33848  22387001.47448  22387000.63948  22387000.66348
  -1258233.70046   -980442.14746  21612910.92448  21612909.55846  21612910.87646
   4324698.41946   3369907.10246  24778264.76047  24778267.21846  24778263.98046
  -5452368.85446  -4248592.81346  23895045.54048  23895045.16746  23895043.36046
 -18431179.93548 -14361958.59349  19099143.02249  19099143.34448  19099143.90849
 08 10 24 19 37 00.0000000  0  9 03 06 14 16 19 21 22 23 31
 -15676041.40348 -12215111.55748  20570901.27549  20570901.19648  20570903.44348
 -14438007.71348 -11250395.72848  19645015.18849  19645015.21448  19645017.30848
  10172584.61446   7926685.84246  24078599.46648  24078599.75746  24078600.35446
  -3639420.89347  -2835912.31346  21453376.64148  21453376.02647  21453377.50146
  -2570500.10448  -2002988.87448  22429833.72148  22429833.48948  22429833.29048
  -1478093.82646  -1151761.70746  21571072.64148  21571073.49546  21571072.23846
   4518907.71346   3521238.63346  24815220.87447  24815222.77846  24815221.61546
  -5532166.14846  -4310772.50546  23879860.85348  23879860.24846  23879858.77446
 -18449458.50448 -14376201.63849  19095664.69149  19095665.12348  19095665.63649
 08 10 24 19 37 10.0000000  0  9 03 06 14 16 19 21 22 23 31
 -15622059.50248 -12173047.74148  20581173.71249  20581173.66348  20581175.93148
 -14447677.33348 -11257930.49348  19643175.18849  19643175.14848  19643177.27448
  10526653.40946   8202583.53346  24145976.77948  24145977.89546  24145977.17746
  -3915440.82247  -3050992.77146  21400851.84048  21400851.61747  21400852.81146
  -2343977.82348  -1826478.01848  22472939.72748  22472938.86748  22472939.12048
  -1696438.67446  -1321900.55346  21529523.32648  21529522.61546  21529523.24246
   4713281.53146   3672699.45546  24852208.70447  24852208.33446  24852208.67246
  -5609178.75646  -4370782.29246  23865206.00248  23865206.07246  23865203.56146
 -18462161.26348 -14386099.89649  19093247.44549  19093247.82248  19093248.34949
 08 10 24 19 37 20.0000000  0  9 03 06 14 16 19 21 22 23 31
 -15565375.12248 -12128878.09548  20591960.37349  20591960.35248  20591962.50548
 -14454267.27848 -11263065.51548  19641921.09449  19641921.08548  19641923.11548
  10881487.92346   8479078.46146  24213499.00948  24213499.42646  24213500.10046
  -4189347.67947  -3264426.67047  21348729.19748  21348728.79347  21348729.86847
  -2116042.00147  -1648865.70348  22516314.51648  22516313.77547  22516313.82648
  -1913246.64646  -1490841.81746  21488266.06248  21488266.06946  21488266.10146
   4907798.90446   3824275.22146  24889224.71447  24889222.08346  24889226.07146
  -5683388.20646  -4428607.82746  23851083.96348  23851083.63946  23851083.13246
 -18469288.07648 -14391653.26049  19091891.27049  19091891.63648  19091892.16449
 08 10 24 19 37 30.0000000  0  9 03 06 14 16 19 21 22 23 31
 -15505993.03948 -12082606.34848  20603260.48149  20603260.35448  20603262.73448
 -14457774.38248 -11265798.31348  19641253.65549  19641253.68648  19641255.79948
  11237041.88546   8756133.04246  24281158.78847  24281159.74146  24281159.82246
  -4461098.80347  -3476180.78847  21297016.46348  21297016.33147  21297017.18547
  -1886713.72547  -1470168.36448  22559954.30748  22559953.55547  22559953.65748
  -2128495.69246  -1658568.35146  21447305.49648  21447305.21446  21447305.84646
   5102439.61346   3975945.41446  24926263.85247  24926261.92846  24926265.04146
  -5754775.95746  -4484234.64746  23837499.05848  23837499.33846  23837498.31846
 -18470839.61548 -14392862.25749  19091596.04749  19091596.42248  19091596.88749
 08 10 24 19 37 40.0000000  0  9 03 06 14 16 19 21 22 23 31
 -15443920.31848 -12034237.99648  20615072.51049  20615072.43248  20615074.84448
 -14458197.57748 -11266128.06748  19641173.08449  19641173.16048  19641175.25948
  11593267.72546   9033716.38846  24348943.31847  24348944.50046  24348941.36346
  -4730653.15447  -3686223.12647  21245722.15548  21245721.71347  21245722.63747
  -1656015.75647  -1290403.72048  22603854.31148  22603853.83347  22603853.97748
  -2342165.45246  -1825064.25346  21406645.55448  21406645.16846  21406645.67446
   5297181.89946   4127693.48946  24963321.03747  24963321.81346  24963318.65146
  -5823325.60146  -4537649.92546  23824454.72648  23824455.40946  23824453.99046
 -18466819.92348 -14389730.03649  19092360.96449  19092361.29648  19092361.77449
 08 10 24 19 37 50.0000000  0  9 03 06 14 16 19 21 22 23 31
 -15379163.70348 -11983778.29948  20627395.18149  20627395.21848  20627397.54548
 -14455535.61948 -11264053.81848  19641679.59749  19641679.63948  19641681.73548
  11950118.79646   9311738.87546  24416853.59647  24416852.53346  24416854.77346
  -4997969.20247  -3894521.33347  21194853.45248  21194853.17747  21194854.08747
  -1423970.29047  -1109589.08348  22648011.30948  22648010.69147  22648010.74448
  -2554234.96146  -1990313.21446  21366290.05548  21366289.44346  21366290.07246
   5492004.94446   4279502.48846  25000395.36547  25000399.13346  25000395.10946
  -5889020.59446  -4588840.83246  23811953.54948  23811953.43646  23811951.87446
 -18457234.05748 -14382260.53749  19094185.13149  19094185.41648  19094185.93749
 08 10 24 19 38 00.0000000  0  9 03 06 14 16 19 21 22 23 31
 -15311731.41748 -11931233.65948  20640227.33049  20640227.09848  20640229.54648
 -14449788.86548 -11259575.82548  19642773.28049  19642773.26748  19642775.34648
  12307547.63846   9590255.28946  24484868.74447  24484871.70546  24484870.79946
  -5263006.42647  -4101043.83147  21144418.66148  21144418.25847  21144419.21147
  -1190600.69947   -927742.66648  22692420.04548  22692419.41747  22692419.47048
  -2764684.35846  -2154299.76846  21326242.77548  21326242.71246  21326242.98346
   5686886.49546   4431362.38846  25037479.75247  25037480.31646  25037482.28146
  -5951846.30946  -4637795.91546  23799998.14048  23799998.07846  23799996.31646
 -18442089.55948 -14370459.63349  19097067.04949  19097067.31748  19097067.87249
 08 10 24 19 38 10.0000000  0  9 03 06 14 16 19 21 22 23 31
 -15241632.42548 -11876611.07148  20653566.63449  20653566.56948  20653568.99348
 -14440958.60148 -11252695.09448  19644453.58649  19644453.59248  19644455.59548
  12665506.78846   9869189.01646  24552985.32547  24552985.93446  24552984.12846
  -5525724.69647  -4305759.35347  21094425.11148  21094424.61047  21094425.60447
   -955930.68247   -744882.93248  22737076.42048  22737075.64347  22737075.69548
  -2973494.25946  -2317008.76446  21286507.33448  21286507.60946  21286507.81546
   5881804.12746   4583259.44046  25074573.80047  25074571.86546  25074572.09946
  -6011788.61946  -4684504.22646  23788591.53148  23788591.00046  23788589.72446
 -18421395.90648 -14354334.71449  19101004.89249  19101005.23248  19101005.74849
 08 10 24 19 38 20.0000000  0  9 03 06 14 16 19 21 22 23 31
 -15168876.02548 -11819917.77848  20667411.66249  20667411.61948  20667413.99948
 -14429046.38248 -11243412.84548  19646720.43949  19646720.45448  19646722.56748
  13023949.14046  10148496.48346  24621194.53747  24621193.09246  24621194.37446
  -5786083.74147  -4508636.51647  21044880.24148  21044880.38747  21044880.91847
   -719983.76247   -561028.20848  22781975.50248  22781974.59547  22781975.00848
  -3180645.10547  -2478424.99646  21247088.15348  21247087.92447  21247088.87246
   6076735.91246   4735197.60946  25111664.01447  25111659.50546  25111667.59546
  -6068834.13146  -4728955.26046  23777735.76948  23777737.00846  23777734.90246
 -18395163.92948 -14333894.21849  19105996.58449  19105996.99948  19105997.59949
 08 10 24 19 38 30.0000000  0  7 03 06 16 19 21 23 31
 -15093471.02048 -11761160.63948  20681760.77149  20681760.75148  20681763.04448
 -14414053.79248 -11231730.31448  19649573.44949  19649573.41448  19649575.44548
  -6044042.65747  -4709643.45047  20995792.30848  20995792.27247  20995792.88547
   -482782.83447   -376196.32948  22827113.31348  22827112.84847  22827112.97048
  -3386116.76446  -2638532.78146  21207988.09848  21207987.30846  21207987.69846
  -6122969.27446  -4771138.48346  23767434.58548  23767434.63746  23767432.51746
 -18363405.46248 -14309147.36649  19112040.11649  19112040.46348  19112041.05549
 08 10 24 19 38 40.0000000  0  7 03 06 16 19 21 23 31
 -15015425.09948 -11700345.64948  20696612.39849  20696612.46948  20696614.72048
 -14395981.04248 -11217647.65448  19653012.60449  19653012.60548  19653014.59948
  -6299558.98647  -4908747.07847  20947169.17948  20947168.92247  20947169.79547
   -244349.14947   -190403.86248  22872485.70248  22872485.24247  22872485.66248
  -3589887.55747  -2797315.21646  21169211.81648  21169211.40947  21169212.14746
  -6174179.44946  -4811042.51646  23757689.34148  23757688.58146  23757687.73346
 -18326132.29748 -14280103.34649  19119132.94949  19119133.31648  19119133.86949
 08 10 24 19 38 50.0000000  0  7 03 06 16 19 21 23 31
 -14934749.77948 -11637481.77148  20711964.48049  20711964.37948  20711966.79248
 -14374832.26748 -11201168.09148  19657037.14849  19657037.09748  19657039.13448
  -6552593.63447  -5105916.92347  20899018.43448  20899018.22647  20899018.88047
     -4707.44147     -3670.07948  22918088.28148  22918087.31147  22918087.90148
  -3791939.16647  -2954758.01346  21130762.70248  21130762.12347  21130762.97946
  -6222453.99246  -4848659.02546  23748503.05948  23748502.34646  23748500.87746
 -18283360.96348 -14246775.03749  19127271.99549  19127272.44348  19127272.97449
 08 10 24 19 39 00.0000000  0  8 03 06 14 16 19 21 23 31
 -14851455.01748 -11572576.77248  20727814.93249  20727814.82648  20727817.11348
 -14350610.44548 -11182293.94948  19661646.35349  19661646.45848  19661648.32748
    179995.15156    140265.43956  24894777.50057  24894776.21956  24894782.02956
  -6803105.79547  -5301121.19147  20851347.21348  20851347.14047  20851347.91147
    236119.55147    183987.29648  22963915.95848  22963915.05247  22963915.75248
  -3992251.48647  -3110845.52846  21092644.59948  21092643.98647  21092644.92446
  -6267780.90646  -4883978.71846  23739877.66148  23739877.33346  23739876.86546
 -18235107.65048 -14209175.05549  19136454.32449  19136454.68748  19136455.33149
 08 10 24 19 39 10.0000000  0  8 03 06 14 16 19 21 23 31
 -14765550.81348 -11505638.44148  20744162.04649  20744161.88048  20744164.27448
 -14323318.63648 -11161027.61348  19666839.83549  19666839.81248  19666841.84048
    540171.76346    420928.91746  24963316.02647  24963319.39046  24963315.17546
  -7051054.40347  -5494327.88647  20804164.24748  20804164.18747  20804164.93147
    478109.28547    372550.70148  23009965.13248  23009964.63247  23009965.10848
  -4190804.26447  -3265561.97546  21054861.32548  21054860.99347  21054861.42846
  -6310148.62046  -4916992.52946  23731815.58048  23731814.79346  23731813.81746
 -18181389.96448 -14167317.12049  19146676.52849  19146676.83948  19146677.40349
 08 10 24 19 39 20.0000000  0  7 03 06 16 19 21 23 31
 -14677048.20148 -11436675.37148  20761003.48349  20761003.49848  20761005.71348
 -14292960.97448 -11137372.28748  19672616.68549  19672616.67648  19672618.66248
  -7296399.10847  -5685505.57347  20757476.75648  20757476.36047  20757477.38247
    721238.61947    562002.11848  23056231.22548  23056230.60147  23056230.84648
  -4387577.85647  -3418892.04346  21017416.56148  21017415.75347  21017416.53246
  -6349546.67146  -4947692.26846  23724318.08148  23724316.65046  23724316.44646
 -18122227.27948 -14121216.33149  19157934.78449  19157935.19648  19157935.67849
 08 10 24 19 39 30.0000000  0  7 03 06 16 19 21 23 31
 -14585957.36648 -11365695.50848  20778337.42949  20778337.43048  20778339.67948
 -14259541.18648 -11111330.89548  19678976.26449  19678976.25648  19678978.25548
  -7539098.60447  -5874622.05147  20711292.68248  20711292.29647  20711293.06847
    965485.54447    752324.37348  23102709.83348  23102709.03747  23102709.45248
  -4582551.68447  -3570819.69046  20980314.10848  20980313.88147  20980313.94146
  -6385964.11046  -4976069.49246  23717387.72148  23717387.90246  23717387.82646
 -18057639.62148 -14070888.28849  19170225.33749  19170225.73748  19170226.37149
 08 10 24 19 39 40.0000000  0  7 03 06 16 19 21 23 31
 -14492287.38848 -11292705.91148  20796162.32649  20796162.23148  20796164.55948
 -14223061.79648 -11082905.39748  19685918.00549  19685918.05748  19685920.07448
  -7779110.23148  -6061644.08247  20665619.89148  20665619.55448  20665620.52447
   1210829.45847    943501.43848  23149397.26548  23149397.03147  23149397.13248
  -4775703.93747  -3721327.92846  20943558.47148  20943557.94047  20943558.60746
  -6419389.18646  -5002114.98346  23711027.79848  23711027.15846  23711026.72146
 -17987646.88948 -14016348.49749  19183544.59249  19183544.92848  19183545.52949
 08 10 24 19 39 50.0000000  0  7 03 06 16 19 21 23 31
 -14396049.92248 -11217715.68448  20814475.78849  20814475.54848  20814477.81748
 -14183528.01948 -11052099.86548  19693440.96849  19693441.07848  19693443.10148
  -8016393.66048  -6246540.24647  20620466.34448  20620466.16848  20620467.04347
   1457247.70647   1135515.64247  23196288.98448  23196287.86547  23196288.88247
  -4967014.58147  -3870401.16047  20907153.16148  20907152.72447  20907153.18447
  -6449812.93546  -5025821.82646  23705238.09848  23705236.85046  23705237.32146
 -17912272.59648 -13957615.28349  19197887.82349  19197888.06548  19197888.80149
 08 10 24 19 40 00.0000000  0  7 03 06 16 19 21 23 31
 -14297257.19148 -11140734.33248  20833275.27449  20833275.18048  20833277.44948
 -14140945.93348 -11018919.01448  19701544.12249  19701544.14048  19701546.26748
  -8250908.85448  -6429279.34747  20575839.67848  20575839.58448  20575840.27047
   1704717.36747   1328349.12647  23243380.66648  23243380.43547  23243380.65847
  -5156464.22847  -4018024.24247  20871101.94948  20871101.72647  20871102.08847
  -6477227.23146  -5047183.59246  23700021.67848  23700021.46946  23700020.46446
 -17831541.93448 -13894708.27149  19213250.37349  19213250.65248  19213251.28749
 08 10 24 19 40 10.0000000  0  7 03 06 16 19 21 23 31
 -14195922.11448 -11061771.93048  20852558.59849  20852558.63748  20852560.88248
 -14095322.29348 -10983368.12148  19710226.06549  19710226.11548  19710228.14748
  -8482616.38448  -6609830.65948  20531747.12848  20531747.15648  20531747.74148
   1953215.09347   1521983.70647  23290668.21848  23290667.71747  23290668.50047
  -5344033.92647  -4164182.43747  20835408.77948  20835408.35047  20835408.63947
  -6501624.87346  -5066194.74446  23695378.41248  23695378.24246  23695377.04846
 -17745481.94248 -13827648.53349  19229627.09649  19229627.36748  19229627.99249
 08 10 24 19 40 20.0000000  0  7 03 06 16 19 21 23 31
 -14092060.16748 -10980840.53848  20872322.97849  20872322.66348  20872325.19348
 -14046666.74048 -10945454.69648  19719484.85049  19719484.85948  19719486.97148
  -8711478.95248  -6788165.11248  20488195.92448  20488195.78948  20488196.73148
   2202715.61847   1716399.68247  23338146.83048  23338146.18847  23338146.80647
  -5529706.93147  -4308862.68747  20800076.26548  20800075.87947  20800076.33747
  -6523001.38046  -5082851.76046  23691310.78148  23691310.38046  23691309.79346
 -17654122.88348 -13756459.65249  19247012.14649  19247012.47848  19247013.00849
 08 10 24 19 40 30.0000000  0  7 03 06 16 19 21 23 31
 -13985684.15448 -10897950.13448  20892565.51449  20892565.47148  20892567.83548
 -13994986.10148 -10905184.06248  19729319.38949  19729319.41348  19729321.44148
  -8937456.65548  -6964251.61848  20445193.91548  20445193.66848  20445194.47348
   2453196.57946   1911579.63147  23385811.99148  23385811.42146  23385811.82747
  -5713463.60847  -4452049.68547  20765108.60548  20765108.37647  20765108.79347
  -6541349.93246  -5097149.33246  23687818.99448  23687818.95346  23687818.08646
 -17557493.58948 -13681164.09549  19265400.11649  19265400.46448  19265400.93549
 08 10 24 19 40 40.0000000  0  7 03 06 16 19 21 23 31
 -13876808.44548 -10813111.91848  20913283.97449  20913283.84248  20913286.18248
 -13940289.15448 -10862563.05748  19739727.90149  19739727.99248  19739730.02148
  -9160511.05548  -7138060.21848  20402748.02048  20402747.77148  20402748.62648
   2704634.37846   2107505.18547  23433658.99948  23433658.26746  23433658.96447
  -5895285.79947  -4593729.30647  20730509.05548  20730508.74247  20730509.18847
  -6556665.77846  -5109083.73246  23684904.53948  23684903.93746  23684903.29746
 -17455625.50948 -13601786.36849  19284784.89349  19284785.28748  19284785.78149
 08 10 24 19 40 50.0000000  0  7 03 06 16 19 21 23 31
 -13765445.97748 -10726335.96848  20934475.52349  20934475.35248  20934477.76648
 -13882583.61948 -10817597.70148  19750708.74049  19750708.95048  19750710.96248
  -9380602.39648  -7309559.94948  20360866.02548  20360865.82448  20360866.67948
   2957006.95546   2304159.12247  23481683.80948  23481683.42346  23481683.80147
  -6075153.82247  -4733886.19447  20696281.25748  20696281.09647  20696281.46047
  -6568943.07746  -5118650.43646  23682567.95648  23682568.42146  23682567.41246
 -17348549.84948 -13518350.78949  19305160.79849  19305161.12748  19305161.50349
 08 10 24 19 41 00.0000000  0  7 03 06 16 19 21 23 31
 -13651611.18748 -10637633.53948  20956137.61949  20956137.57448  20956139.90048
 -13821878.44048 -10770294.96848  19762260.69649  19762260.69548  19762262.78848
  -9597691.86748  -7478720.55948  20319555.15848  20319555.02048  20319555.90548
   3210291.35146   2501523.57847  23529881.98148  23529881.86346  23529882.34147
  -6253048.94447  -4872505.76547  20662428.84748  20662428.39247  20662429.00147
  -6578177.56546  -5125846.13646  23680810.90148  23680811.35746  23680810.24146
 -17236299.99848 -13430883.37249  19326521.17749  19326521.52748  19326522.00249
 08 10 24 19 41 10.0000000  0  7 03 06 16 19 21 23 31
 -13535316.03048 -10547013.92748  20978267.97649  20978267.81248  20978270.00648
 -13758180.40448 -10720660.13548  19774382.01349  19774382.05548  19774384.07348
  -9811738.32448  -7645509.99048  20278823.39048  20278823.26248  20278823.96248
   3464467.47346   2699582.87247  23578250.14348  23578249.42546  23578250.23247
  -6428949.94047  -5009571.46847  20628956.03348  20628955.64247  20628956.56747
  -6584362.90846  -5130665.85646  23679633.79648  23679634.20546  23679632.70646
 -17118907.89548 -13339409.00449  19348860.02549  19348860.54548  19348860.92449
 08 10 24 19 41 20.0000000  0  7 03 06 16 19 21 23 31
 -13416572.64448 -10454486.59548  21000864.05049  21000863.87548  21000866.16748
 -13691496.71348 -10668698.81248  19787071.55949  19787071.56048  19787073.57648
 -10022700.89348  -7809896.38948  20238678.80148  20238678.58248  20238679.31048
   3719515.35846   2898321.49247  23626784.50048  23626783.91346  23626784.38447
  -6602835.60048  -5145066.77547  20595866.76548  20595866.50648  20595867.07147
  -6587493.30446  -5133105.11346  23679038.10248  23679038.52646  23679037.35846
 -16996406.53648 -13243953.39349  19372171.33249  19372171.71648  19372172.16349
 08 10 24 19 41 30.0000000  0  7 03 06 16 19 21 23 31
 -13295393.78248 -10360061.50548  21023923.67749  21023923.52448  21023925.59248
 -13621835.23348 -10614417.13348  19800327.61649  19800327.68848  19800329.74348
 -10230539.14948  -7971848.26248  20199128.27748  20199128.15648  20199128.79448
   3975414.73846   3097723.60647  23675480.43448  23675479.37346  23675480.53447
  -6774685.07148  -5278975.45147  20563164.74548  20563164.61448  20563164.96747
  -6587563.91446  -5133160.10646  23679024.74748  23679024.54746  23679023.47146
 -16868830.32348 -13144543.35049  19396448.23249  19396448.57848  19396449.18149
 08 10 24 19 41 40.0000000  0  7 03 06 16 19 21 23 31
 -13171792.11148 -10263748.51248  21047444.30049  21047444.16848  21047446.31048
 -13549204.00748 -10557821.36448  19814148.83549  19814148.94248  19814151.05648
 -10435212.56148  -8131334.01648  20160180.31448  20160180.04348  20160180.97448
   4232145.67846   3297773.65347  23724334.62248  23724334.42446  23724334.27847
  -6944477.31148  -5411281.08647  20530854.31948  20530854.18448  20530854.53547
  -6584570.16446  -5130827.29246  23679594.10948  23679594.24746  23679593.26546
 -16736214.87748 -13041206.63449  19421684.15849  19421684.50448  19421685.04249
 08 10 24 19 41 50.0000000  0  7 03 06 16 19 21 23 31
 -13045780.94348 -10165557.99148  21071423.33949  21071423.25848  21071425.45548
 -13473611.86548 -10498918.38848  19828533.58749  19828533.54848  19828535.67348
 -10636681.43348  -8288322.73348  20121841.99448  20121841.82048  20121842.59248
   4489687.85646   3498455.85847  23773343.34548  23773342.24246  23773343.33447
  -7112191.91348  -5541967.77547  20498939.30548  20498939.20448  20498939.64247
  -6578508.50346  -5126103.87546  23680747.97448  23680747.99946  23680747.27246
 -16598597.12748 -12933972.01949  19447872.00949  19447872.28648  19447872.85749
 08 10 24 19 42 00.0000000  0  7 03 06 16 19 21 23 31
 -12917371.13548 -10065498.39748  21095859.01349  21095858.80048  21095860.92448
 -13395065.30748 -10437713.27248  19843480.42449  19843480.60048  19843482.60848
 -10834903.46748  -8442781.44048  20084121.71248  20084121.44248  20084122.16448
   4748023.97746   3699756.73747  23822503.26048  23822502.32646  23822503.08347
  -7277805.60248  -5671017.38947  20467424.27448  20467423.91048  20467424.30047
  -6569373.13746  -5118985.39546  23682486.16548  23682486.42946  23682485.42146
 -16456012.16248 -12822866.84849  19475004.89249  19475005.36048  19475005.87649
 08 10 24 19 42 10.0000000  0  7 03 06 16 19 21 23 31
 -12786575.89348  -9963580.01248  21120748.46249  21120748.34248  21120750.51248
 -13313573.37148 -10374213.04448  19858987.83749  19858987.88348  19858989.89748
 -11029838.82948  -8594679.10948  20047026.64148  20047026.40548  20047027.04448
   5007134.78246   3901661.22047  23871810.18248  23871809.79846  23871810.21047
  -7441297.48048  -5798413.64747  20436312.79548  20436312.61048  20436312.81947
  -6557161.06746  -5109469.45046  23684810.78248  23684810.68546  23684808.45346
 -16308498.46348 -12707921.10949  19503075.88249  19503076.29248  19503076.83849
 08 10 24 19 42 20.0000000  0  7 03 06 16 19 21 23 31
 -12653408.99848  -9859813.59548  21146089.15048  21146089.06348  21146091.16648
 -13229145.84748 -10308425.35048  19875053.80849  19875053.89148  19875056.01648
 -11221448.41048  -8743985.25848  20010564.58549  20010564.36348  20010565.12448
   5267000.53846   4104154.01047  23921260.95248  23921259.85346  23921260.81547
  -7602647.18348  -5924140.67747  20405608.80848  20405608.71948  20405608.80247
  -6541870.20446  -5097554.48946  23687720.04848  23687720.00346  23687718.41546
 -16156095.79448 -12589165.77849  19532077.22349  19532077.55348  19532078.03549
 08 10 24 19 42 30.0000000  0  7 03 06 16 19 21 23 31
 -12517883.57648  -9754209.36048  21171878.75448  21171878.72648  21171880.87248
 -13141791.94548 -10240357.36648  19891676.72749  19891676.82648  19891678.87748
 -11409692.53548  -8890668.97148  19974742.75849  19974742.66848  19974743.38548
   5527602.67446   4307220.59547  23970852.06848  23970851.41546  23970852.10247
  -7761833.54148  -6048181.97847  20375316.76048  20375316.28648  20375316.54047
  -6523498.24246  -5083238.65246  23691216.50348  23691216.03246  23691214.55046
 -15998844.06848 -12466631.96449  19562001.19849  19562001.65248  19562002.07049
 08 10 24 19 42 40.0000000  0  7 03 06 16 19 21 23 31
 -12380014.01548  -9646778.52248  21198114.51248  21198114.36748  21198116.67548
 -13051522.44448 -10170017.48148  19908854.57249  19908854.57448  19908856.54648
 -11594532.93448  -9034700.43148  19939568.90549  19939568.72648  19939569.37148
   5788921.48346   4510845.63747  24020579.29348  24020578.00946  24020579.43747
  -7918836.20948  -6170521.69547  20345440.04548  20345439.57948  20345440.30747
  -6502044.54546  -5066521.46446  23695298.72848  23695298.22146  23695297.02346
 -15836785.25048 -12340352.36349  19592839.93849  19592840.38348  19592840.85549
 08 10 24 19 42 50.0000000  0  7 03 06 16 19 21 23 31
 -12239814.67648  -9537532.26648  21224793.59848  21224793.44148  21224795.74148
 -12958348.09048 -10097414.07748  19926585.03349  19926585.10048  19926587.01548
 -11775931.35548  -9176049.82748  19905049.86849  19905049.73548  19905050.39748
   6050937.90946   4715014.26647  24070439.55948  24070439.20046  24070439.16747
  -8073634.99348  -6291144.10447  20315982.69948  20315982.47448  20315983.06747
  -6477508.76246  -5047402.67246  23699967.67848  23699967.58046  23699966.12546
 -15669961.83748 -12210360.09249  19624585.40949  19624585.80448  19624586.32149
 08 10 24 19 43 00.0000000  0  7 03 06 16 19 21 23 31
 -12097299.49448  -9426481.46548  21251913.16648  21251913.03148  21251915.47348
 -12862279.51648 -10022555.43448  19944866.17849  19944866.29748  19944868.27948
 -11953849.48048  -9314687.30848  19871193.10149  19871193.04048  19871193.71348
   6313633.18846   4919711.85846  24120428.85448  24120427.37946  24120428.88046
  -8226209.24848  -6410033.11547  20286948.89548  20286948.74548  20286949.20247
  -6449890.55346  -5025881.98146  23705223.39048  23705223.25246  23705221.64246
 -15498416.77548 -12076688.61749  19657229.25849  19657229.72048  19657230.23149
 08 10 24 19 43 10.0000000  0  7 03 06 16 19 21 23 31
 -11952483.84448  -9313638.08548  21279470.62348  21279470.54548  21279472.98548
 -12763328.83548  -9945450.99648  19963695.84749  19963695.93748  19963697.84448
 -12128250.43548  -9450584.13148  19838005.67649  19838005.52248  19838006.25448
   6576987.70746   5124923.16046  24170543.35248  24170543.19146  24170542.82046
  -8376539.56448  -6527173.60647  20258341.85348  20258341.71948  20258342.22547
  -6419191.20746  -5001960.36146  23711065.43348  23711065.01546  23711063.48146
 -15322194.95948 -11939372.92049  19690763.19349  19690763.56248  19690764.10949
 08 10 24 19 43 20.0000000  0  7 03 06 16 19 21 23 31
 -11805381.49448  -9199012.85448  21307463.30248  21307463.29748  21307465.53348
 -12661506.94548  -9866109.25548  19983071.95249  19983072.05348  19983074.02148
 -12299096.19348  -9583710.67548  19805494.77949  19805494.58548  19805495.25948
   6840983.69146   5330634.29746  24220779.95148  24220779.80246  24220779.96646
  -8524605.13248  -6642549.35847  20230165.88948  20230165.70348  20230166.32447
  -6385411.18046  -4975638.27646  23717493.27548  23717492.94146  23717491.46646
 -15141340.48548 -11798447.36249  19725178.58749  19725179.05148  19725179.62649
 08 10 24 19 43 30.0000000  0  7 03 06 16 19 21 23 31
 -11656007.24148  -9082617.31248  21335888.24248  21335888.13448  21335890.54748
 -12556825.52948  -9784539.30848  20002992.12249  20002992.14248  20002994.10048
 -12466349.67848  -9714038.04348  19773667.55349  19773667.37148  19773668.06248
   7105602.79746   5536831.00846  24271135.39948  24271134.50246  24271134.72946
  -8670385.77648  -6756144.63248  20202424.93248  20202424.42648  20202425.04748
  -6348551.94646  -4946916.75046  23724507.22148  23724507.55546  23724505.62746
 -14955898.82748 -11653947.37749  19760466.98349  19760467.34848  19760467.98749
 08 10 24 19 43 40.0000000  0  7 03 06 16 19 21 23 31
 -11504376.62448  -8964463.56448  21364742.62048  21364742.51748  21364744.88848
 -12449297.58448  -9700751.28848  20023453.93849  20023454.11448  20023456.09148
 -12629975.14048  -9841538.38248  19742530.65949  19742530.44148  19742531.16948
   7370826.04846   5743498.48146  24321605.86948  24321604.55546  24321605.92246
  -8813862.21448  -6867944.42648  20175122.06348  20175121.86248  20175122.31748
  -6308616.34146  -4915798.09146  23732106.53648  23732106.89946  23732105.35446
 -14765916.99848 -11505909.59949  19796619.30749  19796619.74048  19796620.32549
 08 10 24 19 43 50.0000000  0  7 03 06 16 19 21 23 31
 -11350506.50048  -8844564.75248  21394023.16748  21394023.03748  21394025.39148
 -12338937.31348  -9614756.26548  20044454.83049  20044454.92948  20044456.89048
 -12789938.33348  -9966185.00248  19712090.68849  19712090.39048  19712091.24148
   7636633.63746   5950621.25746  24372187.23748  24372185.44546  24372186.69846
  -8955016.38248  -6977934.65748  20148261.38748  20148260.92748  20148261.50548
  -6265608.99946  -4882285.84346  23740290.76548  23740290.85046  23740290.01646
 -14571443.81048 -11354372.05249  19833626.40949  19833626.81348  19833627.38349
 08 10 24 19 44 00.0000000  0  7 03 06 16 19 21 23 31
 -11194411.61648  -8722932.36448  21423726.99548  21423726.86948  21423729.22348
 -12225757.11348  -9526563.89348  20065992.29949  20065992.43248  20065994.36648
 -12946203.05748 -10087949.69748  19682354.35249  19682354.27048  19682354.88348
   7903007.97146   6158185.67946  24422876.61648  24422876.13146  24422876.20546
  -9093828.18448  -7086099.67348  20121846.22448  20121846.04448  20121846.60448
  -6219532.64446  -4846382.16546  23749058.54048  23749057.46146  23749056.82046
 -14372526.49548 -11199371.54849  19871479.09749  19871479.51148  19871480.07049
 08 10 24 19 44 10.0000000  0  7 03 06 16 19 21 23 31
 -11036108.03348  -8599578.91048  21453851.17048  21453851.03048  21453853.32348
 -12109770.84448  -9436184.95848  20088063.75449  20088063.80648  20088065.92748
 -13098735.00848 -10206805.74248  19653328.57449  19653328.40548  19653329.03748
   8169930.45046   6366177.21746  24473670.24248  24473669.45546  24473670.36346
  -9230278.80248  -7192424.80248  20095880.58748  20095880.30248  20095880.77948
  -6170391.84346  -4808090.61246  23758410.00748  23758409.43046  23758408.96946
 -14169214.23348 -11040946.40549  19910168.18449  19910168.56848  19910169.07749
 08 10 24 19 44 20.0000000  0  7 03 06 16 19 21 23 31
 -10875610.94948  -8474516.23948  21484392.60048  21484392.46748  21484394.83948
 -11990991.66348  -9343629.73748  20110666.67049  20110666.74248  20110668.81948
 -13247499.36448 -10322725.99948  19625019.60249  19625019.44748  19625020.17248
   8437383.60146   6574582.26246  24524565.15748  24524564.23546  24524564.93246
  -9364348.56148  -7296894.71648  20070368.04448  20070367.70748  20070368.08648
  -6118190.76446  -4767414.41046  23768343.60148  23768342.15646  23768341.80446
 -13961555.92248 -10879134.73049  19949684.25949  19949684.60148  19949685.09049
 08 10 24 19 44 30.0000000  0  7 03 06 16 19 21 23 31
 -10712938.23548  -8347758.27248  21515348.32948  21515347.96748  21515350.52948
 -11869435.34148  -9248910.50848  20133798.05449  20133798.15748  20133800.18648
 -13392464.10848 -10435685.51748  19597433.67549  19597433.55248  19597434.24748
   8705347.74846   6783385.48146  24575557.21748  24575555.50146  24575557.02046
  -9496020.36148  -7399496.09248  20045311.63948  20045311.29148  20045311.81448
  -6062936.42546  -4724359.06546  23778857.97048  23778857.57046  23778856.21246
 -13749603.12648 -10713976.70049  19990017.44049  19990017.90448  19990018.31549
 08 10 24 19 44 40.0000000  0  7 03 06 16 19 21 23 31
 -10548106.19848  -8219317.70848  21546714.73148  21546714.41248  21546716.90348
 -11745116.50548  -9152038.67448  20157455.12249  20157455.22748  20157457.29648
 -13533596.30148 -10545658.63148  19570577.06149  19570577.00148  19570577.60348
   8973804.90446   6992572.86846  24626643.04248  24626642.40746  24626642.81046
  -9625275.69848  -7500214.50548  20020715.12448  20020714.83548  20020715.36248
  -6004634.92746  -4678929.29046  23789952.28148  23789951.59546  23789950.95446
 -13533406.65948 -10545511.91249  20031158.33849  20031158.75348  20031159.17249
 08 10 24 19 44 50.0000000  0  7 03 06 16 19 21 23 31
 -10381130.32048  -8089206.62448  21578488.99348  21578488.84748  21578491.32248
 -11618049.02548  -9053025.04248  20181635.30149  20181635.36148  20181637.37048
 -13670862.55648 -10652619.32748  19544456.20349  19544456.08848  19544456.64048
   9242738.16746   7202131.27646  24677818.71348  24677818.24646  24677819.46446
  -9752095.26048  -7599034.91848  19996582.13148  19996581.69148  19996582.46948
  -5943291.97346  -4631129.58146  23801625.41148  23801624.91846  23801624.48446
 -13313016.83248 -10373779.57249  20073097.05649  20073097.50248  20073098.01349
 08 10 24 19 45 00.0000000  0  7 03 06 16 19 21 23 31
 -10212027.14148  -7957437.89948  21610668.24848  21610667.94548  21610670.62948
 -11488247.83648  -8951881.23748  20206335.69549  20206335.69448  20206337.65848
 -13804230.94548 -10756542.72448  19519077.01749  19519076.87448  19519077.48348
   9512130.07846   7412047.00846  24729082.57948  24729081.74646  24729082.07446
  -9876460.69948  -7695943.02748  19972916.12548  19972915.79948  19972916.33948
  -5878914.54746  -4580965.30546  23813876.02948  23813875.09046  23813875.67346
 -13088485.28248 -10198819.91649  20115823.91849  20115824.43148  20115824.88349
 08 10 24 19 45 10.0000000  0  7 03 06 16 19 21 23 31
 -10040811.72548  -7824023.27348  21643249.38848  21643249.10148  21643251.63148
 -11355726.78648  -8848618.05848  20231553.52949  20231553.55648  20231555.54548
 -13933668.65448 -10857403.25248  19494445.82549  19494445.64748  19494446.28348
   9781964.41746   7622307.54746  24780429.79748  24780430.32146  24780429.94446
  -9998352.51148  -7790923.63548  19949720.90248  19949720.48648  19949721.09448
  -5811508.82046  -4528441.34146  23826703.04148  23826702.47746  23826701.52046
 -12859862.71648 -10020672.45148  20159329.38149  20159329.77548  20159330.28048
 08 10 24 19 45 20.0000000  0  7 03 06 16 19 21 23 31
  -9867501.09048  -7688976.00348  21676229.15248  21676229.20448  21676231.51348
 -11220501.84348  -8743247.94648  20257285.92149  20257286.06948  20257287.95248
 -14059145.23548 -10955177.18848  19470568.47949  19470568.25948  19470568.87348
  10052223.72546   7832899.95946  24831858.52048  24831857.61446  24831858.94346
 -10117753.07548  -7883963.01348  19926999.55248  19926999.37148  19926999.87148
  -5741083.19046  -4473564.19146  23840104.25648  23840104.05246  23840103.23246
 -12627202.05248  -9839378.40548  20203603.21249  20203603.56948  20203604.04948
 08 10 24 19 45 30.0000000  0  7 03 06 16 19 21 23 31
  -9692112.77148  -7552309.76848  21709604.72348  21709604.53748  21709606.91448
 -11082589.33648  -8635783.62848  20283529.84549  20283529.94248  20283531.81648
 -14180631.21348 -11049841.56548  19447450.34749  19447450.28348  19447450.80248
  10322890.15646   8043809.11546  24883365.31048  24883364.09746  24883365.47946
 -10234645.26248  -7975047.81048  19904755.75548  19904755.53148  19904756.17648
  -5667646.96446  -4416341.15446  23854078.98748  23854079.51246  23854077.34346
 -12390556.89948  -9654979.56848  20248635.29549  20248635.66948  20248636.12748
 08 10 24 19 45 40.0000000  0  7 03 06 16 19 21 23 31
  -9514664.68148  -7414038.50548  21743371.94648  21743371.78548  21743374.16848
 -10942006.45148  -8526238.49548  20310281.78249  20310281.91448  20310283.84948
 -14298098.19948 -11141374.26148  19425097.17149  19425097.03348  19425097.58648
  10593945.71246   8255021.24346  24934944.91648  24934943.81046  24934944.76746
 -10349012.60548  -8064165.19048  19882992.35148  19882992.10148  19882992.68448
  -5591210.43046  -4356780.19046  23868624.31548  23868624.06546  23868622.46446
 -12149981.71448  -9467518.36748  20294415.13549  20294415.53248  20294416.02948
 08 10 24 19 45 50.0000000  0  7 03 06 16 19 21 23 31
  -9335177.06548  -7274178.00548  21777527.40248  21777527.23148  21777529.50748
 -10798772.70348  -8414627.74948  20337538.22249  20337538.48648  20337540.30048
 -14411520.68148 -11229755.40348  19403513.61749  19403513.38548  19403514.05748
  10865370.11846   8466520.76446  24986595.69748  24986594.33946  24986595.16946
 -10460841.21548  -8151304.34348  19861712.16348  19861711.75248  19861712.41748
  -5511786.55946  -4294891.43746  23883738.20148  23883738.22146  23883736.48346
 -11905533.69448  -9277039.37048  20340931.93849  20340932.41548  20340932.98548
 08 10 24 19 46 00.0000000  0  7 03 06 16 19 21 23 31
  -9153669.22348  -7132743.29848  21812067.15648  21812066.98848  21812069.13548
 -10652906.80848  -8300965.99748  20365295.65449  20365295.68148  20365297.58348
 -14520872.63648 -11314964.70448  19382704.46349  19382704.38248  19382705.01248
  11137144.53146   8678293.05846  25038311.83148  25038311.65646  25038312.84646
 -10570115.95748  -8236453.46848  19840917.66948  19840917.49348  19840918.10948
  -5429387.75946  -4230684.57746  23899417.97348  23899418.44246  23899416.50746
 -11657269.00748  -9083586.33848  20388175.25449  20388175.62648  20388176.19948
 08 10 24 19 46 10.0000000  0  7 03 06 16 19 21 23 31
  -8970159.77448  -6989748.92048  21846988.00348  21846987.85548  21846989.99348
 -10504426.90748  -8185267.35848  20393550.37649  20393550.39848  20393552.33748
 -14626128.01848 -11396981.87348  19362675.10149  19362675.02448  19362675.67948
  11409251.02746   8890324.05646  25090092.91748  25090091.56646  25090091.83146
 -10676821.29648  -8319600.45448  19820612.55148  19820612.08448  19820612.69048
  -5344026.15046  -4164169.00846  23915661.36748  23915662.33346  23915659.42646
 -11405243.43748  -8887202.76748  20436134.12249  20436134.51948  20436135.07748
 08 10 24 19 46 20.0000000  0  7 03 06 16 19 21 23 31
  -8784668.47348  -6845210.21648  21882285.90348  21882285.60948  21882287.61448
 -10353352.54548  -8067547.04948  20422298.79949  20422298.81748  20422300.89848
 -14727262.69148 -11475788.09448  19343429.73249  19343429.63848  19343430.31548
  11681670.63546   9102599.10146  25141932.42948  25141931.67446  25141932.22546
 -10780943.02548  -8400734.24448  19800798.78149  19800798.45848  19800798.94948
  -5255715.43946  -4095355.42746  23932466.32548  23932466.42246  23932464.38246
 -11149514.25748  -8687933.30448  20484797.76349  20484798.25048  20484798.75248
 08 10 24 19 46 30.0000000  0  7 03 06 16 19 21 23 31
  -8597211.19248  -6699139.57948  21917957.65248  21917957.58548  21917959.64548
 -10199699.42348  -7947817.31548  20451537.90549  20451538.03248  20451540.01748
 -14824249.20648 -11551361.98748  19324973.81249  19324973.73848  19324974.40448
  11954388.52246   9315106.56846  25193828.43648  25193828.33346  25193828.31446
 -10882463.14048  -8479840.80448  19781479.92049  19781479.80348  19781480.17948
  -5164465.91846  -4024251.87346  23949830.60248  23949831.28046  23949829.40946
 -10890134.81748  -8485819.47948  20534156.08649  20534156.44048  20534157.05048
 08 10 24 19 46 40.0000000  0  7 03 06 16 19 21 23 31
  -8407806.65948  -6551551.60848  21954000.10548  21954000.12748  21954002.10848
 -10043486.19848  -7826092.70148  20481264.28449  20481264.38148  20481266.40448
 -14917063.58048 -11623684.85648  19307311.76149  19307311.71248  19307312.41448
  12227387.34346   9527832.90446  25245778.86548  25245778.59146  25245777.76046
 -10981366.88648  -8556908.63448  19762659.14449  19762658.97548  19762659.34148
  -5070291.19846  -3950868.92946  23967751.56648  23967751.22746  23967749.87046
 -10627161.61148  -8280905.30548  20584198.13849  20584198.69748  20584199.27348
 08 10 24 19 46 50.0000000  0  7 03 06 16 19 21 23 31
  -8216472.89448  -6402460.33348  21990409.79448  21990409.86748  21990411.67248
  -9884731.06348  -7702387.37148  20511474.37449  20511474.37548  20511476.53448
 -15005681.73548 -11692737.94748  19290448.29249  19290448.24848  19290448.81148
  12500650.48846   9740765.62346  25297779.24548  25297778.41646  25297777.83646
 -11077638.67648  -8631925.58648  19744339.18849  19744339.01848  19744339.59148
  -4973204.43046  -3875216.88646  23986226.43948  23986226.01746  23986224.66846
 -10360650.32348  -8073234.16648  20634913.66549  20634914.11448  20634914.60148
 08 10 24 19 47 00.0000000  0  7 03 06 16 19 21 23 31
  -8023084.34248  -6251767.92748  22027210.45548  22027210.19048  22027212.25548
  -9723308.67248  -7576603.65548  20542191.92748  20542191.87748  20542194.17748
 -15089936.93048 -11758391.33248  19274415.05649  19274414.90348  19274415.57948
  12774305.32246   9954003.78246  25349853.83048  25349852.65746  25349853.62746
 -11171119.68248  -8704767.90348  19726550.43849  19726550.13848  19726550.58148
  -4873075.73846  -3797194.50046  24005280.23648  24005279.71346  24005278.93246
 -10090513.45248  -7862737.89548  20686318.95649  20686319.38448  20686319.97748
 08 10 24 19 47 10.0000000  0  7 03 06 16 19 21 23 31
  -7826832.15248  -6098844.11548  22064555.77648  22064555.75748  22064557.72148
  -9558410.38248  -7448111.45248  20573570.96648  20573570.99348  20573573.23548
 -15168979.63448 -11819983.04148  19259373.77549  19259373.64548  19259374.23548
  13049162.70946  10168178.36146  25402157.75848  25402157.00646  25402157.63046
 -11260967.79548  -8774779.39048  19709452.79149  19709452.56548  19709453.03048
  -4769092.30046  -3716168.41446  24025068.10848  24025068.82446  24025066.85746
  -9815980.08648  -7648815.78548  20738561.01149  20738561.33148  20738561.88948
 08 10 24 19 47 20.0000000  0  7 03 06 16 19 21 23 31
  -7628442.05248  -5944254.41048  22102308.24148  22102308.17348  22102310.03248
  -9390762.55548  -7317476.75648  20605473.18648  20605473.25948  20605475.58148
 -15243495.85948 -11878047.61948  19245193.77649  19245193.66248  19245194.41748
  13324499.08546  10382726.19146  25454551.97748  25454551.31246  25454551.41046
 -11347875.78348  -8842499.86048  19692914.74149  19692914.52348  19692914.99148
  -4661976.31146  -3632701.36546  24045451.54848  24045451.42346  24045450.18546
  -9537814.05948  -7432063.02448  20791494.17149  20791494.64648  20791495.13148
 08 10 24 19 47 30.0000000  0  7 03 06 16 19 21 23 31
  -7428091.53048  -5788137.10148  22140433.73248  22140433.67148  22140435.34548
  -9220543.37948  -7184838.41148  20637864.81848  20637864.85648  20637867.19948
 -15313624.09048 -11932692.98348  19231848.86349  19231848.76348  19231849.36648
  13600139.21946  10597510.73746  25507004.40048  25507004.61746  25507004.49246
 -11431988.62548  -8908042.31248  19676908.60449  19676908.46748  19676908.74448
  -4551902.17246  -3546929.27546  24066398.04448  24066397.03346  24066396.37546
  -9256231.07048  -7212647.70148  20845077.58249  20845078.09048  20845078.61248
 08 10 24 19 47 40.0000000  0  7 03 06 16 19 21 23 31
  -7225779.67248  -5630491.47548  22178932.34448  22178932.20048  22178934.07348
  -9047752.50048  -7050196.14548  20670745.91348  20670746.02848  20670748.18748
 -15379325.04748 -11983888.52048  19219346.43449  19219346.24048  19219346.85848
  13876086.79846  10812534.82646  25559515.71948  25559514.05246  25559515.77346
 -11513272.69848  -8971380.52548  19661440.79749  19661440.53048  19661441.02248
  -4438866.25446  -3458849.31146  24087907.80748  24087907.18546  24087906.64846
  -8971268.32148  -6990598.79648  20899304.23549  20899304.68148  20899305.18348
 08 10 24 19 47 50.0000000  0  7 03 06 16 19 21 23 31
  -7021653.59848  -5471432.18247  22217776.16848  22217776.31448  22217777.93247
  -8872537.97348  -6913665.31448  20704088.06248  20704088.26948  20704090.21648
 -15440708.43048 -12031719.71648  19207665.42749  19207665.41648  19207666.02548
  14152197.29746  11027685.95846  25612058.03948  25612056.51446  25612056.30146
 -11591842.75048  -9032603.90648  19646489.43549  19646489.02348  19646489.46348
  -4323013.44046  -3368574.37246  24109953.92748  24109953.26346  24109952.35046
  -8683111.10148  -6766060.69648  20954138.71049  20954139.23848  20954139.70348
 08 10 24 19 48 00.0000000  0  8 03 06 16 19 21 23 24 31
  -6815734.48848  -5310975.71647  22256961.26248  22256961.32948  22256963.15147
  -8694921.82648  -6775263.08348  20737887.43748  20737887.35348  20737889.52448
 -15497758.60448 -12076174.38248  19196809.12849  19196809.07548  19196809.72448
  14428452.59146  11242949.75446  25664627.29748  25664627.35646  25664626.50946
 -11667688.00248  -9091704.08148  19632056.45349  19632056.34748  19632056.75748
  -4204362.90546  -3276119.38346  24132532.23548  24132531.95546  24132530.84746
    -81602.01556    -63585.94656  22014494.65658  22014494.35756  22014496.43056
  -8391818.65748  -6539079.56148  21009569.82849  21009570.27448  21009570.83448
 08 10 24 19 48 10.0000000  0  8 03 06 16 19 21 23 24 31
  -6608040.77948  -5149136.43547  22296484.13448  22296483.92948  22296485.88647
  -8514923.81148  -6635004.85948  20772139.81148  20772139.76548  20772142.03648
 -15550458.37448 -12117239.12748  19186780.80749  19186780.61448  19186781.20148
  14704837.08546  11458312.18346  25717222.04548  25717221.42046  25717222.20546
 -11740795.12548  -9148670.64148  19618144.75649  19618144.33348  19618144.85448
  -4082931.77046  -3181497.67646  24155639.93648  24155639.65846  24155638.78346
   -363817.52946   -283494.11146  21960197.52748  21960197.51846  21960199.31646
  -8097447.79548  -6309699.65848  21065586.76949  21065587.21148  21065587.75248
 08 10 24 19 48 20.0000000  0  8 03 06 16 19 21 23 24 31
  -6398591.77348  -4985929.38747  22336340.84648  22336340.79248  22336342.70847
  -8332564.31348  -6492906.52148  20806841.75048  20806841.73548  20806843.79548
 -15598791.95748 -12154901.65048  19177583.13849  19177583.04048  19177583.68548
  14981334.96946  11673763.98546  25769837.85648  25769836.47546  25769836.51746
 -11811151.79648  -9203494.00848  19604756.21449  19604755.92548  19604756.45748
  -3958738.20946  -3084723.45746  24179273.13548  24179272.84946  24179271.86146
   -642151.65946   -500377.83446  21907232.38948  21907231.12246  21907234.34646
  -7800055.85548  -6077965.67448  21122178.53349  21122179.09048  21122179.48748
 08 10 24 19 48 30.0000000  0  8 03 06 16 19 21 23 24 31
  -6187403.57447  -4821367.13347  22376528.53248  22376528.68147  22376530.20947
  -8147860.54848  -6348981.48848  20841989.66848  20841989.88848  20841991.80348
 -15642741.10648 -12189147.73048  19169219.85549  19169219.77648  19169220.39148
  15257933.80446  11889298.49746  25822471.91947  25822472.53846  25822470.72046
 -11878742.60948  -9256162.15048  19591894.07449  19591893.90748  19591894.31648
  -3831797.54046  -2985808.61646  24203429.06748  24203429.12046  24203427.90546
   -919124.31846   -716200.67146  21854525.77048  21854525.65346  21854527.60946
  -7499696.71148  -5843919.57848  21179334.95649  21179335.45748  21179336.02448
 08 10 24 19 48 40.0000000  0  8 03 06 16 19 21 23 24 31
  -5974492.96447  -4655462.74447  22417044.03948  22417043.86347  22417045.91647
  -7960830.83548  -6203244.02148  20877580.28448  20877580.39748  20877582.23748
 -15682289.42448 -12219964.59148  19161693.94749  19161693.92948  19161694.58848
  15534620.41346  12104901.62246  25875123.88947  25875122.21346  25875123.35046
 -11943553.44548  -9306664.08248  19579561.04849  19579560.64948  19579561.16048
  -3702126.17246  -2884765.97546  24228104.78948  24228105.02946  24228102.95946
  -1194703.68246   -930937.84546  21802084.95948  21802084.44646  21802087.27046
  -7196425.20448  -5607604.10548  21237045.59048  21237046.00048  21237046.71148
 08 10 24 19 48 50.0000000  0  8 03 06 16 19 21 23 24 31
  -5759875.93147  -4488228.66247  22457884.21848  22457884.35547  22457886.30247
  -7771492.78648  -6055707.84748  20913610.02948  20913610.23548  20913612.10148
 -15717420.63948 -12247339.55648  19155008.81649  19155008.71048  19155009.45848
  15811382.39746  12320560.59346  25927790.59647  25927789.70846  25927790.28646
 -12005569.67648  -9354988.38648  19567759.56449  19567759.38848  19567759.91248
  -3569740.36746  -2781608.17046  24253296.44148  24253296.12346  24253295.39646
  -1468857.00346  -1144563.81846  21749914.97448  21749914.79746  21749917.27846
  -6890295.34448  -5369061.35048  21295300.13248  21295300.57048  21295301.22048
 08 10 24 19 49 00.0000000  0  8 03 06 16 19 21 23 24 31
  -5543569.48947  -4319678.16547  22499046.08648  22499046.01247  22499047.78147
  -7579864.98148  -5906387.45248  20950075.64048  20950075.66348  20950077.61848
 -15748120.16848 -12271261.25948  19149166.82849  19149166.78148  19149167.52348
  16088206.91846  12536264.67846  25980468.38847  25980468.04546  25980467.71646
 -12064777.69648  -9401124.48948  19556492.74349  19556492.46748  19556492.97148
  -3434657.53846  -2676348.78746  24279001.80948  24279001.33146  24279000.40846
  -1741552.19647  -1357053.57446  21698023.19248  21698022.60747  21698025.39346
  -6581361.80048  -5128333.90048  21354088.13048  21354088.67148  21354089.25348
 08 10 24 19 49 10.0000000  0  8 03 06 16 19 21 23 24 31
  -5325590.66147  -4149824.49847  22540526.04548  22540526.00847  22540527.78947
  -7385966.16048  -5755297.42648  20986973.19148  20986973.40348  20986975.32548
 -15774374.56348 -12291719.22249  19144170.86649  19144170.71748  19144171.41449
  16365080.97746  12752010.57446  26033155.70847  26033153.20146  26033155.65246
 -12121164.44348  -9445062.19048  19545762.76149  19545762.35348  19545762.83548
  -3296895.59246  -2569001.79546  24305217.20048  24305216.73746  24305215.64746
  -2012757.17346  -1568382.13346  21646414.45948  21646414.26546  21646416.57746
  -6269679.25348  -4885464.36648  21413399.40548  21413399.72848  21413400.48448
 08 10 24 19 49 20.0000000  0  8 03 06 16 19 21 23 24 31
  -5105956.71347  -3978681.13347  22582320.91648  22582320.98447  22582322.95247
  -7189815.54748  -5602452.77548  21024299.53848  21024299.64148  21024301.48248
 -15796171.39148 -12308703.75949  19140022.99849  19140022.96048  19140023.65349
  16641991.72346  12967784.83246  26085849.86647  26085850.59946  26085851.62246
 -12174717.38548  -9486791.74348  19535571.82249  19535571.64048  19535571.99348
  -3156473.06846  -2459581.58646  24331938.77048  24331938.29046  24331937.49746
  -2282439.96046  -1778524.56746  21595095.47148  21595095.43046  21595097.43146
  -5955302.41848  -4640495.39348  21473223.19548  21473223.65648  21473224.34348
 08 10 24 19 49 30.0000000  0  7 03 06 16 21 23 24 31
  -4884687.71547  -3806263.71747  22624426.98948  22624427.09247  22624428.95047
  -6991434.77348  -5447870.32048  21062050.07248  21062050.24448  21062052.09148
 -15813501.65248 -12322207.85549  19136725.19949  19136725.12048  19136725.79149
 -12225426.73348  -9526305.51248  19525922.30949  19525922.00748  19525922.28148
  -3013411.24846  -2348104.80746  24359162.86148  24359161.86846  24359160.99946
  -2550570.88247  -1987457.74946  21544071.89248  21544071.88347  21544073.99046
  -5638288.74048  -4393471.73348  21533549.07648  21533549.38448  21533549.97948
 08 10 24 19 49 40.0000000  0  8 03 06 13 16 21 23 24 31
  -4661802.73147  -3632587.08147  22666840.51748  22666840.32247  22666842.50947
  -6790845.28548  -5291566.80648  21100220.83348  21100221.06648  21100222.99048
    -13355.24656    -10387.18756  24172367.75257  24172368.75656  24172365.17456
 -15826356.83148 -12332224.87449  19134278.97749  19134278.85148  19134279.51449
 -12273282.62248  -9563595.80948  19516815.56249  19516815.31548  19516815.60748
  -2867731.59046  -2234588.18946  24386884.57448  24386883.50346  24386883.62446
  -2817119.60047  -2195158.04146  21493349.42448  21493349.74547  21493352.02546
  -5318694.70248  -4144437.39848  21594365.65148  21594366.04248  21594366.71148
 08 10 24 19 49 50.0000000  0  7 03 06 16 21 23 24 31
  -4437322.67347  -3457667.53047  22709557.76448  22709557.52947  22709559.70947
  -6588069.89548  -5133559.99348  21138807.81748  21138807.92548  21138809.80848
 -15834730.94948 -12338750.15549  19132685.32649  19132685.35548  19132685.99749
 -12318276.97048  -9598656.33748  19508253.48249  19508253.16248  19508253.48348
  -2719457.34446  -2119049.81346  24415100.29448  24415098.37946  24415099.09446
  -3082057.34347  -2401603.04547  21442933.00748  21442932.95747  21442935.49447
  -4996578.13848  -3893437.46548  21655662.43248  21655662.80148  21655663.34748
 08 10 24 19 50 00.0000000  0  8 03 06 16 21 23 24 25 31
  -4211267.15347  -3281520.35647  22752574.39048  22752574.51447  22752576.38747
  -6383130.42748  -4973866.88148  21177806.61848  21177806.75248  21177808.49048
 -15838617.64348 -12341778.74649  19131945.82049  19131945.64648  19131946.34049
 -12360400.77448  -9631480.07948  19500237.52749  19500237.27448  19500237.43048
  -2568610.66546  -2001506.91646  24443805.41748  24443805.97846  24443803.56046
  -3345353.79147  -2606769.09747  21392829.65648  21392829.24147  21392832.25947
    -47730.95956    -37196.74956  24267832.86658  24267832.36156  24267832.48456
  -4671995.42148  -3640515.85848  21717428.46248  21717428.82548  21717429.42148
 08 10 24 19 50 10.0000000  0  8 03 06 16 21 23 24 25 31
  -3983655.62547  -3104160.69447  22795887.70548  22795887.03647  22795889.70747
  -6176048.61448  -4812504.40648  21217212.84248  21217212.94848  21217214.74548
 -15838011.50948 -12341306.43149  19132061.12149  19132060.99648  19132061.64049
 -12399645.32948  -9662060.24448  19492769.62249  19492769.23748  19492769.45848
  -2415214.17446  -1881977.19046  24472995.95248  24472996.09146  24472993.75546
  -3606978.48447  -2810632.50047  21343044.08148  21343043.90947  21343046.35447
   -211909.74146   -165125.28046  24236240.72648  24236241.18646  24236239.51246
  -4345002.86548  -3385716.45248  21779653.17948  21779653.41448  21779654.07348
 08 10 24 19 50 20.0000000  0  8 03 06 16 21 23 24 25 31
  -3754507.75647  -2925603.88447  22839492.95348  22839492.34847  22839495.23047
  -5966846.40848  -4649489.67548  21257022.71848  21257022.83448  21257024.71748
 -15832908.11048 -12337329.75549  19133032.33649  19133032.11648  19133032.88449
 -12436002.40548  -9690390.42948  19485850.98749  19485850.78348  19485850.92748
  -2259290.80546  -1760478.45646  24502666.50948  24502667.03746  24502665.04346
  -3866900.96647  -3013169.49747  21293582.57148  21293582.08647  21293584.60747
   -372410.33846   -290190.58446  24205698.67048  24205699.84146  24205698.83346
  -4015656.38648  -3129082.82648  21842325.58448  21842325.99348  21842326.50948
 08 10 24 19 50 30.0000000  0  8 03 06 16 21 23 24 25 31
  -3523843.22147  -2745865.26247  22883386.76648  22883386.77547  22883388.97947
  -5755545.92448  -4484839.92248  21297231.69548  21297231.88048  21297233.76948
 -15823304.05748 -12329846.07549  19134859.88349  19134859.66548  19134860.47749
 -12469464.15148  -9716464.51048  19479483.40449  19479483.15548  19479483.45548
  -2100863.93146  -1637028.93646  24532814.68848  24532814.44446  24532813.17546
  -4125090.72147  -3214356.31247  21244450.69748  21244450.30347  21244453.08647
   -530695.87146   -413531.09946  24175579.05048  24175579.20846  24175579.99546
  -3684011.86848  -2870658.51548  21905435.48548  21905435.74248  21905436.44248
 08 10 24 19 50 40.0000000  0  8 03 06 16 21 23 24 25 31
  -3291682.99047  -2564961.17447  22927565.57048  22927565.59847  22927567.73047
  -5542170.70248  -4318573.49248  21337835.75748  21337835.93248  21337837.72048
 -15809198.33848 -12318854.60549  19137544.00449  19137543.93448  19137544.64649
 -12500024.28448  -9740277.59848  19473667.90149  19473667.79848  19473668.08048
  -1939958.67546  -1511648.21446  24563433.62948  24563432.74846  24563432.24046
  -4381518.52247  -3414170.18747  21195653.99648  21195653.75347  21195656.37547
   -686735.32846   -535119.16046  24145885.11748  24145884.64846  24145885.25846
  -3350126.35348  -2610487.98148  21968971.79348  21968972.37848  21968972.81148
 08 10 24 19 50 50.0000000  0  8 03 06 16 21 23 24 25 31
  -3058049.47547  -2382909.05347  22972024.37748  22972024.75647  22972026.61647
  -5326745.60748  -4150709.76248  21378829.73948  21378829.99148  21378831.64448
 -15790592.25848 -12304356.35949  19141084.59449  19141084.57148  19141085.25049
 -12527678.44948  -9761826.29348  19468405.56849  19468405.35848  19468405.63048
  -1776601.81346  -1384357.16746  24594519.77048  24594519.76146  24594517.70046
  -4636156.52447  -3612589.41347  21147198.17148  21147197.94747  21147200.39747
   -840499.57046   -654935.82246  24116624.43248  24116623.89146  24116623.90846
  -3014058.03348  -2348616.55348  22032923.47348  22032923.75548  22032924.34748
 08 10 24 19 51 00.0000000  0  8 03 06 16 21 23 24 25 31
  -2822964.98747  -2199726.30847  23016759.66048  23016759.87347  23016761.90047
  -5109295.76848  -3981268.31948  21420209.25648  21420209.34248  21420210.88548
 -15767488.07648 -12286353.09949  19145481.26349  19145481.13248  19145481.86449
 -12552422.74448  -9781107.55548  19463696.89349  19463696.68248  19463696.98748
  -1610820.57946  -1255176.94346  24626066.11548  24626065.59246  24626063.78046
  -4888976.71547  -3809592.15647  21099087.99548  21099087.83647  21099090.07247
   -991959.63946   -772957.42446  24087802.31348  24087804.94846  24087802.60746
  -2675864.85548  -2085089.39748  22097279.57348  22097280.02248  22097280.35948
 08 10 24 19 51 10.0000000  0  8 03 06 16 21 23 24 25 31
  -2586451.40747  -2015429.98247  23061766.63348  23061766.50447  23061769.03047
  -4889845.87548  -3810268.40048  21461969.05448  21461969.23648  21461970.86048
 -15739888.69248 -12264847.08349  19150733.27049  19150733.06848  19150733.88349
 -12574253.02048  -9798118.15448  19459542.73749  19459542.55748  19459542.73348
  -1442641.81746  -1124128.56746  24658069.06648  24658069.62646  24658068.25646
  -5139950.63347  -4005156.24347  21051329.31548  21051329.23647  21051331.38847
  -1141086.24946   -889158.92046  24059424.59248  24059425.06746  24059425.07146
  -2335604.07448  -1819951.11848  22162028.95748  22162029.48148  22162029.74148
 08 10 24 19 51 20.0000000  0  8 03 06 16 21 23 24 25 31
  -2348529.85747  -1830036.55947  23107041.54748  23107041.31747  23107043.86147
  -4668419.59248  -3637728.44148  21504104.99948  21504105.07048  21504106.87048
 -15707796.94548 -12239840.52749  19156839.98649  19156839.98748  19156840.72849
 -12593164.50648  -9812854.37448  19455943.97649  19455943.79048  19455944.03148
  -1272091.95846   -991232.54246  24690524.16848  24690523.93846  24690522.81446
  -5389048.79247  -4199258.70147  21003927.45148  21003927.16547  21003929.53047
  -1287849.65246  -1003520.92946  24031496.77248  24031498.12946  24031499.34546
  -1993331.69647  -1553245.36548  22227161.28848  22227161.78647  22227162.24548
 08 10 24 19 51 30.0000000  0  8 03 06 16 21 23 24 25 31
  -2109222.68247  -1643563.41947  23152580.26448  23152580.19547  23152582.36947
  -4445042.16648  -3463668.10548  21546612.43348  21546612.53048  21546614.12148
 -15671218.06848 -12211337.50549  19163800.80449  19163800.69148  19163801.43549
 -12609154.21148  -9825313.87948  19452901.32049  19452901.07448  19452901.39948
  -1099199.08046   -856510.82246  24723424.47248  24723424.00546  24723424.21646
  -5636243.12147  -4391877.65847  20956887.75948  20956887.92547  20956890.17647
  -1432221.50246  -1116019.17246  24004023.22648  24004023.29546  24004024.13246
  -1649104.87847  -1285016.66748  22292665.64648  22292665.71647  22292666.27048
 08 10 24 19 51 40.0000000  0  8 03 06 16 21 23 24 25 31
  -1868550.79547  -1456026.86947  23198378.46448  23198378.29747  23198380.73747
  -4219737.57148  -3288106.06548  21589486.37648  21589486.51948  21589488.05548
 -15630156.87848 -12179341.77149  19171614.35549  19171614.40348  19171615.17749
 -12622218.28048  -9835493.67148  19450415.25349  19450415.06148  19450415.34248
   -923990.19746   -719984.32746  24756765.91948  24756765.41546  24756764.03146
  -5881503.98047  -4582990.02147  20910216.31848  20910216.24247  20910218.57447
  -1574172.67446  -1226630.95346  23977011.37848  23977011.14446  23977013.21746
  -1302979.07947  -1015308.25248  22358530.89348  22358531.17447  22358531.92848
 08 10 24 19 51 50.0000000  0  8 03 06 16 21 23 24 25 31
  -1626535.82547  -1267443.75447  23244432.49348  23244432.28047  23244434.61447
  -3992530.28348  -3111061.42148  21632722.50548  21632722.57048  21632724.24948
 -15584619.81548 -12143858.34649  19180279.81149  19180279.78848  19180280.50249
 -12632353.88848  -9843391.54548  19448486.51249  19448486.24948  19448486.58848
   -746493.02646   -581674.86446  24790542.66148  24790542.01146  24790541.31846
  -6124802.37647  -4772573.18447  20863918.05048  20863917.80947  20863920.48347
  -1713674.66946  -1335333.73246  23950464.20148  23950466.47546  23950465.39346
   -955010.00847   -744163.51248  22424747.31348  22424747.58647  22424748.06248
 08 10 24 19 52 00.0000000  0  8 03 06 16 21 23 24 25 31
  -1383198.92546  -1077830.56547  23290737.98348  23290738.14346  23290740.15047
  -3763444.49748  -2932553.01248  21676316.08048  21676316.19648  21676317.74648
 -15534613.81648 -12104892.63149  19189795.71749  19189795.66848  19189796.30449
 -12639558.16248  -9849005.26348  19447115.64049  19447115.25648  19447115.64148
   -566735.30746   -441603.91546  24824749.74548  24824748.85246  24824747.63146
  -6366108.85847  -4960604.21647  20817999.07148  20817998.94247  20818001.38147
  -1850699.07246  -1442105.96346  23924390.11948  23924391.03346  23924390.11846
   -605252.78947   -471625.41948  22491303.77648  22491304.24747  22491304.55848
 08 10 24 19 52 10.0000000  0  8 03 06 16 21 23 24 25 31
  -1138560.48546   -887203.19147  23337291.40348  23337291.13046  23337293.33447
  -3532503.70448  -2752599.13748  21720262.48748  21720262.64148  21720264.41648
 -15480146.14048 -12062450.28549  19200160.52349  19200160.54048  19200161.18049
 -12643827.87248  -9852332.31048  19446303.16549  19446302.86448  19446303.07348
   -384744.37746   -299792.81646  24859381.59748  24859382.00846  24859379.53146
  -6605393.33547  -5147059.64747  20772464.54348  20772464.39347  20772467.10547
  -1985216.93246  -1546922.09346  23898791.64248  23898790.94246  23898793.66946
   -253761.57247   -197736.15648  22558190.37748  22558190.69647  22558191.20948
 08 10 24 19 52 20.0000000  0  8 03 06 16 21 23 24 25 31
   -892642.46646   -695578.74147  23384087.75948  23384087.51546  23384090.07147
  -3299733.05548  -2571219.39048  21764557.31248  21764557.55448  21764559.20348
 -15421226.49948 -12016538.87549  19211372.64149  19211372.57748  19211373.20549
 -12645161.68948  -9853371.64848  19446049.26849  19446049.03548  19446049.24348
   -200549.24946   -156264.14446  24894433.00948  24894432.57746  24894431.29446
  -6842627.14947  -5331917.16647  20727320.44448  20727320.79347  20727322.92747
  -2117201.35646  -1649768.08146  23873676.49548  23873676.73646  23873677.18946
     99408.48347     77461.28848  22625396.43948  22625396.91147  22625397.24148
 08 10 24 19 52 30.0000000  0  8 03 06 16 21 23 24 25 31
   -645466.80446   -502974.31847  23431123.59248  23431123.24346  23431125.89647
  -3065157.59548  -2388433.30448  21809195.40848  21809195.68148  21809197.48648
 -15357865.65549 -11967166.78849  19223429.80049  19223429.72649  19223430.37649
 -12643558.84948  -9852122.68248  19446354.32149  19446354.09048  19446354.25948
    -14179.39646    -11040.86546  24929897.99748  24929897.91146  24929894.70246
  -7077781.67447  -5515154.45247  20682572.21548  20682571.84747  20682574.45847
  -2246625.70046  -1750617.83446  23849048.13448  23849048.61746  23849048.68046
    454202.54747    353924.20748  22692911.36448  22692911.96847  22692912.31748
 08 10 24 19 52 40.0000000  0  8 03 06 16 21 23 24 25 31
   -397055.42846   -309406.99347  23478394.84148  23478394.11146  23478397.21247
  -2828802.60047  -2204260.56848  21854172.41048  21854172.38647  21854174.29348
 -15290075.30749 -11914343.14249  19236329.91849  19236329.83649  19236330.46549
 -12639018.74248  -9848584.93448  19447218.24449  19447217.99748  19447218.22248
    174335.48746    135853.84546  24965771.19148  24965770.22446  24965768.93646
  -7310828.37747  -5696749.28847  20638224.88748  20638224.38047  20638227.20747
  -2373463.75346  -1849453.08446  23824911.25848  23824910.13846  23824911.91146
    810565.65647    631609.74448  22760725.15548  22760725.14047  22760725.99548
 08 10 24 19 52 50.0000000  0  8 03 06 16 21 23 24 25 31
   -147429.18646   -114893.02647  23525896.61448  23525896.89446  23525899.59247
  -2590692.13947  -2018719.92448  21899483.33848  21899483.18347  21899485.27648
 -15217867.06249 -11858076.97749  19250070.65749  19250070.59349  19250071.24649
 -12631540.19148  -9842757.49248  19448641.34049  19448641.14948  19448641.36148
    364966.60846    284397.55946  25002046.90048  25002046.67146  25002045.26546
  -7541737.65547  -5876678.59648  20594284.32248  20594284.09447  20594286.72948
  -2497688.77446  -1946251.68146  23801272.03148  23801271.11546  23801273.21946
   1168444.43947    910476.33548  22828827.15648  22828827.63947  22828828.18648
 08 10 24 19 53 00.0000000  0  8 03 06 16 21 23 24 25 31
    103389.91146     80550.44347  23573626.34048  23573626.60846  23573628.76147
  -2350851.57347  -1831831.15548  21945123.45848  21945123.20447  21945125.11248
 -15141254.51549 -11798378.89249  19264649.51349  19264649.46849  19264650.14449
 -12621123.67148  -9834640.72448  19450623.55949  19450623.33648  19450623.50048
    557683.68646    434566.70046  25038719.64048  25038720.14946  25038717.84846
  -7770481.01147  -6054920.17148  20550755.77548  20550755.76847  20550758.26848
  -2619275.02746  -2040994.30846  23778134.27648  23778134.42246  23778135.20846
   1527784.98147   1190481.95348  22897207.51548  22897207.81347  22897208.20548
 08 10 24 19 53 10.0000000  0  8 03 06 16 21 23 24 25 31
    355383.52646    276909.10947  23621579.31648  23621578.85446  23621581.18247
  -2109302.90347  -1643611.40148  21991088.56948  21991088.35847  21991090.57348
 -15060248.73149 -11735257.50149  19280064.35949  19280064.42849  19280064.98549
 -12607766.49248  -9824232.53248  19453165.33249  19453165.13648  19453165.34848
    752460.00246    586340.44046  25075784.52348  25075783.84946  25075782.20746
  -7997026.51147  -6231449.13048  20507645.83348  20507645.51447  20507648.07448
  -2738194.27146  -2133658.63246  23755505.07048  23755506.15046  23755505.24746
   1888536.92547   1471587.36548  22965856.22348  22965856.58447  22965857.33548
 08 10 24 19 53 20.0000000  0  8 03 06 16 21 23 24 25 31
    608531.62346    474167.37347  23669751.50148  23669751.84746  23669753.91247
  -1866069.17747  -1454078.61648  22037374.44248  22037374.54847  22037376.21348
 -14974863.23849 -11668723.35149  19296312.73649  19296312.65349  19296313.38949
 -12591468.03948  -9811532.43948  19456266.82549  19456266.66548  19456266.79148
    949266.79746    739696.37546  25113235.27148  25113235.62046  25113233.02046
  -8221343.81647  -6406241.83048  20464959.51148  20464959.35147  20464961.99248
  -2854419.78746  -2224223.95546  23733388.41148  23733389.13446  23733389.51946
   2250648.89947   1753752.54148  23034763.64948  23034764.40647  23034764.87148
 08 10 24 19 53 30.0000000  0  8 03 06 16 21 23 24 25 31
    862814.05446    672309.55947  23718140.08048  23718139.60946  23718141.99947
  -1621174.18747  -1263251.33748  22083976.16748  22083976.26347  22083978.38348
 -14885112.65149 -11598787.82949  19313391.66549  19313391.61949  19313392.37149
 -12572228.05948  -9796540.24848  19459928.11549  19459927.90948  19459928.12048
   1148075.03546    894611.85646  25151067.29948  25151067.99146  25151065.25146
  -8443402.74447  -6579274.76448  20422703.26248  20422702.95647  20422705.52248
  -2967925.56346  -2312669.15246  23711789.14848  23711787.66846  23711790.19746
   2614069.71347   2036937.59148  23103920.54948  23103920.50947  23103921.61248
 08 10 24 19 53 40.0000000  0  8 03 06 16 21 23 24 25 31
   1118209.06946    871318.68247  23766740.12048  23766739.90546  23766742.20647
  -1374643.06047  -1071149.15048  22130889.73948  22130889.70347  22130891.62048
 -14791014.25249 -11525464.40049  19331298.01149  19331297.98749  19331298.61149
 -12550048.52148  -9779257.49148  19464148.69749  19464148.54448  19464148.70848
   1348853.75046   1051062.80246  25189274.04148  25189275.06046  25189271.79846
  -8663174.96147  -6750525.84248  20380881.87448  20380881.60547  20380884.46248
  -3078687.87146  -2398976.25246  23690711.39748  23690710.70446  23690711.96646
   2978746.71847   2321101.48948  23173316.30948  23173316.75447  23173317.36348
 08 10 24 19 53 50.0000000  0  8 03 06 16 21 23 24 25 31
   1374694.73846   1071177.65347  23815547.84848  23815547.77146  23815549.41447
  -1126501.36847   -877791.97348  22178109.44448  22178109.30347  22178111.56448
 -14692586.44349 -11448767.40549  19350028.10149  19350028.16549  19350028.89249
 -12524932.16148  -9759686.30448  19468928.23749  19468928.05548  19468928.20048
   1551571.34846   1209024.58746  25227849.82548  25227850.79746  25227848.48646
  -8880632.39047  -6919973.18948  20339501.06648  20339500.93447  20339503.43548
  -3186683.38446  -2483129.19946  23670159.89448  23670159.63546  23670161.52746
   3344627.35447   2606203.30148  23242940.95948  23242941.22347  23242942.07548
 08 10 24 19 54 00.0000000  0  8 03 06 16 21 23 24 25 31
   1632248.28746   1271868.75247  23864557.95148  23864557.97446  23864560.46647
   -876775.21347   -683200.15548  22225630.57348  22225630.70247  22225632.71248
 -14589849.06149 -11368712.30049  19369578.42749  19369578.43749  19369579.10749
 -12496882.61748  -9737829.51648  19474265.85549  19474265.66848  19474265.89248
   1756195.75746   1368472.13846  25266788.64648  25266788.29846  25266786.17346
  -9095747.70748  -7087595.51248  20298566.11648  20298565.96248  20298568.41648
  -3291890.10246  -2565110.87646  23650140.08848  23650140.57346  23650142.43446
   3711658.93847   2892201.92548  23312784.65848  23312785.46247  23312785.79448
 08 10 24 19 54 10.0000000  0  8 03 06 16 21 23 24 25 31
   1890848.06146   1473375.07247  23913767.90448  23913767.92946  23913770.73147
   -625489.92647   -487393.42748  22273448.66248  22273448.93247  22273450.69948
 -14482821.96949 -11285314.56349  19389944.95249  19389944.99749  19389945.66749
 -12465902.87348  -9713689.45448  19480161.15349  19480160.90448  19480161.03548
   1962695.40146   1529381.00346  25306084.23048  25306082.01846  25306083.13246
  -9308492.72948  -7253370.85048  20258082.13348  20258081.90748  20258084.40448
  -3394285.41646  -2644898.63846  23630654.19748  23630651.79346  23630656.68446
   4079789.95046   3179057.26048  23382837.77648  23382837.96746  23382838.75648
 08 10 24 19 54 20.0000000  0  8 03 06 16 21 23 24 25 31
   2150474.04146   1675681.04547  23963173.39348  23963173.36346  23963175.24847
   -372669.26547   -290390.30548  22321558.78048  22321558.99047  22321560.84448
 -14371524.54049 -11198589.29249  19411124.17249  19411124.11749  19411124.86049
 -12431995.06648  -9687267.78648  19486613.64649  19486613.32748  19486613.50948
   2171040.08446   1691731.13246  25345730.20048  25345730.68146  25345730.01646
  -9518837.95548  -7417276.22948  20218054.69048  20218054.47748  20218057.00848
  -3493845.86546  -2722481.09546  23611709.61148  23611709.32246  23611712.36846
   4448970.68946   3466730.57047  23453090.43848  23453090.88446  23453091.74147
 08 10 24 19 54 30.0000000  0  8 03 06 16 21 23 24 25 31
   2411106.77146   1878771.49747  24012770.06148  24012770.84446  24012772.26547
   -118336.35047    -92208.80148  22369956.80748  22369956.63047  22369958.86248
 -14255976.10349 -11108551.54749  19433112.32449  19433112.29449  19433112.98149
 -12395160.99348  -9658565.90848  19493622.90249  19493622.65048  19493622.77748
   2381200.07846   1855494.57246  25385722.91547  25385721.31246  25385723.41546
  -9726753.19648  -7579288.10448  20178489.74748  20178489.38248  20178491.98248
  -3590547.74146  -2797832.09746  23593307.15948  23593308.24046  23593309.29446
   4819152.69046   3755184.07447  23523533.65948  23523534.04546  23523534.93647
 08 10 24 19 54 40.0000000  0  8 03 06 16 21 23 24 25 31
   2672724.93546   2082629.82447  24062554.46748  24062554.85546  24062556.34847
    137483.97347    107131.71848  22418637.61648  22418637.98847  22418639.97248
 -14136198.70949 -11015218.51349  19455905.18749  19455905.13049  19455905.86649
 -12355404.80748  -9627587.06248  19501188.20849  19501188.05948  19501188.14048
   2593143.53746   2020646.00846  25426054.13547  25426056.07046  25426054.21746
  -9932210.24748  -7739384.51148  20139392.56248  20139392.58748  20139394.90948
  -3684369.46446  -2870938.98246  23575453.51648  23575455.88946  23575454.25346
   5190285.82646   4044378.73347  23594157.99448  23594158.49246  23594159.24547
 08 10 24 19 54 50.0000000  0  7 03 06 16 21 24 25 31
   2935307.68246   2287239.77847  24112521.99848  24112522.22546  24112524.09047
    394767.05147    307612.04548  22467597.19248  22467597.24347  22467599.25848
 -14012215.22749 -10918608.00749  19479498.46149  19479498.44549  19479499.13049
 -12312730.89748  -9594334.66448  19509308.75549  19509308.59148  19509308.73948
 -10135180.97248  -7897543.52248  20100768.64348  20100768.41748  20100770.79848
  -3775290.14446  -2941786.24346  23558152.18648  23558151.80146  23558152.27246
   5562320.49946   4334275.87447  23664953.78448  23664954.83646  23664955.14447
 08 10 24 19 55 00.0000000  0  7 03 06 16 21 24 25 31
   3198833.41246   2492584.50747  24162669.63348  24162668.47546  24162671.83147
    653487.46947    509212.37648  22516829.79448  22516830.35347  22516831.94248
 -13884049.63849 -10818738.71949  19503887.64549  19503887.62649  19503888.23149
 -12267144.45748  -9558812.76448  19517983.60349  19517983.38048  19517983.65948
 -10335637.71048  -8053743.57648  20062622.92748  20062622.89248  20062625.30448
  -3863289.49546  -3010357.16446  23541406.52148  23541406.41846  23541407.93946
   5935207.17346   4624836.91047  23735911.95748  23735912.62946  23735913.10047
 08 10 24 19 55 10.0000000  0  7 03 06 16 21 24 25 31
   3463280.55246   2698647.22347  24212992.08048  24212991.44846  24212994.10447
    913620.05547    711913.08648  22566331.36848  22566331.82847  22566333.35348
 -13751726.86349 -10715630.06348  19529067.89149  19529067.77849  19529068.40348
 -12218651.19948  -9521025.80948  19527211.52149  19527211.32148  19527211.51548
 -10533553.19548  -8207963.43648  20024960.77848  20024960.67548  20024963.31248
  -3948348.17046  -3076636.69146  23525220.42048  23525219.78546  23525222.05546
   6308896.42346   4916023.31947  23807022.76048  23807023.39346  23807023.60547
 08 10 24 19 55 20.0000000  0  7 03 06 16 21 24 25 31
   3728626.67946   2905410.43646  24263485.96048  24263485.68646  24263487.89946
   1175138.62847    915693.79648  22616096.67548  22616097.05747  22616098.89248
 -13615273.58549 -10609302.83448  19555034.06249  19555033.98249  19555034.56848
 -12167258.32948  -9480979.41648  19536991.25749  19536991.01848  19536991.25048
 -10728901.17748  -8360182.64248  19987787.22248  19987787.09548  19987789.73748
  -4030448.12846  -3140610.66046  23509596.89048  23509598.25646  23509598.27146
   6683338.28146   5207796.21247  23878276.57448  23878277.51046  23878277.65847
 08 10 24 19 55 30.0000000  0  7 03 06 16 21 24 25 31
   3994699.39046   3112739.82746  24314117.75848  24314118.26546  24314119.95546
   1437867.05447   1120417.24547  22666092.48748  22666092.55347  22666094.20447
 -13474867.10749 -10499895.19348  19581752.49649  19581752.53249  19581753.11548
 -12113123.10848  -9438796.12948  19547292.80049  19547292.63448  19547292.88448
 -10921805.42248  -8510497.63948  19951078.73848  19951078.65648  19951081.17148
  -4109721.79546  -3202382.37146  23494512.14648  23494511.86046  23494513.17146
   7058333.44246   5500000.23347  23949635.78848  23949636.66046  23949637.08747
 08 10 24 19 55 40.0000000  0  7 03 06 16 21 24 25 31
   4260729.19346   3320035.78546  24364741.15448  24364741.51146  24364743.22846
   1701032.02247   1325480.86747  22716170.99048  22716171.29947  22716172.99647
 -13331282.82349 -10388011.34248  19609075.64649  19609075.72749  19609076.19048
 -12057000.42048  -9395064.16748  19557972.55149  19557972.43748  19557972.67148
 -11112987.24548  -8659470.48948  19914698.24848  19914698.01348  19914700.51148
  -4186899.50746  -3262520.85946  23479825.71348  23479824.86946  23479826.45046
   7433085.52146   5792014.85447  24020949.02148  24020948.93346  24020949.86747
 08 10 24 19 55 50.0000000  0  7 03 06 16 21 24 25 31
   4527339.32646   3527783.93946  24415475.34348  24415475.47746  24415477.75646
   1965252.96647   1531367.31547  22766450.78448  22766450.61747  22766452.57547
 -13183904.08449 -10273170.77048  19637120.91949  19637120.91349  19637121.46348
 -11998253.10948  -9349287.03948  19569151.89649  19569151.59448  19569151.86948
 -11301775.42548  -8806578.16448  19878772.93148  19878772.92648  19878775.46848
  -4261319.32046  -3320510.33446  23465664.37348  23465664.09246  23465665.26446
   7808191.26746   6084305.02847  24092328.85748  24092329.37246  24092330.20547
 08 10 24 19 56 00.0000000  0  7 03 06 16 21 24 25 31
   4794605.36546   3736043.20346  24466334.48148  24466335.08146  24466336.72346
   2230601.59747   1738132.49047  22816945.00648  22816944.88047  22816946.79147
 -13032662.65049 -10155320.30548  19665901.18049  19665901.14549  19665901.77248
 -11936791.98448  -9301395.25848  19580847.54749  19580847.34148  19580847.50948
 -11488046.47048  -8951724.43448  19843326.81548  19843326.65848  19843329.17348
  -4332867.48546  -3376262.15546  23452048.85248  23452047.79546  23452049.63646
   8183700.13646   6376909.35447  24163786.04148  24163786.06646  24163787.36147
 08 10 24 19 56 10.0000000  0  7 03 06 16 21 24 25 31
   5062629.77546   3944893.41346  24517337.99948  24517338.10946  24517340.34146
   2497176.57946   1945853.24747  22867672.46448  22867672.58046  22867674.04347
 -12877464.17649 -10034386.42948  19695434.49549  19695434.46849  19695435.04448
 -11872501.45648  -9251298.74048  19593081.56949  19593081.41348  19593081.62548
 -11671650.34648  -9094792.38948  19808388.11748  19808387.96748  19808390.44748
  -4401404.09146  -3429667.29446  23439006.46348  23439006.64346  23439007.21946
   8559688.88546   6669887.60047  24235334.18948  24235335.45046  24235335.88547
 08 10 24 19 56 20.0000000  0  7 03 06 16 21 24 25 31
   5331390.53946   4154317.40046  24568481.08948  24568481.93946  24568483.93446
   2764952.14046   2154509.54347  22918628.34948  22918628.56046  22918630.14047
 -12718339.63749  -9910393.27848  19725714.88849  19725714.80449  19725715.55048
 -11805390.87248  -9199004.77848  19605852.37149  19605852.15548  19605852.35248
 -11852561.82448  -9235762.37348  19773961.80648  19773961.72048  19773964.15148
  -4466914.41946  -3480714.32346  23426540.53848  23426538.94046  23426541.46146
   8936109.87946   6963202.65047  24306964.88748  24306965.19046  24306965.66447
 08 10 24 19 56 30.0000000  0  7 03 06 16 21 24 25 31
   5600865.87846   4364298.15546  24619760.40948  24619761.42046  24619763.27446
   3033902.69746   2364081.40447  22969808.12248  22969808.20646  22969809.63747
 -12555320.26549  -9783365.19448  19756736.43849  19756736.34349  19756737.06648
 -11735469.65048  -9144520.71048  19619157.96149  19619157.75048  19619157.99348
 -12030755.56848  -9374614.64048  19740052.59548  19740052.47548  19740055.16548
  -4529383.87546  -3529391.78746  23414653.06248  23414653.66246  23414654.23246
   9312916.43646   7256818.12847  24378668.72048  24378670.23446  24378669.91347
 08 10 24 19 56 40.0000000  0  7 03 06 16 21 24 25 31
   5871037.83046   4574821.76246  24671172.55648  24671172.85946  24671174.59746
   3304006.23846   2574551.69147  23021207.23848  23021207.03246  23021208.80447
 -12388434.29849  -9653324.18348  19788493.73349  19788493.74449  19788494.42248
 -11662743.90948  -9087851.30348  19632997.13649  19632996.92548  19632997.24548
 -12206202.91748  -9511326.86648  19706666.09048  19706666.00448  19706668.56248
  -4588794.94046  -3575686.15046  23403347.30448  23403347.14646  23403347.74146
   9690065.60846   7550700.61147  24450438.00148  24450438.14446  24450438.50247
 08 10 24 19 56 50.0000000  0  8 03 06 10 16 21 24 25 31
   6141887.89246   4785873.78646  24722713.88148  24722713.98646  24722715.79546
   3575240.58546   2785903.14047  23072821.36848  23072821.03246  23072823.05447
   -366388.26156   -285497.51056  22320234.89958  22320234.58556  22320236.53556
 -12217711.13548  -9520293.14248  19820981.33649  19820981.26848  19820981.93548
 -11587220.65648  -9029002.01848  19647368.79849  19647368.55748  19647368.90448
 -12378875.87748  -9645877.22848  19673807.45848  19673807.35048  19673810.02248
  -4645131.21246  -3619584.54646  23392627.23448  23392627.62546  23392627.87846
  10067514.66746   7844816.75947  24522264.00348  24522264.60546  24522264.91547
 08 10 24 19 57 00.0000000  0  8 03 06 10 16 21 24 25 31
   6413401.54146   4997442.87446  24774381.21548  24774380.87546  24774383.06446
   3847587.41746   2998121.45147  23124647.30348  23124646.67046  23124648.67147
   -669489.02546   -521679.94646  22262556.55148  22262555.62246  22262557.44446
 -12043177.09348  -9384292.59648  19854193.98849  19854193.94948  19854194.68848
 -11508903.31148  -8967975.51548  19662272.05449  19662271.87348  19662272.04248
 -12548742.79648  -9778241.06448  19641482.94648  19641482.84148  19641485.39148
  -4698372.81246  -3661071.51346  23382495.36948  23382496.07846  23382496.46046
  10445225.10846   8139136.57846  24594139.98948  24594140.49346  24594140.80346
 08 10 24 19 57 10.0000000  0  8 03 06 10 16 21 24 25 31
   6685563.85246   5209517.39246  24826172.01748  24826171.27846  24826174.41546
   4121027.90346   3211191.96947  23176681.12148  23176681.19546  23176682.91447
   -970521.46346   -756250.67446  22205272.19548  22205271.65746  22205273.62946
 -11864859.27948  -9245343.65548  19888126.80449  19888126.66548  19888127.42148
 -11427796.38548  -8904775.31448  19677706.30549  19677705.96948  19677706.23948
 -12715772.77548  -9908394.29948  19609698.18648  19609698.22648  19609700.64748
  -4748501.16446  -3700132.56446  23372956.48448  23372956.00046  23372957.67146
  10823158.12646   8433629.83446  24666058.47848  24666058.20146  24666059.73546
 08 10 24 19 57 20.0000000  0  8 03 06 10 16 21 24 25 31
   6958362.28646   5422087.52046  24878083.63648  24878083.61146  24878087.05946
   4395545.57546   3425101.82447  23228919.95748  23228920.42346  23228921.61947
  -1269438.10446   -989172.72046  22148389.87748  22148389.29346  22148391.47446
 -11682782.98348  -9103466.03648  19922774.72849  19922774.63848  19922775.35448
 -11343902.44948  -8839403.43148  19693670.68949  19693670.54848  19693670.77948
 -12879932.89948 -10036311.27848  19578459.45848  19578459.47448  19578461.92548
  -4795495.81746  -3736751.77746  23364013.38148  23364013.00446  23364015.07346
  11201277.64846   8728268.44246  24738011.90248  24738011.62946  24738012.64446
 08 10 24 19 57 30.0000000  0  8 03 06 10 16 21 24 25 31
   7231783.50246   5635144.09946  24930114.34048  24930113.90246  24930116.73546
   4671123.23146   3639837.67247  23281360.60148  23281360.38846  23281362.33647
  -1566192.23946  -1220409.71746  22091919.61548  22091918.70646  22091920.86946
 -11496975.03248  -8958680.61448  19958132.80549  19958132.74948  19958133.37848
 -11257224.91948  -8771862.49548  19710164.91549  19710164.68148  19710164.91948
 -13041191.33048 -10161967.19848  19547773.06049  19547773.04748  19547775.64948
  -4839337.88346  -3770914.43646  23355670.73548  23355671.83746  23355671.22546
  11579547.35146   9023024.00646  24809994.44848  24809995.39746  24809995.16146
 08 10 24 19 57 40.0000000  0  8 03 06 10 16 21 24 25 31
   7505812.76546   5848673.37246  24982260.01848  24982259.91746  24982261.93946
   4947742.27646   3855384.98847  23333999.54248  23334000.27146  23334001.65847
  -1860738.74846  -1449926.46946  22035869.41548  22035868.73546  22035870.80446
 -11307464.48148  -8811010.05148  19994195.44549  19994195.41348  19994196.11448
 -11167769.54048  -8702157.00448  19727187.62549  19727187.45248  19727187.71148
 -13199518.10948 -10285338.71848  19517644.48149  19517644.43448  19517647.02248
  -4880010.66846  -3802607.52346  23347930.66548  23347931.73046  23347932.39346
  11957929.58146   9317867.27046  24881998.15048  24881998.55646  24881998.89246
 08 10 24 19 57 50.0000000  0  8 03 06 10 16 21 24 25 31
   7780434.51946   6062664.35346  25034519.02448  25034520.13746  25034520.25846
   5225383.46646   4071728.77047  23386833.18048  23386833.50746  23386834.94947
  -2153033.14846  -1677688.35846  21980247.33648  21980246.81646  21980249.18446
 -11114281.41948  -8660477.79048  20030956.99249  20030956.92748  20030957.61448
 -11075542.58148  -8630291.84648  19744737.82849  19744737.63248  19744737.84548
 -13354884.15048 -10406403.16448  19488079.25249  19488079.28248  19488081.71148
  -4917498.78846  -3831819.03946  23340796.99248  23340797.27846  23340798.63646
  12336386.56046   9612768.82946  24954016.27448  24954016.43146  24954017.04246
 08 10 24 19 58 00.0000000  0  8 03 06 10 16 21 24 25 31
   8055631.82646   6277103.80646  25086887.20048  25086888.56946  25086889.04846
   5504025.99546   4288852.81147  23439856.79248  23439857.29046  23439858.86147
  -2443032.63346  -1903661.97846  21925062.35148  21925061.53746  21925063.97146
 -10917458.06548  -8507108.94648  20068411.19449  20068411.07248  20068411.89948
 -10980552.51848  -8556273.61148  19762813.80949  19762813.63448  19762813.91848
 -13507262.29748 -10525139.38748  19459082.83849  19459082.66948  19459085.22348
  -4951788.79346  -3858538.54546  23334271.97848  23334272.14146  23334273.15546
  12714879.23946   9907698.17746  25026040.71348  25026041.75646  25026042.09446
 08 10 24 19 58 10.0000000  0  9 03 06 07 10 16 21 24 25 31
   8331385.90246   6491977.16146  25139361.37548  25139360.59546  25139363.15846
   5783647.12246   4506739.40247  23493067.30448  23493066.59046  23493068.41247
   -146533.99156   -114150.13556  24834359.90157  24834358.77256  24834358.84856
  -2730696.26147  -2127815.45246  21870321.74448  21870321.32047  21870323.68746
 -10717029.08148  -8350930.52048  20106551.55549  20106551.61148  20106552.20648
 -10882810.14748  -8480110.72848  19781413.62049  19781413.37248  19781413.68848
 -13656627.74348 -10641528.06148  19430659.48049  19430659.32948  19430662.01748
  -4982870.21246  -3882757.80446  23328357.75048  23328357.37846  23328358.08846
  13093366.91346  10202623.57446  25098065.06148  25098065.01746  25098065.16546
 08 10 24 19 58 20.0000000  0  9 03 06 07 10 16 21 24 25 31
   8607679.11046   6707270.52646  25191938.08848  25191937.90446  25191940.37946
   6064225.39946   4725371.82647  23546459.08048  23546459.58446  23546461.29447
   -277392.74846   -216107.47046  24809460.35247  24809462.08746  24809462.05746
  -3015981.96247  -2350116.00446  21816033.76948  21816032.93447  21816035.74246
 -10513028.52348  -8191969.04548  20145371.58149  20145371.56148  20145372.28848
 -10782325.54148  -8401811.02948  19800535.21549  19800534.93348  19800535.26848
 -13802954.80148 -10755549.14748  19402814.47849  19402814.27748  19402816.68848
  -5010731.92846  -3904468.23446  23323055.53548  23323057.10446  23323056.41046
  13471810.67446  10497513.89246  25170079.19148  25170080.68546  25170080.71946
 08 10 24 19 58 30.0000000  0  9 03 06 07 10 16 21 24 25 31
   8884492.71546   6922969.43446  25244614.31048  25244615.64746  25244616.36046
   6345738.31946   4944732.54347  23600029.37248  23600028.76846  23600031.57247
   -405982.56446   -316306.36746  24784991.37347  24784993.06046  24784991.99846
  -3298848.86247  -2570531.76847  21762205.91248  21762205.43247  21762207.57247
 -10305491.96848  -8030252.25448  20184864.48449  20184864.42348  20184865.19948
 -10679110.13148  -8321383.44148  19820176.39949  19820176.25748  19820176.43948
 -13946219.35848 -10867183.86448  19375552.02449  19375551.96648  19375554.45148
  -5035364.61346  -3923662.56246  23318368.31848  23318367.85546  23318369.58746
  13850170.42846  10792338.70646  25242079.47748  25242080.30346  25242080.74746
 08 10 24 19 58 40.0000000  0  8 03 06 10 16 21 24 25 31
   9161812.34146   7139061.67046  25297386.31148  25297387.14246  25297388.16646
   6628167.67246   5164807.34847  23653773.75148  23653774.34046  23653775.79047
  -3579252.08047  -2789027.78546  21708847.03148  21708846.69847  21708848.83146
 -10094451.23548  -7865804.92848  20225024.23849  20225024.20448  20225024.90148
 -10573171.45048  -8238833.82548  19840335.86749  19840335.71648  19840335.93848
 -14086393.35948 -10976410.36248  19348877.87149  19348877.74448  19348880.27348
  -5056755.38246  -3940330.69546  23314297.36448  23314296.61046  23314298.16946
  14228410.91246  11087071.48146  25314056.24748  25314058.07146  25314057.04646
 08 10 24 19 58 50.0000000  0  8 03 06 10 16 21 24 25 31
   9439624.21146   7355538.43946  25350252.36848  25350251.73846  25350254.64446
   6911495.86346   5385582.57646  23707689.53548  23707689.17346  23707691.78146
  -3857145.96247  -3005568.48347  21655965.46448  21655964.77047  21655967.41247
  -9879937.93648  -7698651.70848  20265844.72349  20265844.68648  20265845.42448
 -10464516.86048  -8154167.92048  19861012.21249  19861012.06848  19861012.24248
 -14223448.55448 -11083206.62248  19322796.95149  19322796.97348  19322799.46448
  -5074891.23946  -3954462.55946  23310846.68148  23310846.25246  23310847.29446
  14606497.84246  11381684.63946  25386003.81248  25386005.14746  25386004.50746
 08 10 24 19 59 00.0000000  0  8 03 06 10 16 21 24 25 31
   9717912.06246   7572386.09946  25403208.70148  25403209.20846  25403210.35146
   7195702.89946   5607042.60146  23761772.23548  23761773.19646  23761774.31346
  -4132487.63647  -3220120.43247  21603569.95848  21603569.16247  21603571.57747
  -9661986.60148  -7528819.50348  20307319.55249  20307319.51948  20307320.18248
 -10353156.39948  -8067393.51848  19882203.37149  19882203.20248  19882203.45748
 -14357359.57748 -11187552.87848  19297314.62849  19297314.55948  19297317.12848
  -5089762.73846  -3966050.73446  23308016.65548  23308016.87846  23308017.72146
  14984394.77446  11676150.21646  25457915.07747  25457916.44846  25457915.71446
 08 10 24 19 59 10.0000000  0  8 03 06 10 16 21 24 25 31
   9996656.51246   7789589.58946  25456251.75248  25456253.40446  25456254.38646
   7480765.60946   5829169.38346  23816018.21348  23816018.48446  23816019.54246
  -4405237.67947  -3432652.94347  21551667.22948  21551666.45947  21551668.40347
  -9440635.37848  -7356338.02748  20349441.33949  20349441.21548  20349442.01248
 -10239103.87248  -7978521.43448  19903906.83049  19903906.59848  19903906.97548
 -14488104.66848 -11289432.17648  19272434.71749  19272434.52148  19272437.09448
  -5101364.03746  -3975090.70546  23305808.88848  23305808.64446  23305810.55146
  15362062.38446  11970435.73746  25529783.26847  25529782.16746  25529784.10546
 08 10 24 19 59 20.0000000  0  8 03 06 10 16 21 24 25 31
  10275837.09646   8007132.89346  25509378.44848  25509380.03746  25509381.18646
   7766659.79746   6051944.07246  23870421.48148  23870421.30146  23870423.28646
  -4675357.76447  -3643136.12147  21500265.13848  21500264.46447  21500267.01547
  -9215924.05048  -7181238.29948  20392202.46849  20392202.37548  20392203.06948
 -10122374.34048  -7887563.36748  19926119.69549  19926119.53448  19926119.86148
 -14615663.61748 -11388828.75148  19248161.06249  19248161.03148  19248163.35548
  -5109691.17146  -3981579.36146  23304224.07648  23304222.90746  23304225.66846
  15739460.79546  12264522.93546  25601598.56247  25601597.60046  25601598.72346
 08 10 24 19 59 30.0000000  0  9 03 06 07 10 16 21 24 25 31
  10555431.51246   8224998.69246  25562583.48848  25562582.51746  25562585.18946
   8053359.12546   6275346.14646  23924978.57248  23924979.67846  23924980.52146
   -125989.84456    -98175.22156  24647532.70158  24647533.24856  24647533.18456
  -4942811.63347  -3851541.74447  21449370.38448  21449369.78047  21449371.91847
  -8987894.65648  -7003553.05648  20435594.97949  20435595.00948  20435595.58848
 -10002985.42048  -7794533.05848  19948838.65849  19948838.55148  19948838.86848
 -14740018.73648 -11485728.84348  19224497.07349  19224496.94248  19224499.42748
  -5114742.91746  -3985515.81146  23303262.80648  23303262.49946  23303264.34146
  16116548.17946  12558361.12446  25673361.10047  25673360.60546  25673365.11046
 08 10 24 19 59 40.0000000  0  8 03 06 07 10 16 21 24 25
  10835417.32246   8443169.45246  25615863.39748  25615863.56246  25615865.42746
   8340837.53646   6499355.28546  23979683.93248  23979683.88946  23979686.23946
   -237969.36346   -185432.04346  24626224.02048  24626221.76646  24626222.87646
  -5207563.40747  -4057841.82247  21398989.50648  21398989.23947  21398991.35447
  -8756589.67148  -6823315.40548  20479610.86449  20479610.88148  20479611.44848
  -9880954.89248  -7699444.32648  19972060.28949  19972060.12348  19972060.50748
 -14861152.77548 -11580119.00548  19201446.01849  19201445.97248  19201448.37248
  -5116518.94446  -3986899.73146  23302925.01348  23302924.79846  23302926.93046
 08 10 24 19 59 50.0000000  0  9 03 06 07 10 13 16 21 24 25
  11115773.99046   8661629.19546  25669213.00148  25669212.69446  25669214.92946
   8629070.66446   6723952.51246  24034532.92348  24034533.77646  24034535.18646
   -347492.24246   -270773.76046  24605382.22648  24605382.24746  24605382.48146
  -5469575.20647  -4262006.86547  21349130.28348  21349129.86747  21349132.22847
    136696.36256    106513.86056  24670680.82757  24670680.52956  24670682.43556
  -8522050.00148  -6640557.22648  20524242.23949  20524242.28948  20524242.86948
  -9756299.18148  -7602310.00848  19995781.55349  19995781.26148  19995781.72648
 -14979046.91948 -11671984.57548  19179011.51649  19179011.51548  19179013.96548
  -5115017.52846  -3985729.78946  23303210.46948  23303210.75146  23303212.14846
 08 10 24 20 00 00.0000000  0  9 03 06 07 10 13 16 21 24 25
  11396486.01646   8880365.79246  25722631.12048  25722628.98246  25722633.03946
   8918039.39146   6949122.95546  24089522.09648  24089522.48446  24089524.09446
   -454533.93446   -354182.16846  24585012.23848  24585013.63546  24585012.00246
  -5728804.62747  -4464003.81347  21299800.74048  21299800.10947  21299802.59147
    263497.63246    205313.86246  24694809.88447  24694811.88146  24694807.61846
  -8284312.04548  -6455306.87448  20569482.24649  20569482.26148  20569482.89048
  -9629030.08448  -7503139.29948  20020000.01349  20019999.82048  20020000.25648
 -15093678.00648 -11761307.50148  19157197.98449  19157197.91548  19157200.33748
  -5110232.71846  -3982001.35746  23304121.18248  23304121.08746  23304122.15646
 08 10 24 20 00 10.0000000  0  9 03 06 07 10 13 16 21 24 25
  11677542.11846   9099370.54446  25776114.39348  25776113.52346  25776116.18646
   9207728.71646   7174854.87246  24144648.11948  24144648.63846  24144650.04246
   -559065.98846   -435635.17546  24565120.91748  24565120.14746  24565122.07946
  -5985205.08447  -4663796.38447  21251009.43748  21251008.92647  21251011.25247
    392692.81746    305982.83346  24719395.05247  24719395.91246  24719397.39246
  -8043408.15048  -6267589.55748  20615324.83749  20615324.73448  20615325.31448
  -9499155.09648  -7401938.01848  20044714.40649  20044714.16548  20044714.63248
 -15205019.15348 -11848066.83648  19136010.44849  19136010.36748  19136012.80348
  -5102155.07946  -3975707.12146  23305658.32448  23305658.15946  23305660.08046
 08 10 24 20 00 20.0000000  0  9 03 06 07 10 13 16 21 24 25
  11958933.56846   9318636.63046  25829661.09748  25829662.44346  25829663.65046
   9498126.18646   7401138.62046  24199908.52848  24199910.26546  24199910.26346
   -661057.86046   -515109.73246  24545712.39348  24545711.82446  24545713.23446
  -6238727.66947  -4861346.42947  21202765.71548  21202765.08947  21202767.58647
    524268.54446    408505.79646  24744432.91247  24744433.02046  24744432.31846
  -7799368.46748  -6077428.76648  20661764.02349  20661764.01548  20661764.59948
  -9366679.81548  -7298710.52648  20069923.69149  20069923.47048  20069923.85248
 -15313041.43648 -11932240.03948  19115454.38349  19115454.33448  19115456.93248
  -5090773.46346  -3966838.33746  23307824.10548  23307823.79146  23307825.33646
 08 10 24 20 00 30.0000000  0  9 03 06 07 10 13 16 21 24 25
  12240650.96246   9538155.40846  25883270.32948  25883270.40546  25883271.76846
   9789218.61346   7627963.88646  24255302.23248  24255302.68246  24255303.83246
   -760480.39746   -592582.46646  24526793.16448  24526794.15646  24526793.58946
  -6489324.93547  -5056617.01547  21155078.57648  21155078.24947  21155080.56747
    658208.79046    512871.75346  24769921.24247  24769923.32846  24769921.83146
  -7552224.40448  -5884848.98348  20708793.98649  20708793.91748  20708794.53348
  -9231611.04048  -7193462.11948  20095626.37549  20095626.16448  20095626.59548
 -15417717.21348 -12013805.57348  19095535.34549  19095535.24848  19095537.71048
  -5076078.19746  -3955387.49946  23310620.49148  23310620.98846  23310622.15446
 08 10 24 20 00 40.0000000  0  9 03 06 07 10 13 16 21 24 25
  12522681.25346   9757918.46346  25936939.03248  25936939.31746  25936940.30946
  10080989.41846   7855317.77146  24310824.12348  24310825.08846  24310825.28746
   -857308.47046   -668032.96146  24508367.29848  24508367.76946  24508368.36946
  -6736952.68247  -5249573.69447  21107956.71548  21107955.98547  21107958.42047
    794494.71046    619069.94546  24795856.64647  24795854.93646  24795859.18046
  -7302010.98548  -5689877.49148  20756408.03149  20756407.99948  20756408.63948
  -9093959.42948  -7086201.11648  20121820.55149  20121820.45248  20121820.80248
 -15519022.83348 -12092745.01948  19076257.50149  19076257.35748  19076259.89848
  -5058063.73146  -3941350.26646  23314048.75848  23314048.43546  23314050.43146
 08 10 24 20 00 50.0000000  0  9 03 06 07 10 13 16 21 24 25
  12805009.06946   9977910.62346  25990661.58748  25990659.95046  25990662.60446
  10373419.73946   8083185.53046  24366471.74548  24366472.97946  24366474.19346
   -951519.60746   -741444.12446  24490438.80848  24490439.33346  24490439.56946
  -6981569.63547  -5440184.30447  21061407.52348  21061406.87647  21061409.31147
    933104.06446    727086.39746  24822231.81348  24822233.44446  24822232.88546
  -7048765.98548  -5492543.73448  20804598.97849  20804598.89548  20804599.47048
  -8953738.04448  -6976937.68448  20148503.91849  20148503.68148  20148504.00948
 -15616937.55248 -12169042.20048  19057624.98349  19057624.85148  19057627.27248
  -5036727.84246  -3924724.89046  23318108.58948  23318108.53646  23318110.41746
 08 10 24 20 01 00.0000000  0  8 06 07 10 13 16 21 24 25
  10666487.82546   8311550.24146  24422240.48348  24422240.79646  24422242.74746
  -1043094.70946   -812803.46846  24473013.19348  24473014.34946  24473013.56246
  -7223137.51747  -5628419.00747  21015438.74748  21015438.02547  21015440.45247
   1074011.86646    836886.72246  24849045.69948  24849045.31446  24849045.88846
  -6792530.09448  -5292879.39948  20853359.02249  20853358.94448  20853359.53548
  -8810963.28848  -6865684.62948  20175672.94249  20175672.74948  20175673.13248
 -15711443.96948 -12242683.55948  19039640.95749  19039640.91548  19039643.30048
  -5012071.52346  -3905512.17746  23322800.58248  23322800.17246  23322801.79146
 08 10 24 20 01 10.0000000  0  8 06 07 10 13 16 21 24 25
  10960170.06846   8540393.56146  24478126.64648  24478126.70246  24478128.17946
  -1132017.21346   -882093.69146  24456091.86148  24456090.52146  24456092.04246
  -7461620.19147  -5814249.65547  20970056.66948  20970056.31047  20970058.78047
   1217190.52346    948456.88746  24876293.14348  24876289.03146  24876296.17946
  -6533346.24248  -5090917.95748  20902680.13549  20902680.01348  20902680.65948
  -8665653.61748  -6752456.31448  20203324.41749  20203324.33448  20203324.59548
 -15802527.19448 -12313657.49748  19022308.44249  19022308.33848  19022310.73748
  -4984098.70646  -3883715.18346  23328123.54348  23328123.89546  23328125.10246
 08 10 24 20 01 20.0000000  0  8 06 07 10 13 16 21 24 25
  11254443.41946   8769697.48346  24534125.24848  24534125.46146  24534127.02546
  -1218270.50146   -949304.07646  24439678.21848  24439678.42346  24439677.85846
  -7696981.51447  -5997648.08447  20925269.07148  20925268.73147  20925270.83747
   1362612.69446   1061783.69746  24903963.57447  24903964.85046  24903963.20946
  -6271257.15748  -4886692.69448  20952553.98549  20952553.87948  20952554.44548
  -8517827.47548  -6637267.10848  20231454.79249  20231454.63448  20231454.98348
 -15890172.48848 -12381952.51948  19005630.06949  19005629.98648  19005632.45148
  -4952813.42346  -3859337.04246  23334076.87348  23334076.43546  23334078.22546
 08 10 24 20 01 30.0000000  0  9 02 06 07 10 13 16 21 24 25
   -332489.32156   -259017.15255  25099311.29257  25099346.61156  25099337.32955
  11549283.09646   8999442.70046  24590230.40148  24590230.78346  24590232.94946
  -1301840.14846  -1014423.26046  24423775.21148  24423775.15046  24423776.27946
  -7929187.22347  -6178587.59548  20881081.82748  20881081.13047  20881083.82448
   1510248.97046   1176818.80046  24932058.73247  24932058.95446  24932063.09946
  -6006307.37648  -4680238.31848  21002972.16649  21002972.09548  21002972.79348
  -8367505.21048  -6520132.86848  20260060.17849  20260059.97148  20260060.33148
 -15974367.29448 -12447558.86348  18989608.24949  18989608.26348  18989610.73848
  -4918222.16046  -3832382.81646  23340659.69548  23340659.06846  23340660.81846
 08 10 24 20 01 40.0000000  0  9 02 06 07 10 13 16 21 24 25
   -634335.42346   -494197.02046  25041874.94147  25041915.88346  25041888.44946
  11844663.26146   9229609.05746  24646439.87848  24646440.85546  24646442.16846
  -1382713.59546  -1077441.56646  24408385.73548  24408386.04146  24408386.51146
  -8158204.69447  -6357042.77048  20837501.21048  20837500.36647  20837503.09748
   1660068.39246   1293560.53946  24960569.04047  24960571.80946  24960570.90546
  -5738543.03348  -4471590.77648  21053926.09048  21053926.14648  21053926.62948
  -8214708.79448  -6401070.71448  20289136.42449  20289136.29848  20289136.56548
 -16055100.85848 -12510468.13248  18974245.31849  18974245.17648  18974247.65748
  -4880333.48446  -3802859.17546  23347869.77248  23347869.07746  23347870.80546
 08 10 24 20 01 50.0000000  0  9 02 06 07 10 13 16 21 24 25
   -935765.70346   -729060.22946  24984512.76947  24984555.87246  24984513.70846
  12140558.54846   9460176.82046  24702746.55448  24702748.41546  24702747.81346
  -1460877.91046  -1138348.84246  24393511.67048  24393512.17946  24393512.23146
  -8384001.14147  -6532988.03648  20794533.47348  20794533.01047  20794535.58848
   1812040.07046   1411976.58246  24989487.87847  24989489.86946  24989489.77846
  -5468009.64748  -4260785.54348  21105406.88048  21105406.86448  21105407.33648
  -8059459.69348  -6280097.38948  20318679.32949  20318679.12048  20318679.48148
 -16132362.49748 -12570671.99848  18959542.82949  18959542.80648  18959545.17448
  -4839155.93846  -3770772.76846  23355705.66948  23355705.57646  23355706.83746
 08 10 24 20 02 00.0000000  0  9 02 06 07 10 13 16 21 24 25
  -1236625.17746   -963488.32646  24927263.21147  24927304.30046  24927260.41046
  12437082.59746   9691234.49646  24759173.75748  24759173.36046  24759175.40746
  -1536182.12346  -1197027.46946  24379181.85048  24379180.57146  24379182.22146
  -8606405.33747  -6706290.00948  20752211.43448  20752211.12247  20752213.28948
   1966271.61446   1532158.83446  25018837.20847  25018838.14246  25018836.01446
  -5194614.18648  -4047750.11548  21157432.38948  21157432.35848  21157432.82248
  -7901640.92048  -6157121.72148  20348711.29649  20348710.94448  20348711.42848
 -16206003.19548 -12628054.37348  18945529.53949  18945529.36248  18945531.76148
  -4794559.97646  -3736022.66446  23364191.22848  23364190.62246  23364193.39746
 08 10 24 20 02 10.0000000  0  8 06 07 10 13 16 21 24 25
  12734839.51446   9923252.86246  24815835.23448  24815836.25446  24815836.79946
  -1607985.48246  -1252977.04046  24365517.76848  24365516.86346  24365519.18846
  -8824755.73248  -6876433.15948  20710660.85048  20710660.19448  20710662.49848
   2123361.11546   1654566.91746  25048730.17547  25048734.01946  25048728.83646
  -4917773.27848  -3832029.92748  21210113.36548  21210113.30148  21210113.95148
  -7740645.29448  -6031670.59148  20379347.66649  20379347.55448  20379347.77048
 -16275384.02748 -12682117.35548  18932326.70849  18932326.70848  18932329.05048
  -4745926.35746  -3698126.36846  23373446.27048  23373446.64446  23373448.45246
 08 10 24 20 02 20.0000000  0  8 06 07 10 13 16 21 24 25
  13033064.61046  10155636.01346  24872585.37648  24872583.93846  24872587.08246
  -1677016.38146  -1306767.37746  24352381.65348  24352381.27746  24352382.77646
  -9039760.36548  -7043969.23248  20669746.83148  20669746.09048  20669748.48148
   2282536.99046   1778603.59946  25079020.07747  25079020.64446  25079022.30846
  -4638272.64648  -3614237.22448  21263300.54748  21263300.56148  21263301.14548
  -7577234.78348  -5904337.72248  20410443.63549  20410443.49048  20410443.82948
 -16341235.66048 -12733430.30348  18919795.62349  18919795.49148  18919797.90048
  -4694005.32146  -3657668.43446  23383326.54748  23383324.96246  23383327.37246
 08 10 24 20 02 30.0000000  0  8 06 07 10 13 16 21 24 25
  13331712.61046  10388348.72946  24929416.35748  24929416.93246  24929418.04446
  -1743284.42946  -1358404.79546  24339771.42048  24339772.53046  24339773.28346
  -9251408.08248  -7208889.52948  20629471.82848  20629471.04148  20629473.32748
   2443747.31846   1904222.36846  25109697.14647  25109695.82646  25109700.53246
  -4356178.59248  -3394423.67448  21316981.28048  21316981.27848  21316981.92048
  -7411452.26948  -5775156.53148  20441991.00449  20441990.85748  20441991.16448
 -16403569.95948 -12782002.47748  18907933.67749  18907933.72948  18907936.11148
  -4638828.64046  -3614673.58746  23393826.47648  23393826.57646  23393827.72246
 08 10 24 20 02 40.0000000  0  7 06 07 10 16 21 24 25
  13630759.71446  10621372.48946  24986322.85248  24986324.35246  24986324.80046
  -1806778.50146  -1407880.61946  24327688.13948  24327688.84246  24327688.25946
  -9459666.90748  -7371169.13148  20589841.26748  20589840.70048  20589843.03448
  -4071536.19548  -3172624.40148  21371146.89248  21371146.88048  21371147.45848
  -7243319.19048  -5644143.73448  20473985.59649  20473985.47548  20473985.91148
 -16462377.97048 -12827826.90148  18896742.99149  18896742.91948  18896745.31648
  -4580407.21246  -3569150.42746  23404943.59448  23404943.35746  23404944.63046
 08 10 24 20 02 50.0000000  0  7 06 07 10 16 21 24 25
  13930180.27946  10854687.23346  25043300.63848  25043301.61746  25043302.61746
  -1867489.62446  -1455188.97546  24316135.80648  24316134.80146  24316136.17046
  -9664506.98048  -7530784.77148  20550861.52848  20550861.06848  20550863.30748
  -3784392.41648  -2948875.99848  21425788.54948  21425788.58048  21425789.17548
  -7072859.43048  -5511317.93848  20506423.19249  20506422.81048  20506423.20748
 -16517653.09048 -12870898.42048  18886224.43949  18886224.48248  18886226.77848
  -4518754.31946  -3521109.19646  23416675.95048  23416675.33646  23416678.02346
 08 10 24 20 03 00.0000000  0  7 06 07 10 16 21 24 25
  14229950.72946  11088274.55746  25100345.19548  25100343.92346  25100346.71346
  -1925407.83946  -1500320.04946  24305114.15448  24305115.77346  24305115.67846
  -9865897.07648  -7687712.12048  20512538.23148  20512537.58548  20512540.03548
  -3494792.60648  -2723213.81048  21480897.55348  21480897.59148  21480898.06548
  -6900095.04548  -5376696.33048  20539298.94449  20539298.87448  20539299.25748
 -16569387.72248 -12911211.12748  18876379.70249  18876379.67648  18876382.02848
  -4453882.36946  -3470559.57946  23429020.46148  23429021.60046  23429021.37446
 08 10 24 20 03 10.0000000  0  7 06 07 10 16 21 24 25
  14530041.51746  11322111.49946  25157450.99648  25157450.20746  25157451.30446
  -1980529.47046  -1543270.41446  24294625.27348  24294624.16846  24294624.71846
 -10063812.52048  -7841931.94948  20474876.06548  20474875.55748  20474877.96048
  -3202787.98448  -2495677.73248  21536464.17048  21536464.15448  21536464.78148
  -6725054.10048  -5240300.79448  20572608.28549  20572608.08248  20572608.48248
 -16617580.61548 -12948764.02648  18867208.89349  18867208.81048  18867211.17748
  -4385810.37146  -3417516.48646  23441974.30748  23441973.78146  23441975.39146
 08 10 24 20 03 20.0000000  0  7 06 07 10 16 21 24 25
  14830420.75146  11556173.28246  25214611.77948  25214610.21646  25214612.84246
  -2032853.76246  -1584042.12446  24284668.21148  24284666.91546  24284669.64246
 -10258231.23548  -7993427.05048  20437879.48548  20437878.77348  20437881.43548
  -2908432.16948  -2266309.56248  21592478.27848  21592478.28248  21592478.92948
  -6547767.49648  -5102155.38648  20606344.73549  20606344.55148  20606344.85848
 -16662233.61148 -12983558.57948  18858711.66149  18858711.61948  18858714.10648
  -4314560.09246  -3361996.79346  23455532.86648  23455532.69346  23455533.73746
 08 10 24 20 03 30.0000000  0  8 06 07 10 13 16 21 24 25
  15131055.18346  11790433.46746  25271820.41248  25271822.55746  25271823.02146
  -2082382.20646  -1622636.57646  24275243.18248  24275243.13646  24275243.75846
 -10449133.52148  -8142182.07248  20401552.08248  20401551.52348  20401553.81048
    172701.27456    134562.17756  25301537.50357  25301537.46956  25301538.01656
  -2611780.38148  -2035152.32148  21648929.18648  21648929.08348  21648929.69848
  -6368267.88548  -4962285.56248  20640502.34248  20640502.20948  20640502.61948
 -16703350.60948 -13015597.79048  18850887.46449  18850887.37448  18850889.73748
  -4240155.70346  -3304019.35046  23469691.47848  23469691.12646  23469692.53246
 08 10 24 20 03 40.0000000  0  8 06 07 10 13 16 21 24 25
  15431914.55946  12024893.04046  25329072.01648  25329070.87946  25329076.09346
  -2129113.67646  -1659050.94046  24266350.75748  24266351.25946  24266350.82546
 -10636496.83548  -8288179.45848  20365897.90348  20365897.25248  20365899.74948
    347180.24646    270529.58346  25334739.65547  25334740.83546  25334741.78246
  -2312884.79748  -1802246.67048  21705807.12048  21705807.28448  21705807.69948
  -6186585.07248  -4820714.53848  20675075.46948  20675075.31648  20675075.58348
 -16740933.31048 -13044883.01448  18843735.69949  18843735.66348  18843737.95248
  -4162619.09046  -3243601.21046  23484446.16548  23484445.57646  23484447.51446
 08 10 24 20 03 50.0000000  0  8 06 07 10 13 16 21 24 25
  15732972.18446  12259493.84046  25386360.53448  25386358.95546  25386361.93546
  -2173044.43046  -1693283.58346  24257991.23348  24257990.19246  24257992.06946
 -10820295.86048  -8431399.47348  20330922.41048  20330921.48248  20330923.89248
    523401.24146    407843.32346  25368274.64247  25368273.12346  25368270.85646
  -2011794.34048  -1567630.72348  21763102.90448  21763102.68348  21763103.42148
  -6002745.40848  -4677462.85048  20710059.02148  20710058.84148  20710059.21448
 -16774980.57348 -13071413.34748  18837256.66349  18837256.67448  18837258.97548
  -4081969.29046  -3180757.19946  23499793.56348  23499793.39046  23499794.17846
 08 10 24 20 04 00.0000000  0  7 06 07 10 16 21 24 25
  16034205.46446  12494216.42146  25443684.39748  25443682.30946  25443687.73946
  -2214166.94846  -1725327.10146  24250165.56948  24250165.11446  24250165.42046
 -11000501.74948  -8571819.64448  20296630.15448  20296629.62448  20296631.84348
  -1708553.63048  -1331339.25048  21820807.52848  21820807.51148  21820808.20048
  -5816771.39148  -4532548.02748  20745448.74848  20745448.46948  20745448.95548
 -16805487.62448 -13095185.07648  18831451.31449  18831451.35148  18831453.67948
  -3998221.75246  -3115499.36746  23515729.85848  23515730.59146  23515731.15546
 08 10 24 20 04 10.0000000  0  7 06 07 10 16 21 24 25
  16335595.30246  12729068.16546  25501035.77048  25501037.29746  25501036.98346
  -2252471.06046  -1755174.43546  24242876.39248  24242876.36246  24242876.46046
 -11177082.90348  -8709415.34348  20263027.91648  20263027.31148  20263029.61748
  -1403204.12447  -1093404.57048  21878913.63048  21878913.71947  21878914.30948
  -5628682.53348  -4385985.28048  20781240.78748  20781240.67148  20781241.05148
 -16832447.24548 -13116192.57448  18826321.13049  18826321.12648  18826323.47948
  -3911389.48746  -3047837.85846  23532253.78148  23532254.29946  23532254.73746
 08 10 24 20 04 20.0000000  0  7 06 07 10 16 21 24 25
  16637123.98146  12964023.26746  25558413.12747  25558415.43546  25558414.25446
  -2287945.92846  -1782817.19046  24236125.52548  24236125.88246  24236126.00646
 -11350006.97848  -8844161.37548  20230121.58948  20230121.07948  20230123.24348
  -1095785.89647   -853857.89648  21937413.24648  21937413.44547  21937414.05048
  -5438497.16848  -4237788.89148  20817431.71248  20817431.65948  20817432.00548
 -16855851.48648 -13134429.64448  18821867.39449  18821867.43448  18821869.76248
  -3821484.56346  -2977782.06246  23549361.78848  23549361.64646  23549362.65846
 08 10 24 20 04 30.0000000  0  7 06 07 10 16 21 24 25
  16938774.17946  13199048.83246  25615817.67447  25615817.89946  25615819.91446
  -2320580.70446  -1808246.90146  24229915.28648  24229916.43746  24229916.73446
 -11519241.60248  -8976032.51148  20197917.34248  20197916.63848  20197919.03948
   -786338.44647   -612730.00448  21996299.18148  21996299.47747  21996299.90248
  -5246233.28748  -4087972.87648  20854018.41948  20854018.30748  20854018.70148
 -16875692.48348 -13149890.16248  18818091.81349  18818091.72648  18818094.14748
  -3728519.47446  -2905341.69946  23567052.25848  23567052.02046  23567053.53246
 08 10 24 20 04 40.0000000  0  7 06 07 10 16 21 24 25
  17240529.04846  13434182.16346  25673239.13247  25673239.98846  25673239.38646
  -2350364.97546  -1831455.42446  24224247.90348  24224248.71546  24224248.57846
 -11684755.04848  -9105004.02848  20166421.30348  20166420.52348  20166422.73148
   -474901.13647   -370051.58348  22055563.88948  22055564.02047  22055564.46748
  -5051908.71548  -3936551.12748  20890997.20948  20890996.97048  20890997.40148
 -16891962.84048 -13162568.36148  18814995.64749  18814995.60148  18814997.96848
  -3632506.95546  -2830526.74846  23585323.38248  23585322.65646  23585324.49446
 08 10 24 20 04 50.0000000  0  7 06 07 10 16 21 24 25
  17542367.23646  13669378.09446  25730677.83847  25730676.83046  25730679.00946
  -2377293.60046  -1852438.76746  24219123.15948  24219123.55246  24219124.32246
 -11846520.80348  -9231055.26548  20135638.12448  20135637.65448  20135639.84848
   -161517.86947   -125856.82348  22115198.60848  22115198.64547  22115199.30548
  -4855546.21148  -3783541.38548  20928363.69248  20928363.61948  20928364.05748
 -16904660.53248 -13172462.66748  18812579.41449  18812579.38548  18812581.74148
  -3533465.03746  -2753351.21446  23604170.19748  23604169.87346  23604171.53546
 08 10 24 20 05 00.0000000  0  6 07 10 16 21 24 25
  -2401359.59046  -1871191.51546  24214544.37148  24214544.97546  24214544.74646
 -12004510.24648  -9354163.92348  20105573.71848  20105573.15448  20105575.47548
    153769.94347    119821.98648  22175195.77948  22175195.78447  22175196.64548
  -4657166.21448  -3628959.56948  20966114.11548  20966113.87948  20966114.47848
 -16913781.69348 -13179570.06649  18810843.75349  18810843.64248  18810846.10449
  -3431409.95846  -2673827.78146  23623590.57548  23623590.57846  23623591.39146
 08 10 24 20 05 10.0000000  0  6 07 10 16 21 24 25
  -2422558.36646  -1887710.04146  24210510.17348  24210509.25346  24210510.61646
 -12158697.53248  -9474309.86248  20076232.89249  20076232.22148  20076234.62748
    470919.04147    366951.16148  22235547.47848  22235547.37747  22235548.06548
  -4456791.19948  -3472823.19248  21004244.26148  21004244.14248  21004244.44748
 -16919325.00948 -13183889.53349  18809788.85649  18809788.81148  18809791.20749
  -3326360.32846  -2591970.92246  23643580.73248  23643580.99146  23643582.14046
 08 10 24 20 05 20.0000000  0  6 07 10 16 21 24 25
  -2440884.32246  -1901990.00046  24207022.64848  24207023.00846  24207023.10846
 -12309055.66548  -9591472.04448  20047620.77049  20047620.06148  20047622.37948
    789887.94547    615498.36348  22296245.18948  22296245.27447  22296245.67048
  -4254442.14048  -3315148.60048  21042750.11448  21042749.96148  21042750.26948
 -16921288.06948 -13185419.18949  18809415.37549  18809415.25448  18809417.66949
  -3218333.71946  -2507794.34046  23664137.76048  23664138.06546  23664139.09546
 08 10 24 20 05 30.0000000  0  6 07 10 16 21 24 25
  -2456334.12246  -1914028.77146  24204082.64548  24204081.92246  24204083.02746
 -12455560.17248  -9705631.40348  20019741.88849  20019741.32348  20019743.56548
   1110633.53547    865429.99348  22357281.06348  22357281.14647  22357281.83048
  -4050141.67748  -3155953.43348  21081627.07948  21081626.86648  21081627.45848
 -16919670.84448 -13184159.01549  18809723.06049  18809723.03448  18809725.39649
  -3107349.91046  -2421313.43446  23685257.14648  23685258.02446  23685258.51746
 08 10 24 20 05 40.0000000  0  6 07 10 16 21 24 25
  -2468903.26546  -1923822.93446  24201690.87848  24201690.67746  24201690.92246
 -12598185.59448  -9816768.09948  19992601.12949  19992600.53548  19992602.75948
   1433114.67347   1116713.98847  22418647.15748  22418646.97647  22418647.69847
  -3843910.85748  -2995254.09048  21120871.37648  21120871.24848  21120871.88848
 -16914472.37148 -13180108.25849  18810712.26049  18810712.19648  18810714.65249
  -2993427.61546  -2332542.83646  23706935.78248  23706936.22246  23706936.97546
 08 10 24 20 05 50.0000000  0  7 07 10 16 21 24 25 26
  -2478591.24846  -1931371.98446  24199847.00648  24199847.64446  24199847.91346
 -12736910.33148  -9924865.29848  19966202.82149  19966202.07148  19966204.30848
   1757286.89047   1369315.71647  22480335.22448  22480335.27947  22480335.68347
  -3635774.38648  -2833069.82248  21160478.50448  21160478.35548  21160478.92448
 -16905695.50548 -13173269.14349  18812382.43049  18812382.36148  18812384.85749
  -2876589.52046  -2241500.14146  23729169.45548  23729169.61546  23729171.39546
   -367450.16456   -286324.83056  23002664.26558  23002665.21856  23002666.90156
 08 10 24 20 06 00.0000000  0  7 07 10 16 21 24 25 26
  -2485396.84546  -1936675.07946  24198552.02048  24198551.90246  24198552.77146
 -12871712.17348 -10029905.69548  19940550.69649  19940550.07548  19940552.38348
   2083107.14047   1623201.62747  22542336.64748  22542336.35147  22542336.98047
  -3425755.46748  -2669418.71848  21200443.66148  21200443.68348  21200444.06348
 -16893342.51148 -13163643.43649  18814733.20149  18814733.04148  18814735.52949
  -2756857.28846  -2148202.30146  23751954.07148  23751953.69846  23751955.10546
   -733262.07546   -571373.08446  22933052.30348  22933052.41546  22933054.29846
 08 10 24 20 06 10.0000000  0  7 07 10 16 21 24 25 26
  -2489316.74746  -1939729.56846  24197805.96448  24197806.65246  24197805.81546
 -13002567.03648 -10131870.52648  19915649.90849  19915649.24348  19915651.43748
   2410534.96647   1878340.19647  22604643.95748  22604643.60147  22604644.66647
  -3213874.89048  -2504316.97048  21240763.39948  21240763.28148  21240763.70848
 -16877413.74248 -13151231.41049  18817764.18149  18817764.20048  18817766.65949
  -2634250.72846  -2052664.73946  23775284.72248  23775284.74546  23775286.23446
  -1097380.45246   -855101.70346  22863762.66948  22863762.88446  22863764.47946
 08 10 24 20 06 20.0000000  0  7 07 10 16 21 24 25 26
  -2490347.09246  -1940532.40246  24197610.18848  24197609.11746  24197611.15846
 -13129450.46348 -10230740.73348  19891504.73549  19891504.14648  19891506.44048
   2739531.43546   2134701.06947  22667250.00748  22667250.05646  22667250.63047
  -3000152.51648  -2337780.05348  21281433.35148  21281433.08548  21281433.60548
 -16857908.88348 -13136032.82049  18821475.87849  18821475.87648  18821478.32949
  -2508788.85146  -1954902.24546  23799159.39248  23799159.90946  23799160.70146
  -1459748.02146  -1137466.03946  22794806.62548  22794806.86246  22794808.79046
 08 10 24 20 06 30.0000000  0  7 07 10 16 21 24 25 26
  -2488481.47746  -1939078.63446  24197964.76648  24197964.69146  24197965.46946
 -13252335.58248 -10326495.37448  19868120.47649  19868119.94948  19868122.07748
   3070060.78746   2392256.41447  22730147.84848  22730147.72046  22730148.23347
  -2784604.97048  -2169820.93548  21322450.90248  21322450.69948  21322451.04648
 -16834825.20548 -13118045.54049  18825868.58249  18825868.59848  18825870.98449
  -2380488.09646  -1854927.63446  23823574.31448  23823574.79046  23823575.39646
  -1820304.02446  -1418418.76146  22726195.28048  22726195.40746  22726197.07746
 08 10 24 20 06 40.0000000  0  7 07 10 16 21 24 25 26
  -2483711.18946  -1935361.58246  24198872.59348  24198872.68146  24198872.73946
 -13371193.44848 -10419111.89748  19845502.56149  19845501.98648  19845504.20848
   3402090.20346   2650980.63647  22793330.91748  22793330.06546  22793331.27947
  -2567246.17948  -2000450.44248  21363812.63948  21363812.59948  21363813.04848
 -16808157.83348 -13097265.77349  18830943.19749  18830943.17648  18830945.62249
  -2249362.68946  -1752751.99246  23848526.41948  23848526.91746  23848527.86646
  -2178984.76346  -1697910.25746  22657940.86348  22657940.30346  22657943.03046
 08 10 24 20 06 50.0000000  0  8 02 07 10 16 21 24 25 26
   -251248.78856   -195777.88656  23322825.67258  23322826.82256  23322826.31156
  -2476027.25746  -1929374.08546  24200335.02148  24200335.26246  24200335.83146
 -13485994.79348 -10508567.49148  19823656.60149  19823656.01248  19823658.23248
   3735588.18446   2910849.18447  22856793.22648  22856792.53446  22856794.02347
  -2348089.17848  -1829678.76048  21405516.98748  21405516.65148  21405517.09448
 -16777901.39648 -13073689.33249  18836700.81049  18836700.80348  18836703.23649
  -2115426.14046  -1648385.84446  23874013.96648  23874013.82646  23874015.76146
  -2535725.10046  -1975889.73746  22590055.12248  22590055.83346  22590056.90946
 08 10 24 20 07 00.0000000  0  8 02 07 10 16 21 24 25 26
   -529389.23946   -412511.57546  23269898.53148  23269897.71146  23269896.93346
  -2465424.99846  -1921112.58346  24202352.54048  24202352.97846  24202354.07746
 -13596715.15148 -10594843.09748  19802587.30849  19802586.65848  19802588.85748
   4070519.31946   3171834.48747  22920528.63548  22920528.12246  22920529.20347
  -2127150.77048  -1657518.96348  21447560.04148  21447559.92148  21447560.33448
 -16744055.06648 -13047315.57049  18843141.56149  18843141.56648  18843144.02549
  -1978696.41046  -1541843.19746  23900032.59848  23900032.29546  23900034.17246
  -2890463.63746  -2252309.38746  22522550.51848  22522551.00446  22522552.36346
 08 10 24 20 07 10.0000000  0  8 02 07 10 16 21 24 25 26
   -806428.48846   -628386.44646  23217179.03948  23217177.89146  23217178.32646
  -2451905.55946  -1910577.94246  24204924.77148  24204926.12646  24204926.15046
 -13703335.85748 -10677924.17248  19782298.07749  19782297.44048  19782299.62548
   4406843.22846   3433905.06147  22984528.61948  22984528.79346  22984529.41947
  -1904453.17747  -1483988.37348  21489937.76848  21489937.67447  21489938.19748
 -16706623.90948 -13018148.43949  18850264.48449  18850264.47948  18850266.90149
  -1839197.12146  -1433142.45346  23926578.75048  23926579.05446  23926579.68046
  -3243143.92046  -2527125.18346  22455437.63348  22455438.49946  22455439.48146
 08 10 24 20 07 20.0000000  0  8 02 07 10 16 21 24 25 26
  -1082341.13946   -843383.32046  23164674.91348  23164674.45446  23164673.33046
  -2435469.02346  -1897770.26846  24208053.23548  24208053.83346  24208053.45246
 -13805837.48748 -10757795.57848  19762792.59549  19762792.06948  19762794.23848
   4744521.43146   3697030.93547  23048786.71648  23048786.38546  23048787.59447
  -1680016.94447  -1309103.00148  21532646.77348  21532646.35247  21532647.16048
 -16665611.88348 -12986191.01849  18858068.91349  18858068.85448  18858071.18649
  -1696950.80546  -1322301.15046  23953647.19948  23953648.39746  23953648.27046
  -3593707.36046  -2800291.51146  22388727.88648  22388728.96046  22388729.52746
 08 10 24 20 07 30.0000000  0  9 02 07 10 15 16 21 24 25 26
  -1357101.58046  -1057482.36746  23112389.59848  23112391.49946  23112390.23046
  -2416116.17546  -1882690.11046  24211735.02148  24211736.22346  24211736.51646
 -13904201.42448 -10834442.80848  19744074.56549  19744073.98848  19744076.18848
   -310501.41456   -241949.47356  23056031.16658  23056030.97256  23056031.90756
   5083515.63846   3961182.28247  23113295.25548  23113295.66446  23113295.44347
  -1453862.76947  -1132878.96448  21575682.68648  21575682.49247  21575682.65448
 -16621023.61048 -12951446.91349  18866553.73749  18866553.67548  18866556.07449
  -1551980.16846  -1209337.05446  23981233.61848  23981234.06446  23981235.89146
  -3942095.47647  -3071762.77746  22322431.77148  22322431.51747  22322433.35746
 08 10 24 20 07 40.0000000  0  9 02 07 10 15 16 21 24 25 26
  -1630681.94746  -1270661.85646  23060329.29048  23060328.56846  23060328.65346
  -2393846.06546  -1865336.79446  24215973.49448  24215972.90646  24215974.37746
 -13998407.84348 -10907850.41448  19726147.62549  19726147.17048  19726149.28348
   -654176.34446   -509747.98246  22990631.89948  22990632.80246  22990632.22446
   5423789.92746   4226331.07147  23178047.76248  23178046.71346  23178048.16347
  -1226009.24647   -955330.76848  21619041.52748  21619041.44647  21619041.90748
 -16572862.16748 -12913918.52049  18875718.51249  18875718.52048  18875720.90449
  -1404306.55346  -1094266.70346  24009335.20548  24009335.61946  24009336.90246
  -4288247.19147  -3341491.38347  22256561.05648  22256561.26247  22256563.30847
 08 10 24 20 07 50.0000000  0 10 02 07 10 15 16 21 24 25 26 27
  -1903055.52946  -1482901.00546  23008498.06948  23008497.89546  23008497.34946
  -2368659.88146  -1845711.21346  24220766.34248  24220766.32046  24220767.20546
 -14088439.12048 -10978004.66348  19709015.36149  19709014.80548  19709016.92648
   -996404.37346   -776420.15846  22925508.09748  22925509.79046  22925508.33046
   5765306.96746   4492448.23747  23243035.52048  23243035.40946  23243036.31347
   -996476.34447   -776473.96148  21662720.13248  21662720.22147  21662720.84848
 -16521132.67849 -12873609.83149  18885562.34849  18885562.28249  18885564.64749
  -1253953.01346   -977108.08746  24037946.63348  24037946.87746  24037948.26846
  -4632102.72547  -3609430.75847  22191127.79348  22191127.77347  22191129.21447
    -51641.99656    -40239.05656  23486818.40458  23486816.28056  23486819.90656
 08 10 24 20 08 00.0000000  0 10 02 07 10 15 16 21 24 25 26 27
  -2174193.46246  -1694177.33646  22956901.74348  22956900.73846  22956901.63346
  -2340556.81146  -1823812.72146  24226114.26548  24226114.66646  24226114.48646
 -14174275.86748 -11044890.44848  19692681.12149  19692680.58648  19692682.68748
  -1337129.79246  -1041919.62146  22860669.82648  22860669.07646  22860670.68746
   6108032.09846   4759506.77647  23308253.97448  23308254.06246  23308254.99047
   -765281.52247   -596322.15748  21706715.37948  21706715.09247  21706715.53148
 -16465838.47849 -12830523.44549  18896084.47449  18896084.38449  18896086.82949
  -1100940.48146   -857877.56746  24067064.02948  24067064.27246  24067066.22246
  -4973599.62047  -3875532.22747  22126142.73648  22126143.36247  22126144.94947
   -106111.88246    -82683.09046  23476453.20548  23476450.59746  23476455.29246
 08 10 24 20 08 10.0000000  0 10 02 07 10 15 16 21 24 25 26 27
  -2444061.27446  -1904464.80546  22905548.25448  22905548.06446  22905547.85546
  -2309531.49646  -1799637.16546  24232018.18348  24232017.28646  24232018.57346
 -14255894.33548 -11108489.26048  19677149.71449  19677149.19948  19677151.20948
  -1676291.26546  -1306201.26446  22796129.42848  22796130.91446  22796131.30046
   6451936.08846   5027483.91246  23373697.23748  23373697.47046  23373697.91846
   -532437.25947   -414885.06848  21751023.95748  21751023.60047  21751023.99748
 -16406978.24049 -12784658.32949  18907285.18949  18907285.11849  18907287.61149
   -945285.20446   -736587.68246  24096684.31948  24096684.23546  24096686.02146
  -5312670.00147  -4139742.92247  22061620.16648  22061619.85347  22061621.80347
   -157499.16146   -122725.20446  23466674.32148  23466673.66546  23466676.31946
 08 10 24 20 08 20.0000000  0 10 02 07 10 15 16 21 24 25 26 27
  -2712621.99746  -2113733.03546  22854442.51248  22854441.56446  22854442.24246
  -2275576.46846  -1773178.68046  24238479.75848  24238479.61246  24238480.15446
 -14333269.16248 -11168781.34448  19662425.85449  19662425.21448  19662427.25848
  -2013824.55946  -1569214.21346  22731899.35548  22731898.99246  22731900.64546
   6796992.66146   5296359.16646  23439359.16548  23439358.74646  23439359.54146
   -297953.24247   -232170.25148  21795645.07948  21795644.46047  21795645.15648
 -16344548.57749 -12736011.84349  18919165.23449  18919165.14449  18919167.52449
   -787001.05746   -613249.41946  24126804.48248  24126804.49646  24126806.13846
  -5649243.05147  -4402007.63247  21997571.88048  21997572.30547  21997574.22947
   -205782.63446   -160347.61446  23457486.40948  23457488.58446  23457487.55846
 08 10 24 20 08 30.0000000  0 10 02 07 10 15 16 21 24 25 26 27
  -2979839.70046  -2321954.62246  22803592.95548  22803591.91246  22803591.83446
  -2238685.96546  -1744432.83946  24245499.60948  24245500.06246  24245499.75346
 -14406377.09448 -11225748.57748  19648513.80749  19648513.20648  19648515.34748
  -2349666.39246  -1830909.11346  22667990.60948  22667990.19646  22667992.20646
   7143174.55646   5566111.29646  23505235.60548  23505234.83646  23505235.74346
    -61840.51347    -48186.30648  21840575.73748  21840575.70347  21840575.79548
 -16278547.85649 -12684582.71549  18931724.72249  18931724.60149  18931727.17549
   -626103.72146   -487874.83046  24157422.96048  24157423.03646  24157423.92046
  -5983249.16347  -4662272.13547  21934012.81748  21934013.06847  21934015.14347
   -250942.69446   -195537.33746  23448892.95948  23448893.20546  23448894.67646
 08 10 24 20 08 40.0000000  0 10 02 07 10 15 16 21 24 25 26 27
  -3245681.47946  -2529104.05246  22753004.47048  22753004.26946  22753004.05546
  -2198857.96946  -1713398.03546  24253078.88848  24253078.78546  24253079.54146
 -14475198.60748 -11279375.74248  19635417.59349  19635416.95848  19635419.03648
  -2683756.24646  -2091238.85346  22604415.33748  22604415.28146  22604417.11646
   7490451.51646   5836716.70646  23571320.43248  23571320.27746  23571320.12246
    175887.06347    137055.95948  21885813.47648  21885813.41647  21885813.95148
 -16208978.18849 -12630372.58949  18944963.36649  18944963.26949  18944965.82949
   -462612.01446   -360478.73646  24188534.05448  24188532.67146  24188535.14346
  -6314621.60147  -4920484.41447  21870954.81348  21870954.81847  21870956.79747
   -292963.51046   -228280.44746  23440896.42448  23440896.99846  23440898.99946
 08 10 24 20 08 50.0000000  0 10 02 07 10 15 16 21 24 25 26 27
  -3510118.27046  -2735158.71346  22702683.85548  22702684.66146  22702683.32746
  -2156094.69246  -1680076.02946  24261215.78548  24261216.03446  24261216.58646
 -14539718.85648 -11329651.27448  19623139.70849  19623139.16148  19623141.21448
  -3016037.04646  -2350158.95046  22541184.92548  22541185.81946  22541185.31646
   7838789.81246   6108149.16346  23637606.30848  23637606.14246  23637606.91346
    415211.62247    323542.62147  21931355.66648  21931355.67347  21931355.95047
 -16135845.87449 -12573386.37849  18958880.00949  18958879.89049  18958882.41649
   -296549.10846   -231079.06346  24220134.65348  24220134.13346  24220136.01046
  -6643297.05347  -5176595.15647  21808410.26248  21808409.99847  21808411.91647
   -331833.63746   -258568.21146  23433499.27448  23433498.14646  23433501.94646
 08 10 24 20 09 00.0000000  0 10 02 07 10 15 16 21 24 25 26 27
  -3773122.73146  -2940097.26646  22652635.74548  22652636.11246  22652634.73446
  -2110400.92946  -1644470.50646  24269911.25948  24269911.68946  24269911.36846
 -14599925.85548 -11376565.82148  19611682.70549  19611682.12648  19611684.19348
  -3346453.40846  -2607626.23546  22478308.59448  22478308.69946  22478309.39046
   8188154.08346   6380381.04146  23704088.08548  23704088.28646  23704089.22546
    656113.38047    511258.28247  21977197.86648  21977197.62747  21977197.82047
 -16059159.78749 -12513630.99449  18973472.82149  18973472.80649  18973475.30749
   -127940.40246    -99695.67046  24252219.51248  24252219.80046  24252220.95046
  -6969214.19947  -5430556.56247  21746390.14448  21746390.31747  21746392.03247
   -367544.12046   -286394.57846  23426703.45248  23426704.53446  23426705.64446
 08 10 24 20 09 10.0000000  0 10 02 07 10 15 16 21 24 25 26 27
  -4034670.50946  -3143900.73246  22602864.75048  22602864.36646  22602863.95646
  -2061784.87646  -1606587.85246  24279163.03448  24279162.78946  24279163.29046
 -14655811.43248 -11420113.04048  19601047.98049  19601047.44748  19601049.51448
  -3674952.77646  -2863599.75246  22415796.82048  22415796.82046  22415798.50146
   8538506.06446   6653382.57546  23770758.01748  23770756.74446  23770759.04246
    898569.70447    700185.28547  22023335.54348  22023335.38547  22023335.79347
 -15978932.27749 -12451116.06049  18988739.62649  18988739.58149  18988742.07649
     43185.48046     33649.16546  24284784.02148  24284784.09946  24284784.30146
  -7292314.44647  -5682322.98347  21684906.19148  21684906.31047  21684907.99747
   -400089.62546   -311754.69946  23420511.27148  23420511.07046  23420512.56746
 08 10 24 20 09 20.0000000  0 10 02 07 10 15 16 21 24 25 26 27
  -4294738.99846  -3346551.50046  22553375.48548  22553375.25346  22553374.44146
  -2010256.99146  -1566436.27646  24288968.14548  24288968.58746  24288968.25446
 -14707370.01548 -11460288.57248  19591236.76949  19591236.17148  19591238.24848
  -4001483.98846  -3118039.62846  22353659.54648  22353660.06946  22353661.56746
   8889806.14246   6927122.90546  23837608.63148  23837608.93846  23837608.32446
   1142556.08147    890304.52847  22069764.70048  22069764.72347  22069764.90047
 -15895178.11649 -12385853.08749  19004677.52249  19004677.53549  19004679.96749
    216797.71246    168931.42246  24317821.29248  24317820.89646  24317822.01146
  -7612541.15047  -5931850.28247  21623968.77948  21623969.53247  21623970.83647
   -429467.19346   -334645.35446  23414920.88348  23414921.41146  23414922.22646
 08 10 24 20 09 30.0000000  0 10 02 07 10 15 16 21 24 25 26 27
  -4553303.67846  -3548030.48646  22504172.37548  22504171.23846  22504171.27046
  -1955826.60246  -1524023.00946  24299326.28548  24299326.87946  24299326.46046
 -14754595.37148 -11497087.56548  19582250.01249  19582249.53548  19582251.64848
  -4325993.86746  -3370904.46146  22291907.81648  22291907.47646  22291909.60646
   9242016.56046   7201572.58346  23904631.70848  23904630.79546  23904632.35546
   1388049.91547   1081598.42547  22116480.45948  22116480.74747  22116480.67547
 -15807910.72949 -12317852.53649  19021284.02249  19021283.92449  19021286.45149
    392867.03446    306128.28746  24351326.52048  24351325.00846  24351327.05246
  -7929835.50747  -6179092.63347  21563590.09348  21563589.94547  21563591.96947
   -455672.83946   -355065.36046  23409933.99548  23409933.19346  23409935.45046
 08 10 24 20 09 40.0000000  0 10 02 07 10 15 16 21 24 25 26 27
  -4810341.96046  -3748320.04646  22455259.33948  22455259.15046  22455259.25946
  -1898505.51146  -1479357.25046  24310233.89648  24310233.37346  24310234.45346
 -14797483.88248 -11530507.19848  19574088.69649  19574088.05148  19574090.20048
  -4648430.94546  -3622154.11846  22230550.19948  22230549.91946  22230551.49046
   9595097.94946   7476700.94946  23971820.91148  23971821.33946  23971821.53946
   1635026.71147   1274047.86647  22163478.75048  22163478.84647  22163478.71547
 -15717146.10049 -12247126.86049  19038555.89049  19038555.91549  19038558.37749
    571361.83746    445216.15446  24385292.27948  24385293.11746  24385293.23946
  -8244140.61747  -6424005.70247  21503779.60548  21503779.80247  21503781.31747
   -478704.87446   -373012.41246  23405551.08448  23405550.31546  23405552.88346
 08 10 24 20 09 50.0000000  0 10 02 07 10 15 16 21 24 25 26 27
  -5065831.38546  -3947402.72846  22406641.48548  22406641.83146  22406641.17146
  -1838306.15246  -1432448.67446  24321689.39748  24321688.97346  24321689.31446
 -14836032.91248 -11560545.41548  19566753.06849  19566752.39748  19566754.58148
  -4968743.70646  -3871748.46446  22169596.44448  22169596.77046  22169598.13546
   9949011.11746   7752477.41146  24039168.10948  24039166.67946  24039168.20846
   1883461.68747   1467633.55947  22210754.26848  22210754.02847  22210754.58747
 -15622900.81449 -12173688.98449  19056490.23149  19056490.15449  19056492.70249
    752250.14046    586171.16246  24419714.22248  24419714.40546  24419715.25046
  -8555399.68847  -6666545.23947  21444548.96148  21444549.22247  21444550.91047
   -498562.49446   -388485.94746  23401772.04648  23401771.07146  23401775.31446
 08 10 24 20 10 00.0000000  0 10 02 07 10 15 16 21 24 25 26 27
  -5319749.17046  -4145260.75646  22358322.77948  22358322.46046  22358321.99346
  -1775241.23246  -1383307.18146  24333690.75848  24333690.36846  24333690.90046
 -14870240.69048 -11587200.83748  19560243.46449  19560242.95448  19560245.13548
  -5286880.15246  -4119646.98847  22109056.91648  22109057.43046  22109058.04947
  10303717.27146   8028871.82746  24106666.35148  24106665.90646  24106668.13946
   2133330.43347   1662336.47147  22258302.68648  22258302.72447  22258302.60547
 -15525191.79749 -12097552.09749  19075083.62949  19075083.63949  19075086.17449
    935499.91046    728963.07446  24454585.62148  24454584.08146  24454586.55746
  -8863555.70547  -6906666.80347  21385908.62448  21385909.06947  21385910.85047
   -515245.37946   -401485.61346  23398597.93648  23398598.07746  23398599.43346
 08 10 24 20 10 10.0000000  0 10 02 07 10 15 16 21 24 25 26 27
  -5572069.30246  -4341873.83346  22310307.80848  22310307.31346  22310306.55346
  -1709320.81246  -1331940.62846  24346234.46448  24346235.05046  24346234.60546
 -14900103.03548 -11610470.20348  19554560.81349  19554560.32048  19554562.48648
  -5602784.94446  -4365806.53847  22048942.71048  22048943.05046  22048943.95147
  10659180.99646   8305855.56846  24174308.93648  24174309.77246  24174309.60246
   2384611.80247   1858140.12647  22306120.28548  22306119.73247  22306120.25547
 -15424033.15449 -12018727.19049  19094333.48049  19094333.43249  19094336.00949
   1121082.14046    873572.58346  24489900.51048  24489901.59946  24489902.59246
  -9168548.45747  -7144323.48648  21327870.52448  21327870.87847  21327872.57048
   -528750.44246   -412009.09346  23396028.05848  23396026.19146  23396030.71546
 08 10 24 20 10 20.0000000  0 10 02 07 10 15 16 21 24 25 26 27
  -5822768.77346  -4537224.08946  22262601.11648  22262600.61546  22262599.76246
  -1640558.47046  -1278359.59346  24359319.65548  24359319.35846  24359319.91746
 -14925619.73148 -11630353.35048  19549705.15949  19549704.60248  19549706.87948
  -5916405.27246  -4610186.01847  21989262.28548  21989262.92146  21989263.61647
  11015364.30046   8583399.95946  24242088.35048  24242090.29846  24242088.43346
   2637281.66747   2055025.72147  22354201.42448  22354201.49347  22354201.41647
 -15319442.56349 -11937228.03949  19114236.47149  19114236.43449  19114238.98649
   1308964.29346   1019974.26646  24525653.55348  24525654.65646  24525654.08646
  -9470320.58147  -7379470.58848  21270445.17648  21270445.33147  21270447.11548
   -539078.36446   -420056.81746  23394062.60548  23394062.07046  23394064.21246
 08 10 24 20 10 30.0000000  0 10 02 07 10 15 16 21 24 25 26 27
  -6071824.15046  -4731293.21246  22215207.69448  22215207.38646  22215206.42146
  -1568967.90946  -1222574.73946  24372942.17848  24372944.97646  24372942.92446
 -14946791.21448 -11646850.61348  19545676.36049  19545675.82648  19545678.08048
  -6227688.40047  -4852744.28747  21930027.40748  21930027.39747  21930028.43647
  11372229.57146   8861477.43746  24309998.48248  24309997.19946  24309998.20446
   2891315.99646   2252974.56047  22402542.81748  22402542.40346  22402542.78647
 -15211437.89649 -11853068.56849  19134789.07649  19134788.99949  19134791.52549
   1499114.18246   1168142.99246  24561838.13348  24561838.54346  24561839.63246
  -9768814.68047  -7612063.37748  21213643.69448  21213643.96447  21213645.83248
   -546230.09346   -425629.59046  23392701.68848  23392700.35946  23392703.48646
 08 10 24 20 10 40.0000000  0  9 02 07 10 15 21 24 25 26 27
  -6319214.38946  -4924064.82747  22168131.05548  22168130.76746  22168129.71747
  -1494565.69746  -1164599.03046  24387101.61948  24387101.78646  24387101.99746
 -14963621.04048 -11659964.77348  19542473.74649  19542473.23248  19542475.49548
  -6536583.39447  -5093441.68247  21871246.77448  21871246.76247  21871247.65847
   3146689.07046   2451966.54647  22451138.57248  22451138.53446  22451138.38647
 -15100039.76649 -11766264.84049  19155987.43149  19155987.36549  19155989.95549
   1691496.85146   1318051.58246  24598447.24048  24598446.19446  24598447.91746
 -10063975.46747  -7842058.79248  21157476.53548  21157476.92047  21157478.46248
   -550209.47146   -428730.44046  23391944.37948  23391945.65146  23391944.87246
 08 10 24 20 10 50.0000000  0  9 02 07 10 15 21 24 25 26 27
  -6564914.80547  -5115519.69847  22121375.57548  22121375.72547  22121375.03447
  -1417365.28346  -1104441.83946  24401791.73448  24401792.42046  24401791.93746
 -14976110.13848 -11669696.54648  19540097.41549  19540096.68348  19540098.87448
  -6843035.56347  -5332235.56947  21812930.59348  21812931.11447  21812931.64347
   3403378.50346   2651984.28247  22499985.31648  22499984.57146  22499984.93747
 -14985265.79849 -11676830.58949  19177828.15349  19177828.13749  19177830.69749
   1886080.74446   1469675.42046  24635476.13748  24635474.20946  24635475.59646
 -10355744.24047  -8069411.07648  21101954.62448  21101955.05747  21101956.62148
   -551017.42546   -429360.16946  23391790.70548  23391792.67846  23391792.78146
 08 10 24 20 11 00.0000000  0  9 02 07 10 15 21 24 25 26 27
  -6808903.08046  -5305640.45247  22074946.19148  22074945.62046  22074945.69047
  -1337383.06346  -1042118.08446  24417011.94848  24417011.34646  24417012.26846
 -14984262.61448 -11676049.13448  19538545.86749  19538545.37948  19538547.57648
  -7146992.54547  -5569085.17147  21755089.47348  21755089.71747  21755090.40947
   3661359.46446   2853008.40647  22549077.29948  22549077.25246  22549077.31647
 -14867136.38649 -11584781.70949  19200307.48149  19200307.43949  19200309.97949
   2082831.78646   1622984.99946  24672916.30748  24672915.13346  24672916.50146
 -10644064.84247  -8294076.47148  21047089.24748  21047089.26347  21047091.22448
   -548657.92946   -427519.50946  23392239.57548  23392240.54646  23392242.01946
 08 10 24 20 11 10.0000000  0  9 02 07 10 15 21 24 25 26 27
  -7051159.73147  -5494411.86947  22028846.26248  22028846.05747  22028845.49647
  -1254638.73346   -977642.79646  24432757.66348  24432757.73346  24432758.72946
 -14988086.36448 -11679028.68548  19537818.14949  19537817.67248  19537819.95448
  -7448404.57947  -5803951.68247  21697732.48948  21697733.00147  21697733.85747
   3920604.47246   3055017.48747  22598410.01448  22598410.41746  22598409.92347
 -14745675.18649 -11490136.62749  19223420.79549  19223420.69849  19223423.23249
   2281712.87746   1777957.17846  24710761.90148  24710761.90246  24710762.09246
 -10928883.86147  -8516013.36248  20992890.06348  20992889.89047  20992891.86148
   -543138.26646   -423215.53146  23393290.10848  23393290.16446  23393289.83646
 08 10 24 20 11 20.0000000  0  9 02 07 10 15 21 24 25 26 27
  -7291670.09347  -5681822.54047  21983078.52548  21983078.46547  21983077.49147
  -1169157.22346   -911034.05846  24449024.32648  24449024.53646  24449024.19946
 -14987595.29048 -11678646.03748  19537911.73649  19537911.09048  19537913.33248
  -7747226.86347  -6036800.20747  21640868.52748  21640868.86247  21640869.88547
   4181081.04846   3257986.24647  22647977.02448  22647976.51446  22647977.65247
 -14620911.28949 -11392918.01649  19247162.43849  19247162.55249  19247165.11049
   2482681.59246   1934556.11146  24749004.67248  24749004.82246  24749005.38146
 -11210153.26347  -8735184.31948  20939365.94448  20939366.45847  20939368.06548
   -534471.49846   -416462.14746  23394939.35248  23394939.19446  23394941.30846
 08 10 24 20 11 30.0000000  0  9 02 07 10 15 21 24 25 26 27
  -7530417.45947  -5867859.45647  21937646.57048  21937646.36447  21937645.97647
  -1080962.16246   -842310.59646  24465806.57248  24465806.25446  24465806.99646
 -14982801.99548 -11674911.01148  19538823.83349  19538823.31148  19538825.44148
  -8043412.29147  -6267594.03247  21584506.45548  21584506.62847  21584507.67947
   4442758.94046   3461891.09347  22697772.66148  22697772.69946  22697772.29947
 -14492872.09749 -11293147.22749  19271527.57249  19271527.54849  19271530.09949
   2685697.60746   2092751.06746  24787637.71548  24787638.20846  24787638.23746
 -11487822.74447  -8951550.13648  20886527.37148  20886527.43547  20886529.44848
   -522669.04246   -407265.55946  23397185.07248  23397185.56146  23397187.35946
 08 10 24 20 11 40.0000000  0  9 02 07 10 15 21 24 25 26 27
  -7767385.03647  -6052509.51947  21892553.17748  21892552.82347  21892552.24147
   -990077.25046   -771491.21746  24483101.56648  24483101.01146  24483102.64646
 -14973719.69248 -11667833.90248  19540552.09449  19540551.56648  19540553.83348
  -8336913.48147  -6496296.25547  21528655.03148  21528655.35647  21528656.36547
   4705608.12646   3666708.62247  22747790.91648  22747790.53346  22747790.90747
 -14361585.24149 -11190845.78949  19296510.72449  19296510.59249  19296513.13449
   2890720.40446   2252512.47146  24826652.09448  24826652.21246  24826653.24346
 -11761842.27147  -9165071.84248  20834383.24148  20834383.21947  20834385.12248
   -507742.71846   -395635.57146  23400025.32948  23400026.67846  23400028.60346
 08 10 24 20 11 50.0000000  0  9 02 07 10 15 21 24 25 26 27
  -8002552.58547  -6235756.96447  21847802.07848  21847801.79247  21847801.31947
   -896523.26946   -698592.03646  24500904.76748  24500904.61446  24500905.45446
 -14960359.19948 -11657423.13748  19543094.54649  19543094.03148  19543096.27248
  -8627679.70047  -6722867.33347  21473324.16348  21473324.21047  21473325.18547
   4969602.05746   3872418.17447  22798027.42948  22798027.57246  22798027.63247
 -14227075.35049 -11086032.89849  19322107.07649  19322107.07249  19322109.56849
   3097712.97946   2413805.31946  24866041.74048  24866041.30046  24866043.23846
 -12032158.34548  -9375707.73548  20782943.78748  20782943.97248  20782945.69648
   -489701.69946   -381596.92046  23403461.04348  23403459.43246  23403464.45246
 08 10 24 20 12 00.0000000  0  9 02 07 10 15 21 24 25 26 27
  -8235899.97547  -6417586.09647  21803397.41548  21803397.52347  21803396.80147
   -800321.77346   -623630.22446  24519210.91948  24519209.81246  24519213.26746
 -14942732.51248 -11643688.06448  19546448.80349  19546448.26648  19546450.52548
  -8915660.47147  -6947267.92847  21418523.14448  21418523.34847  21418524.55647
   5234713.97146   4078998.87047  22848476.58548  22848476.50346  22848477.00747
 -14089367.82849 -10978728.34549  19348311.97149  19348311.91149  19348314.36149
   3306637.57546   2576602.62846  24905798.42048  24905799.46146  24905799.68646
 -12298718.22848  -9583416.72448  20732219.11148  20732219.23748  20732220.98448
   -468555.93746   -365123.41146  23407482.92648  23407482.51446  23407485.98746
 08 10 24 20 12 10.0000000  0  9 02 07 10 15 21 24 25 26 27
  -8467408.18647  -6597982.11347  21759343.03648  21759342.81547  21759342.13647
   -701495.56546   -546626.61546  24538017.57848  24538015.91446  24538019.06446
 -14920853.28048 -11626639.32048  19550612.29249  19550611.78648  19550614.07048
  -9200805.94547  -7169459.19747  21364261.78748  21364261.85047  21364262.86247
   5500916.38546   4286429.31747  22899132.99248  22899132.64246  22899133.31347
 -13948489.17649 -10868952.78249  19375120.32349  19375120.24849  19375122.76649
   3517455.56846   2740876.46846  24945916.33548  24945916.93346  24945917.34446
 -12561470.21648  -9788158.53148  20682219.00148  20682219.17848  20682221.09148
   -444316.89046   -346233.84846  23412094.93248  23412095.74646  23412097.15146
 08 10 24 20 12 20.0000000  0  9 02 07 10 15 21 24 25 26 27
  -8697056.01847  -6776928.47847  21715642.53248  21715642.44447  21715641.59747
   -600065.90046   -467590.35946  24557318.68448  24557319.78446  24557319.56846
 -14894733.90748 -11606286.56948  19555582.67349  19555582.07148  19555584.41448
  -9483064.24148  -7389400.72348  21310549.76548  21310549.84048  21310551.17348
   5768183.96046   4494689.75247  22949992.43348  22949991.57346  22949992.65547
 -13804464.19849 -10756725.53549  19402527.38649  19402527.31549  19402529.75649
   3730130.38246   2906597.09746  24986386.32248  24986385.29946  24986387.06546
 -12820360.68148  -9989891.35948  20632953.83948  20632954.01148  20632955.82748
   -416994.53946   -324944.23646  23417295.47748  23417296.79246  23417297.90246
 08 10 24 20 12 30.0000000  0  9 02 07 10 15 21 24 25 26 27
  -8924818.14747  -6954405.46747  21672300.67848  21672300.51947  21672300.15147
   -496050.14546   -386541.67046  24577112.47948  24577112.06746  24577113.10646
 -14864383.74548 -11582637.10148  19561358.07749  19561357.51548  19561359.81148
  -9762379.41248  -7607048.90448  21257398.01948  21257397.93048  21257399.19048
   6036495.30246   4703763.50747  23001050.55048  23001051.21046  23001050.31147
 -13657314.09849 -10642063.12949  19430529.13049  19430529.07049  19430531.49849
   3944629.27946   3073736.94646  25027204.78647  25027204.06346  25027206.83346
 -13075332.27348 -10188570.51548  20584434.50048  20584434.53448  20584436.29648
   -386595.32046   -301248.61946  23423078.95348  23423080.15146  23423080.92946
 08 10 24 20 12 40.0000000  0  9 02 07 10 15 21 24 25 26 27
  -9150669.25947  -7130393.35347  21629322.70148  21629322.62547  21629322.16347
   -389466.28846   -303489.76646  24597394.40248  24597395.75146  24597395.01646
 -14829812.81648 -11555698.72248  19567936.63049  19567936.12248  19567938.42648
 -10038695.60448  -7822360.21948  21204816.47948  21204816.66148  21204817.80748
   6305829.38646   4913634.20347  23052303.06348  23052303.39846  23052303.04447
 -13507060.34849 -10524982.29449  19459121.51049  19459121.40749  19459123.85149
   4160919.37546   3242274.92846  25068363.10847  25068362.97246  25068364.62946
 -13326328.00148 -10384151.60448  20536671.47048  20536671.81848  20536673.35648
   -353126.26946   -275169.17946  23429447.93148  23429446.83346  23429449.66146
 08 10 24 20 12 50.0000000  0  9 02 07 10 15 21 24 25 26 27
  -9374585.39047  -7304873.45347  21586713.00648  21586712.80647  21586712.25747
   -280333.82746   -218451.52446  24618161.90348  24618163.66046  24618162.56146
 -14791033.35448 -11525480.96748  19575316.18449  19575315.68848  19575317.91948
 -10311958.09448  -8035292.02448  21152816.59048  21152816.58648  21152817.67548
   6576164.12046   5124284.65046  23103746.15948  23103745.93646  23103746.10146
 -13353725.97849 -10405500.97848  19488299.95449  19488300.00449  19488302.46248
   4378966.66546   3412183.96046  25109855.72047  25109856.28746  25109856.65946
 -13573292.48648 -10576591.46248  20489675.87348  20489675.92948  20489677.64848
   -316596.30146   -246705.33246  23436399.62248  23436398.47246  23436401.15946
 08 10 24 20 13 00.0000000  0  9 02 07 10 15 21 24 25 26 27
  -9596544.76747  -7477828.81147  21544475.65448  21544475.49447  21544474.90447
   -168674.92646   -131444.64446  24639410.14448  24639408.77346  24639411.01446
 -14748060.54148 -11491995.66748  19583493.62349  19583493.04848  19583495.40248
 -10582114.46748  -8245803.48148  21101407.34548  21101407.66348  21101408.48948
   6847475.38746   5335696.02346  23155374.74248  23155374.34646  23155375.07946
 -13197336.64549 -10283639.16948  19518059.89349  19518059.91749  19518062.28348
   4598734.43646   3583428.86346  25151675.63147  25151677.87846  25151675.86446
 -13816172.97548 -10765848.98748  20443457.19748  20443457.28548  20443458.97548
   -277017.02946   -215864.38746  23443931.35948  23443932.13846  23443933.02446
 08 10 24 20 13 10.0000000  0  9 02 07 10 15 21 24 25 26 27
  -9816523.38547  -7649240.72748  21502615.15648  21502614.86647  21502614.38348
    -54509.94046    -42484.84246  24661134.62848  24661135.71346  24661134.86946
 -14700908.15648 -11455253.55648  19592466.45749  19592465.88548  19592468.17148
 -10849110.08148  -8453852.00748  21050599.85148  21050600.15248  21050601.14648
   7119741.10746   5547851.10946  23207185.35248  23207185.11246  23207185.97046
 -13037915.95549 -10159415.26748  19548396.66449  19548396.61349  19548399.10048
   4820188.67246   3755977.87746  25193817.40847  25193817.78046  25193816.90046
 -14054914.67648 -10951881.47948  20398026.05848  20398026.21148  20398027.92948
   -234398.39646   -182655.07246  23452041.58348  23452041.02446  23452044.40146
 08 10 24 20 13 20.0000000  0  9 02 07 10 15 21 24 25 26 27
 -10034498.71547  -7819091.63448  21461135.51048  21461135.48847  21461134.93648
     62139.11846     48410.48546  24683332.15148  24683333.87046  24683333.53846
 -14649592.42748 -11415267.28248  19602231.48149  19602230.92348  19602233.24248
 -11112891.92148  -8659396.29648  21000403.88348  21000404.13848  21000405.14148
   7392937.73446   5760731.59746  23259172.78848  23259172.25046  23259173.07246
 -12875489.42949 -10032849.15148  19579305.38749  19579305.35249  19579307.83548
   5043293.38346   3929837.98746  25236270.93247  25236271.43046  25236270.52246
 -14289464.83148 -11134647.83948  20353392.57348  20353392.76548  20353394.57148
   -188752.48046   -147086.86246  23460727.53648  23460727.63446  23460728.80646
 08 10 24 20 13 30.0000000  0  9 02 07 10 15 21 24 25 26 27
 -10250446.08147  -7987362.31648  21420042.29048  21420042.19247  21420041.70248
    181251.91546    141225.62946  24705998.72948  24705999.11446  24705998.34046
 -14594128.07548 -11372048.31348  19612786.04349  19612785.52048  19612787.70748
 -11373404.85048  -8862393.38248  20950829.89348  20950829.99148  20950830.99248
   7667044.15946   5974320.99746  23311333.79148  23311333.99546  23311333.89046
 -12710080.59349  -9903959.15948  19610781.65149  19610781.61049  19610784.13748
   5268014.72946   4104947.05346  25279037.59447  25279040.19346  25279038.54946
 -14519768.99948 -11314105.63248  20309567.13848  20309567.48548  20309569.01948
   -140089.60046   -109167.74646  23469987.93448  23469987.76546  23469989.42746
 08 10 24 20 13 40.0000000  0  9 02 07 10 15 21 24 25 26 27
 -10464341.80147  -8154034.29948  21379339.22348  21379339.03147  21379338.61148
    302806.83846    235943.72746  24729130.10448  24729131.32046  24729131.16546
 -14534531.61348 -11325609.52148  19624126.87849  19624126.33048  19624128.67348
 -11630594.82248  -9062801.15048  20901888.47948  20901888.43248  20901889.60148
   7942038.69246   6188602.43346  23363663.03348  23363663.79546  23363664.20746
 -12541714.23449  -9772764.60348  19642820.72649  19642820.68149  19642823.20348
   5494318.59246   4281304.68146  25322100.06347  25322101.76646  25322103.15446
 -14745774.25048 -11490213.62048  20266559.93848  20266559.94348  20266561.70748
    -88421.69446    -68907.07646  23479820.18448  23479819.94646  23479822.11646
 08 10 24 20 13 50.0000000  0  9 02 07 08 10 15 21 24 26 27
 -10676159.87547  -8319087.34848  21339031.63548  21339031.21647  21339030.98848
    426784.22446    332549.44746  24752722.15548  24752720.59346  24752722.38746
    -80612.21856    -62814.48756  23723603.44458  23723604.56956  23723605.14856
 -14470817.76848 -11275962.37748  19636251.22249  19636250.73448  19636253.03648
 -11884405.49748  -9260575.70148  20853589.65448  20853590.02248  20853590.90948
   8217901.95346   6403560.82346  23416157.70448  23416158.45246  23416158.37146
 -12370412.93849  -9639283.08348  19675418.18449  19675418.21149  19675420.82448
 -14967425.44048 -11662928.84048  20224381.17048  20224381.24748  20224382.90448
    -33758.76846    -26312.57046  23490221.88548  23490220.61946  23490224.60346
 08 10 24 20 14 00.0000000  0  9 02 07 08 10 15 21 24 26 27
 -10885874.68247  -8482501.48948  21299124.10648  21299124.07347  21299123.44848
    553163.78446    431027.04246  24776771.73348  24776771.29146  24776771.49446
   -193253.19446   -150585.67046  23702169.11048  23702169.39146  23702171.33046
 -14403002.62148 -11223119.41248  19649156.04849  19649155.51648  19649157.79148
 -12134781.13048  -9455673.59448  20805944.78648  20805945.06648  20805946.11748
   8494614.39446   6619180.87646  23468815.37348  23468815.21646  23468815.51346
 -12196200.05149  -9503532.79148  19708569.81549  19708569.83749  19708572.38348
 -15184668.54748 -11832209.18248  20183041.02548  20183041.22748  20183042.96848
     23888.33146     18607.20646  23501191.99848  23501190.90146  23501192.81946
 08 10 24 20 14 10.0000000  0  9 02 07 08 10 15 21 24 26 27
 -11093455.01647  -8644252.39848  21259623.13448  21259623.17147  21259622.28348
    681930.53846    531364.74046  24801274.97248  24801275.63346  24801275.43746
   -302905.76246   -236029.27246  23681302.87648  23681302.46846  23681304.82946
 -14331097.46148 -11167089.42248  19662839.01549  19662838.56448  19662840.87748
 -12381660.42748  -9648047.07348  20758965.25748  20758965.50848  20758966.47748
   8772161.85046   6835451.61346  23521630.57648  23521630.05646  23521631.21646
 -12019093.50749  -9365527.70048  19742271.99449  19742272.04149  19742274.60148
 -15397444.72948 -11998008.81048  20142551.02248  20142551.13048  20142552.84248
     84513.56646     65847.62346  23512728.36148  23512727.81646  23512730.49746
 08 10 24 20 14 20.0000000  0  9 02 07 08 10 15 21 24 26 27
 -11298867.00547  -8804313.69048  21220534.54748  21220534.17447  21220533.93348
    813071.80946    633552.73846  24826229.98348  24826229.90146  24826230.14846
   -409542.24946   -319122.64946  23661010.32148  23661010.85446  23661012.93746
 -14255111.37848 -11107879.49648  19677298.83749  19677298.22848  19677300.61148
 -12624979.74748  -9837646.53748  20712662.97848  20712663.40848  20712664.43848
   9050533.37846   7052364.48046  23574602.64548  23574602.06246  23574603.70346
 -11839108.72748  -9225279.82948  19776522.04249  19776522.04748  19776524.69948
 -15605692.81048 -12160280.04448  20102922.81248  20102923.02248  20102924.63548
    148113.39346    115405.94046  23524831.01848  23524829.38646  23524832.39446
 08 10 24 20 14 30.0000000  0  9 02 07 08 10 15 21 24 26 27
 -11502076.68448  -8962658.90048  21181864.92548  21181864.73848  21181864.16248
    946574.98446    737581.15646  24851635.11748  24851635.57446  24851636.15846
   -513135.08346   -399844.39846  23641298.04648  23641296.50646  23641299.02946
 -14175054.19248 -11045497.28248  19692533.20049  19692532.63948  19692535.03448
 -12864675.45048 -10024422.40848  20667050.41048  20667050.79948  20667051.84748
   9329718.30546   7269911.15946  23627730.05248  23627729.50946  23627730.83346
 -11656261.13348  -9082801.19348  19811316.74449  19811316.81648  19811319.38148
 -15809352.09448 -12318975.59248  20064167.77449  20064167.97048  20064169.54348
    214683.73846    167278.93646  23537498.92748  23537499.13646  23537500.56046
 08 10 24 20 14 40.0000000  0  9 02 07 08 10 15 21 24 26 27
 -11703054.11248  -9119264.69748  21143620.11348  21143619.95848  21143619.72848
   1082422.91546    843436.67646  24877486.31348  24877486.52246  24877486.56046
   -613661.30946   -478176.53046  23622168.42148  23622169.08846  23622171.02146
 -14090940.28648 -10979953.98548  19708539.57749  19708538.96948  19708541.37048
 -13100688.02848 -10208328.31048  20622138.55548  20622138.91148  20622139.94748
   9609701.92246   7488080.20746  23681008.95348  23681008.74746  23681009.29746
 -11470570.38448  -8938107.11048  19846652.63049  19846652.58248  19846655.18248
 -16008366.50448 -12474051.76048  20026296.41149  20026296.77148  20026298.45548
    284216.12446    221459.98046  23550730.44148  23550729.32146  23550732.60646
 08 10 24 20 14 50.0000000  0  9 02 07 08 10 15 21 24 26 27
 -11901771.63548  -9274109.52248  21105805.50848  21105805.47248  21105804.91848
   1220596.32746    951104.22446  24903779.97248  24903780.30046  24903781.37946
   -711100.46046   -554103.13546  23603625.69648  23603626.73746  23603627.58346
 -14002786.87948 -10911263.02848  19725314.59649  19725314.06448  19725316.41148
 -13332960.51548 -10389319.85348  20577938.49748  20577939.01948  20577940.09448
   9890467.53446   7706858.58746  23734437.70948  23734437.32746  23734436.93546
 -11282058.41448  -8791214.67548  19882525.23649  19882525.15948  19882527.78148
 -16202682.79248 -12625467.04848  19989319.41649  19989319.51648  19989321.23348
    356699.51046    277940.52946  23564523.87848  23564524.56546  23564524.49746
 08 10 24 20 15 00.0000000  0  9 02 07 08 10 15 21 24 26 27
 -12098202.55148  -9427172.58048  21068425.91348  21068425.89648  21068425.20748
   1361074.42946   1060567.66846  24930511.83848  24930512.43646  24930511.96946
   -805433.56646   -627609.48046  23585675.68648  23585675.58246  23585675.90646
 -13910612.97348 -10839439.21448  19742854.84749  19742854.25548  19742856.56448
 -13561437.13448 -10567353.58248  20534461.07248  20534461.32348  20534462.40648
  10171997.94346   7926232.91546  23788010.59448  23788010.84346  23788011.05746
 -11090748.42348  -8642141.96248  19918930.32249  19918930.30148  19918932.86948
 -16392249.46548 -12773181.34248  19953246.04449  19953246.27548  19953248.04048
    432121.20546    336710.66446  23578875.79748  23578874.93546  23578879.50846
 08 10 24 20 15 10.0000000  0  9 02 07 08 10 15 21 24 26 27
 -12292324.81448  -9578436.68548  21031485.72848  21031485.56848  21031485.00548
   1503831.55446   1171806.93046  24957677.61748  24957679.12746  24957678.30446
   -896646.95546   -698684.85446  23568317.78348  23568317.29146  23568319.11246
 -13814442.71948 -10764501.36348  19761155.28049  19761154.76748  19761157.12548
 -13786067.07748 -10742389.90148  20491715.32248  20491715.64048  20491716.79148
  10454271.22246   8146186.13046  23841725.20148  23841725.88146  23841727.00246
 -10896668.32148  -8490910.72448  19955862.55449  19955862.52448  19955865.14048
 -16577020.42448 -12917158.71348  19918085.34749  19918085.52948  19918087.10648
    510463.56146    397757.11746  23593783.76748  23593784.15646  23593785.86046
 08 10 24 20 15 20.0000000  0  9 02 07 08 10 15 21 24 26 27
 -12484116.85848  -9727885.03248  20994988.81648  20994988.61148  20994988.15948
   1648841.57046   1284801.74346  24985271.86048  24985271.64846  24985273.38946
   -984727.67246   -767319.20946  23551556.59548  23551556.80946  23551557.70446
 -13714301.39948 -10686469.17248  19780211.56349  19780211.04148  19780213.45048
 -14006800.20048 -10914389.73648  20449711.40348  20449711.51348  20449712.75148
  10737265.35146   8366701.00146  23895577.81848  23895578.68446  23895577.96046
 -10699846.55048  -8337543.12048  19993316.53549  19993316.52148  19993319.05848
 -16756950.66348 -13057364.09748  19883845.64849  19883846.02948  19883847.60048
    591708.29946    461065.20046  23609243.79248  23609242.95846  23609246.73246
 08 10 24 20 15 30.0000000  0  9 02 07 08 10 15 21 24 26 27
 -12673558.52848  -9875501.92448  20958939.35348  20958939.23248  20958938.52048
   1796076.78546   1399530.47446  25013290.00248  25013290.11246  25013291.44846
  -1069664.61546   -833503.85046  23535393.76548  23535393.47046  23535395.86146
 -13610216.23048 -10605363.85848  19800018.36649  19800017.75848  19800020.22348
 -14223588.08548 -11083315.36248  20408457.99748  20408458.13948  20408459.25648
  11020957.14746   8587759.51546  23949562.21748  23949560.86046  23949562.11846
 -10500312.99848  -8182062.43948  20031286.48149  20031286.46148  20031288.95948
 -16931997.22048 -13193764.01348  19850535.47449  19850535.74148  19850537.29148
    675834.87546    526618.98746  23625252.86648  23625250.78446  23625254.80746
 08 10 24 20 15 40.0000000  0  9 02 07 08 10 15 21 24 26 27
 -12860630.82648 -10021272.55348  20923340.75248  20923340.35948  20923340.09548
   1945508.19346   1515970.48346  25041725.74748  25041725.99246  25041725.89846
  -1151448.33946   -897231.44846  23519830.91348  23519830.72546  23519832.69946
 -13502215.99548 -10521207.83848  19820570.11049  19820569.53448  19820571.96848
 -14436383.68248 -11249130.11548  20367964.17348  20367964.55248  20367965.62148
  11305322.23946   8809342.72846  24003675.33848  24003674.65946  24003675.50846
 -10298098.73648  -8024492.89348  20069766.64249  20069766.57848  20069769.14748
 -17102119.11148 -13326326.52848  19818162.31649  19818162.55048  19818164.15448
    762821.70546    594401.31046  23641806.11248  23641806.02846  23641808.72346
 08 10 24 20 15 50.0000000  0  9 02 07 08 10 15 21 24 26 27
 -13045314.94248 -10165182.25848  20888196.37348  20888196.18248  20888195.74048
   2097106.28446   1634098.84746  25070574.53548  25070574.78146  25070574.85646
  -1230069.93746   -958495.04046  23504869.58248  23504869.25046  23504871.01246
 -13390330.45648 -10434024.31248  19841861.26549  19841860.67748  19841863.09148
 -14645140.57248 -11411797.82248  20328239.03748  20328239.32948  20328240.61948
  11590336.63246   9031431.85046  24057911.80748  24057911.83146  24057910.78246
 -10093235.08248  -7864858.88648  20108750.92249  20108750.84848  20108753.40448
 -17267276.37848 -13455020.50848  19786733.98049  19786734.19048  19786735.77848
    852646.32646    664396.13846  23658899.09048  23658897.60846  23658900.41146
 08 10 24 20 16 00.0000000  0  9 02 07 08 10 15 21 24 26 27
 -13227591.49648 -10307215.94248  20853510.42448  20853510.36448  20853509.63448
   2250842.12246   1753893.01946  25099829.14848  25099829.15246  25099830.65246
  -1305520.58046  -1017287.79446  23490511.35948  23490512.67346  23490513.77246
 -13274589.11148 -10343836.25748  19863886.03149  19863885.54348  19863887.92548
 -14849812.05348 -11571282.09448  20289291.45948  20289291.76448  20289292.89848
  11875977.03746   9254008.77546  24112266.78748  24112265.78446  24112266.93146
  -9885752.85948  -7703184.43748  20148233.40049  20148233.43348  20148236.00248
 -17427429.32048 -13579815.01348  19756257.90849  19756258.19748  19756259.71448
    945286.68046    736580.85646  23676527.99947  23676526.80546  23676532.63246
 08 10 24 20 16 10.0000000  0  9 02 07 08 10 15 21 24 26 27
 -13407440.96448 -10447358.39048  20819286.10248  20819286.08148  20819285.50248
   2406686.92846   1875330.50246  25129485.80248  25129488.78346  25129486.06746
  -1377791.44246  -1073602.76746  23476759.79648  23476758.94946  23476761.83546
 -13155021.83148 -10250666.96048  19886638.94549  19886638.51748  19886640.84348
 -15050351.71348 -11727546.76448  20251130.03048  20251130.23348  20251131.47748
  12162220.46046   9477055.62546  24166737.37348  24166735.82946  24166737.28746
  -9675682.65048  -7539493.37548  20188208.46249  20188208.47948  20188211.02848
 -17582538.73648 -13700679.50048  19726741.53749  19726741.79248  19726743.37248
   1040720.38746    810947.43646  23694688.95447  23694691.93246  23694691.87046
 08 10 24 20 16 20.0000000  0  8 02 07 08 10 15 21 24 26
 -13584843.13648 -10585593.85248  20785527.56548  20785527.48348  20785527.13748
   2564612.29946   1998389.21846  25159537.63648  25159537.97446  25159538.43946
  -1446873.60546  -1127433.00746  23463613.07048  23463613.64946  23463615.88446
 -13031658.04048 -10154539.33848  19910114.32349  19910113.73548  19910116.20848
 -15246712.71248 -11880555.33448  20213763.75048  20213764.01948  20213765.18948
  12449045.22446   9700554.51746  24221318.38248  24221317.48846  24221320.19446
  -9463054.33848  -7373808.98748  20228670.37249  20228670.34048  20228672.88348
 -17732565.68648 -13817583.62448  19698192.38349  19698192.63448  19698194.14048
 08 10 24 20 16 30.0000000  0  8 02 07 08 10 15 21 24 26
 -13759777.75848 -10721906.55448  20752238.73448  20752238.34548  20752238.23048
   2724589.91646   2123047.06646  25189980.39148  25189980.42946  25189981.12146
  -1512758.53146  -1178771.91946  23451075.44248  23451076.25346  23451078.50646
 -12904527.85348 -10055476.86448  19934306.38049  19934305.92548  19934308.28748
 -15438848.56848 -12030271.58248  20177201.46848  20177201.70648  20177202.94548
  12736429.53046   9924486.66446  24276005.55648  24276005.75446  24276005.86746
  -9247897.87848  -7206154.61348  20269613.23649  20269613.21748  20269615.88148
 -17877472.21748 -13930497.81148  19670617.59049  19670617.82148  19670619.32548
 08 10 24 20 16 40.0000000  0  8 02 07 08 10 15 21 24 26
 -13932224.70848 -10856280.80748  20719423.31948  20719423.06948  20719422.39148
   2886591.11246   2249281.72046  25220807.94248  25220809.18746  25220809.03946
  -1575438.37846  -1227613.37746  23439148.08448  23439147.53846  23439150.79246
 -12773661.90748  -9953503.40848  19959209.36649  19959208.84148  19959211.27048
 -15626713.69648 -12176659.99248  20141451.85548  20141452.11548  20141453.40248
  13024351.86446  10148840.14646  24330796.13047  24330798.00246  24330795.60146
  -9030243.25948  -7036553.62148  20311031.41249  20311031.48248  20311034.10648
 -18017221.15048 -14039393.09248  19644024.23449  19644024.48948  19644026.11448
 08 10 24 20 16 50.0000000  0  8 02 07 08 10 15 21 24 26
 -14102169.31648 -10988705.18348  20687083.75648  20687083.71248  20687083.09848
   3050582.03046   2377066.84946  25252014.13848  25252013.88046  25252015.71446
  -1634910.92946  -1273955.72846  23427830.56848  23427830.22146  23427833.54646
 -12639096.43548  -9848647.20648  19984816.27649  19984815.80448  19984818.25248
 -15810267.98248 -12319689.30748  20106522.64748  20106522.99748  20106524.14248
  13312785.84346  10373595.69146  24385682.22447  24385682.07546  24385682.59346
  -8810125.66048  -6865033.42548  20352918.50549  20352918.52248  20352921.13348
 -18151781.80948 -14144245.55948  19618418.15249  19618418.48548  19618420.00048
 08 10 24 20 17 00.0000000  0  8 02 07 08 10 15 21 24 26
 -14269601.57148 -11119171.87948  20655222.56448  20655222.19548  20655221.95048
   3216523.81846   2506372.12946  25283592.29448  25283592.21846  25283593.56446
  -1691179.17246  -1317801.04546  23417123.02248  23417123.76146  23417125.73146
 -12500873.03248  -9740940.66748  20011119.44049  20011118.88848  20011121.33148
 -15989476.67148 -12459332.43748  20072420.41448  20072420.66048  20072421.87048
  13601700.37246  10598701.76346  24440663.57047  24440662.79646  24440663.70146
  -8587584.99248  -6691625.12448  20395266.61649  20395266.61948  20395269.25748
 -18281128.99448 -14245035.57748  19593804.21449  19593804.51848  19593806.10848
 08 10 24 20 17 10.0000000  0  9 02 07 08 10 15 21 24 26 27
 -14434509.89148 -11247671.87148  20623841.53748  20623841.26948  20623840.89848
   3384379.22046   2637168.49846  25315534.37148  25315534.95446  25315534.98946
  -1744244.97846  -1359151.03346  23407025.62248  23407024.20646  23407027.27446
 -12359031.80548  -9630415.04648  20038110.91549  20038110.38048  20038112.77648
 -16164303.98048 -12595561.50948  20039151.87848  20039152.11948  20039153.32448
  13891066.37046  10824180.06046  24495726.94847  24495725.57746  24495728.06046
  -8362659.54648  -6516358.55648  20438068.60149  20438068.52448  20438071.12548
 -18405237.19048 -14341743.26648  19570187.19749  19570187.55948  19570189.05548
     67321.56256     52454.75456  23814563.97557  23814563.73756  23814565.29156
 08 10 24 20 17 20.0000000  0  9 02 07 08 10 15 21 24 26 27
 -14597153.20448 -11374406.92748  20592891.62448  20592891.46848  20592890.85348
   3553840.65446   2769217.35846  25347781.62848  25347782.45346  25347782.14246
  -1794381.13246  -1398218.15046  23397484.27948  23397485.36546  23397486.38146
 -12213883.75648  -9517312.67648  20065731.64249  20065731.22548  20065733.53148
 -16334985.00448 -12728559.70848  20006672.32648  20006672.79348  20006673.82248
  14180584.59446  11049778.70946  24550818.69347  24550815.36246  24550820.04046
  -8135657.92048  -6339474.18248  20481265.53849  20481265.58148  20481268.02048
 -18524352.13348 -14434560.10648  19547520.35949  19547520.78548  19547522.28948
    181330.79746    141293.91846  23836257.70947  23836257.20546  23836260.15946
 08 10 24 20 17 30.0000000  0  9 02 07 08 10 15 21 24 26 27
 -14758078.86048 -11499803.54548  20562268.42848  20562268.24748  20562267.66848
   3724312.03446   2902052.50246  25380221.07648  25380221.75246  25380222.63946
  -1842149.19346  -1435440.04946  23388395.19248  23388392.79546  23388396.62346
 -12066028.63848  -9402100.90648  20093867.48449  20093867.03548  20093869.45548
 -16502043.85048 -12858735.43648  19974882.15148  19974882.33948  19974883.51048
  14469667.72146  11275031.89446  24605829.97147  24605828.73646  24605828.22946
  -7907177.04848  -6161437.15148  20524743.92149  20524743.96048  20524746.59448
 -18639008.93048 -14523903.06648  19525701.96449  19525702.11948  19525703.83648
    297080.03046    231487.07146  23858284.36447  23858284.24046  23858285.58146
 08 10 24 20 17 40.0000000  0  9 02 07 08 10 15 21 24 26 27
 -14916476.20448 -11623230.05448  20532126.29048  20532126.16948  20532125.62048
   3896555.29546   3036264.69646  25412997.80547  25412997.40546  25412999.94946
  -1886753.14746  -1470196.37446  23379906.63348  23379906.41346  23379909.00446
 -11914708.22448  -9284188.90648  20122662.84249  20122662.35348  20122664.74048
 -16664647.05348 -12985439.23348  19943939.79849  19943939.92448  19943941.24548
  14759086.70246  11500558.45346  24660903.45447  24660902.45346  24660905.93546
  -7676455.67648  -5981654.27648  20568648.76049  20568648.70148  20568651.29848
 -18748385.78748 -14609131.78948  19504888.20349  19504888.52948  19504890.12248
    415335.82446    323637.38446  23880787.27147  23880784.96646  23880789.63646
